[
  {
    "name": "wandur",
    "cc2": "13",
    "latitude": 11.19579,
    "longitude": 76.23632
  },
  {
    "name": "vypin",
    "cc2": "13",
    "latitude": 9.96667,
    "longitude": 76.25
  },
  {
    "name": "vilinjam",
    "cc2": "13",
    "latitude": 8.37585,
    "longitude": 76.98888
  },
  {
    "name": "vettutura",
    "cc2": "13",
    "latitude": 8.58004,
    "longitude": 76.83088
  },
  {
    "name": "vettur",
    "cc2": "13",
    "latitude": 8.71742,
    "longitude": 76.72582
  },
  {
    "name": "vennikulam",
    "cc2": "13",
    "latitude": 9.4,
    "longitude": 76.66667
  },
  {
    "name": "venjaramudu",
    "cc2": "13",
    "latitude": 8.67818,
    "longitude": 76.9098
  },
  {
    "name": "vempayam",
    "cc2": "13",
    "latitude": 8.61667,
    "longitude": 76.93333
  },
  {
    "name": "vellanad",
    "cc2": "13",
    "latitude": 8.55979,
    "longitude": 77.05033
  },
  {
    "name": "veli",
    "cc2": "13",
    "latitude": 8.50653,
    "longitude": 76.8962
  },
  {
    "name": "vazhani",
    "cc2": "13",
    "latitude": 10.63325,
    "longitude": 76.31423
  },
  {
    "name": "vazhakulam",
    "cc2": "13",
    "latitude": 9.95,
    "longitude": 76.65
  },
  {
    "name": "vayittiri",
    "cc2": "13",
    "latitude": 11.55295,
    "longitude": 76.03941
  },
  {
    "name": "vayalar",
    "cc2": "13",
    "latitude": 9.71158,
    "longitude": 76.33888
  },
  {
    "name": "varkala",
    "cc2": "13",
    "latitude": 8.7333,
    "longitude": 76.7167
  },
  {
    "name": "vaniyambalam",
    "cc2": "13",
    "latitude": 11.18903,
    "longitude": 76.23397
  },
  {
    "name": "vandiperiyar",
    "cc2": "13",
    "latitude": 9.57027,
    "longitude": 77.08962
  },
  {
    "name": "vandamettu",
    "cc2": "13",
    "latitude": 9.72219,
    "longitude": 77.15426
  },
  {
    "name": "vallikunnu",
    "cc2": "13",
    "latitude": 11.13333,
    "longitude": 75.83333
  },
  {
    "name": "vallappuzha",
    "cc2": "13",
    "latitude": 10.84028,
    "longitude": 76.25236
  },
  {
    "name": "valiyora",
    "cc2": "13",
    "latitude": 11.03333,
    "longitude": 75.91667
  },
  {
    "name": "azhikkal",
    "cc2": "13",
    "latitude": 11.94043,
    "longitude": 75.30512
  },
  {
    "name": "valancheri",
    "cc2": "13",
    "latitude": 10.88209,
    "longitude": 76.07968
  },
  {
    "name": "valakkad",
    "cc2": "13",
    "latitude": 11.24603,
    "longitude": 75.9552
  },
  {
    "name": "vaikam",
    "cc2": "13",
    "latitude": 9.74858,
    "longitude": 76.39637
  },
  {
    "name": "vadakancheri",
    "cc2": "13",
    "latitude": 10.66039,
    "longitude": 76.24656
  },
  {
    "name": "vadakkancheri",
    "cc2": "13",
    "latitude": 10.5905,
    "longitude": 76.48404
  },
  {
    "name": "urakam",
    "cc2": "13",
    "latitude": 10.43333,
    "longitude": 76.21667
  },
  {
    "name": "uppala",
    "cc2": "13",
    "latitude": 12.68436,
    "longitude": 74.90068
  },
  {
    "name": "udumbanshola",
    "cc2": "13",
    "latitude": 9.9002,
    "longitude": 77.17753
  },
  {
    "name": "tuvur",
    "cc2": "13",
    "latitude": 11.11621,
    "longitude": 76.28516
  },
  {
    "name": "turavur",
    "cc2": "13",
    "latitude": 9.76667,
    "longitude": 76.31667
  },
  {
    "name": "thiruvananthapuram",
    "cc2": "13",
    "latitude": 8.4855,
    "longitude": 76.94924
  },
  {
    "name": "trittala",
    "cc2": "13",
    "latitude": 10.80303,
    "longitude": 76.12885
  },
  {
    "name": "tripunittura",
    "cc2": "13",
    "latitude": 9.94283,
    "longitude": 76.33331
  },
  {
    "name": "trikkunnapuzha",
    "cc2": "13",
    "latitude": 9.26089,
    "longitude": 76.40924
  },
  {
    "name": "trikodi",
    "cc2": "13",
    "latitude": 11.48333,
    "longitude": 75.61667
  },
  {
    "name": "trikkalangod",
    "cc2": "13",
    "latitude": 11.15407,
    "longitude": 76.12456
  },
  {
    "name": "thrissur",
    "cc2": "13",
    "latitude": 10.51667,
    "longitude": 76.21667
  },
  {
    "name": "todupulai",
    "cc2": "13",
    "latitude": 9.9,
    "longitude": 76.71667
  },
  {
    "name": "tiruvallam",
    "cc2": "13",
    "latitude": 8.4081,
    "longitude": 76.9685
  },
  {
    "name": "tiruvalla",
    "cc2": "13",
    "latitude": 9.3816,
    "longitude": 76.57489
  },
  {
    "name": "tirurangadi",
    "cc2": "13",
    "latitude": 11.04316,
    "longitude": 75.92337
  },
  {
    "name": "tirur",
    "cc2": "13",
    "latitude": 10.91368,
    "longitude": 75.92118
  },
  {
    "name": "tindummal",
    "cc2": "13",
    "latitude": 11.83771,
    "longitude": 75.94863
  },
  {
    "name": "tikkotti",
    "cc2": "13",
    "latitude": 11.48333,
    "longitude": 75.61667
  },
  {
    "name": "thekkadi",
    "cc2": "13",
    "latitude": 9.60346,
    "longitude": 77.15999
  },
  {
    "name": "thattakad",
    "cc2": "13",
    "latitude": 10.12631,
    "longitude": 76.68547
  },
  {
    "name": "thanniyam",
    "cc2": "13",
    "latitude": 10.41667,
    "longitude": 76.13333
  },
  {
    "name": "thanikudi",
    "cc2": "13",
    "latitude": 9.48223,
    "longitude": 77.2762
  },
  {
    "name": "tellicherry",
    "cc2": "13",
    "latitude": 11.74811,
    "longitude": 75.4929
  },
  {
    "name": "tekkumuri",
    "cc2": "13",
    "latitude": 9.9,
    "longitude": 76.28333
  },
  {
    "name": "talakkad",
    "cc2": "13",
    "latitude": 11.33097,
    "longitude": 75.97492
  },
  {
    "name": "tattamangalam",
    "cc2": "13",
    "latitude": 10.68117,
    "longitude": 76.70516
  },
  {
    "name": "tariyott",
    "cc2": "13",
    "latitude": 11.64935,
    "longitude": 75.9607
  },
  {
    "name": "tanniyurnagaram",
    "cc2": "13",
    "latitude": 10.98317,
    "longitude": 75.869
  },
  {
    "name": "tangasseri",
    "cc2": "13",
    "latitude": 8.88391,
    "longitude": 76.56684
  },
  {
    "name": "tamarakulam",
    "cc2": "13",
    "latitude": 9.14528,
    "longitude": 76.6132
  },
  {
    "name": "taliparamba",
    "cc2": "13",
    "latitude": 12.04161,
    "longitude": 75.35927
  },
  {
    "name": "talayolaparambu",
    "cc2": "13",
    "latitude": 9.8,
    "longitude": 76.45
  },
  {
    "name": "talavadi",
    "cc2": "13",
    "latitude": 9.35,
    "longitude": 76.53333
  },
  {
    "name": "talakkad",
    "cc2": "13",
    "latitude": 10.88459,
    "longitude": 75.93091
  },
  {
    "name": "ganapathivattam",
    "cc2": "13",
    "latitude": 11.66291,
    "longitude": 76.2562
  },
  {
    "name": "shoranur",
    "cc2": "13",
    "latitude": 10.76181,
    "longitude": 76.27078
  },
  {
    "name": "shertallai",
    "cc2": "13",
    "latitude": 9.68581,
    "longitude": 76.33996
  },
  {
    "name": "sasthankotta",
    "cc2": "13",
    "latitude": 9.04269,
    "longitude": 76.62725
  },
  {
    "name": "rani",
    "cc2": "13",
    "latitude": 9.38333,
    "longitude": 76.81667
  },
  {
    "name": "ramantali",
    "cc2": "13",
    "latitude": 12.05298,
    "longitude": 75.19096
  },
  {
    "name": "ramankari",
    "cc2": "13",
    "latitude": 9.43037,
    "longitude": 76.46688
  },
  {
    "name": "ramamangalam",
    "cc2": "13",
    "latitude": 9.93333,
    "longitude": 76.5
  },
  {
    "name": "kollam",
    "cc2": "13",
    "latitude": 8.88113,
    "longitude": 76.58469
  },
  {
    "name": "koyilandy",
    "cc2": "13",
    "latitude": 11.4381,
    "longitude": 75.69306
  },
  {
    "name": "puvar",
    "cc2": "13",
    "latitude": 8.3146,
    "longitude": 77.06856
  },
  {
    "name": "puthuppadi",
    "cc2": "13",
    "latitude": 11.5,
    "longitude": 75.96667
  },
  {
    "name": "puthupalli",
    "cc2": "13",
    "latitude": 9.5,
    "longitude": 76.53333
  },
  {
    "name": "punnapra",
    "cc2": "13",
    "latitude": 9.43333,
    "longitude": 76.35
  },
  {
    "name": "punalur",
    "cc2": "13",
    "latitude": 9.01956,
    "longitude": 76.92261
  },
  {
    "name": "pullappalli",
    "cc2": "13",
    "latitude": 9.68333,
    "longitude": 76.61667
  },
  {
    "name": "puduveli",
    "cc2": "13",
    "latitude": 9.81667,
    "longitude": 76.6
  },
  {
    "name": "pudunagaram",
    "cc2": "13",
    "latitude": 10.68018,
    "longitude": 76.68363
  },
  {
    "name": "puchakad",
    "cc2": "13",
    "latitude": 12.37673,
    "longitude": 75.05608
  },
  {
    "name": "pottundi",
    "cc2": "13",
    "latitude": 10.55,
    "longitude": 76.61667
  },
  {
    "name": "poringalkuthu",
    "cc2": "13",
    "latitude": 10.28333,
    "longitude": 76.43333
  },
  {
    "name": "ponnani",
    "cc2": "13",
    "latitude": 10.76695,
    "longitude": 75.92523
  },
  {
    "name": "pirmed",
    "cc2": "13",
    "latitude": 9.57161,
    "longitude": 76.99335
  },
  {
    "name": "piravam",
    "cc2": "13",
    "latitude": 9.86667,
    "longitude": 76.5
  },
  {
    "name": "perumpavur",
    "cc2": "13",
    "latitude": 10.11544,
    "longitude": 76.47611
  },
  {
    "name": "perumkulam",
    "cc2": "13",
    "latitude": 8.50534,
    "longitude": 77.08031
  },
  {
    "name": "perumbalam",
    "cc2": "13",
    "latitude": 9.85,
    "longitude": 76.36667
  },
  {
    "name": "perumanseri",
    "cc2": "13",
    "latitude": 8.96714,
    "longitude": 76.61034
  },
  {
    "name": "perya",
    "cc2": "13",
    "latitude": 11.83334,
    "longitude": 75.85408
  },
  {
    "name": "perintalmanna",
    "cc2": "13",
    "latitude": 10.97724,
    "longitude": 76.22541
  },
  {
    "name": "peringom",
    "cc2": "13",
    "latitude": 12.25,
    "longitude": 75.3
  },
  {
    "name": "perinad",
    "cc2": "13",
    "latitude": 9.11667,
    "longitude": 76.48333
  },
  {
    "name": "perdal",
    "cc2": "13",
    "latitude": 12.60114,
    "longitude": 75.07183
  },
  {
    "name": "peradiyur",
    "cc2": "13",
    "latitude": 10.89643,
    "longitude": 76.18886
  },
  {
    "name": "pazhayannur",
    "cc2": "13",
    "latitude": 10.67943,
    "longitude": 76.42567
  },
  {
    "name": "payyoli",
    "cc2": "13",
    "latitude": 11.52683,
    "longitude": 75.65739
  },
  {
    "name": "payyanur",
    "cc2": "13",
    "latitude": 12.0935,
    "longitude": 75.20249
  },
  {
    "name": "pattiyurgramam",
    "cc2": "13",
    "latitude": 9.17744,
    "longitude": 76.50115
  },
  {
    "name": "pattikad",
    "cc2": "13",
    "latitude": 10.55518,
    "longitude": 76.32759
  },
  {
    "name": "pattanapuram",
    "cc2": "13",
    "latitude": 9.08762,
    "longitude": 76.86523
  },
  {
    "name": "pattambi",
    "cc2": "13",
    "latitude": 10.80005,
    "longitude": 76.18408
  },
  {
    "name": "pathanamthitta",
    "cc2": "13",
    "latitude": 9.26667,
    "longitude": 76.78333
  },
  {
    "name": "parur",
    "cc2": "13",
    "latitude": 10.1477,
    "longitude": 76.23
  },
  {
    "name": "pariyapuram",
    "cc2": "13",
    "latitude": 11.01667,
    "longitude": 75.86667
  },
  {
    "name": "paravur tekkumbhagam",
    "cc2": "13",
    "latitude": 8.7947,
    "longitude": 76.66798
  },
  {
    "name": "parattipalli",
    "cc2": "13",
    "latitude": 8.56692,
    "longitude": 77.10526
  },
  {
    "name": "parappanangadi",
    "cc2": "13",
    "latitude": 11.04638,
    "longitude": 75.8636
  },
  {
    "name": "parambikulam",
    "cc2": "13",
    "latitude": 10.39045,
    "longitude": 76.79239
  },
  {
    "name": "pappinissheri",
    "cc2": "13",
    "latitude": 11.95655,
    "longitude": 75.34034
  },
  {
    "name": "ponmana",
    "cc2": "13",
    "latitude": 9.00798,
    "longitude": 76.52023
  },
  {
    "name": "pandikkad",
    "cc2": "13",
    "latitude": 11.09641,
    "longitude": 76.22406
  },
  {
    "name": "panamaram",
    "cc2": "13",
    "latitude": 11.74014,
    "longitude": 76.07369
  },
  {
    "name": "pambadi",
    "cc2": "13",
    "latitude": 9.56667,
    "longitude": 76.66667
  },
  {
    "name": "palod",
    "cc2": "13",
    "latitude": 8.71278,
    "longitude": 77.02706
  },
  {
    "name": "pallippuram",
    "cc2": "13",
    "latitude": 10.15082,
    "longitude": 76.18958
  },
  {
    "name": "palakkad",
    "cc2": "13",
    "latitude": 10.77319,
    "longitude": 76.65366
  },
  {
    "name": "palayam",
    "cc2": "13",
    "latitude": 8.48333,
    "longitude": 76.91667
  },
  {
    "name": "padagiri",
    "cc2": "13",
    "latitude": 10.48333,
    "longitude": 76.7
  },
  {
    "name": "ottapalam",
    "cc2": "13",
    "latitude": 10.7735,
    "longitude": 76.37758
  },
  {
    "name": "ollur",
    "cc2": "13",
    "latitude": 10.46667,
    "longitude": 76.23333
  },
  {
    "name": "olakara",
    "cc2": "13",
    "latitude": 11.1,
    "longitude": 75.91667
  },
  {
    "name": "nindakara",
    "cc2": "13",
    "latitude": 8.94791,
    "longitude": 76.53829
  },
  {
    "name": "nileswaram",
    "cc2": "13",
    "latitude": 12.33333,
    "longitude": 75.1
  },
  {
    "name": "nileshwar",
    "cc2": "13",
    "latitude": 12.25953,
    "longitude": 75.1352
  },
  {
    "name": "nilamel",
    "cc2": "13",
    "latitude": 8.82374,
    "longitude": 76.88298
  },
  {
    "name": "nilambur",
    "cc2": "13",
    "latitude": 11.27271,
    "longitude": 76.22571
  },
  {
    "name": "neyyattinkara",
    "cc2": "13",
    "latitude": 8.39854,
    "longitude": 77.08586
  },
  {
    "name": "neriyamangalam",
    "cc2": "13",
    "latitude": 10.05298,
    "longitude": 76.77708
  },
  {
    "name": "nemmara",
    "cc2": "13",
    "latitude": 10.59356,
    "longitude": 76.5964
  },
  {
    "name": "nellayi",
    "cc2": "13",
    "latitude": 10.4,
    "longitude": 76.3
  },
  {
    "name": "nedumangad",
    "cc2": "13",
    "latitude": 8.60267,
    "longitude": 77.00139
  },
  {
    "name": "narakal",
    "cc2": "13",
    "latitude": 10.03833,
    "longitude": 76.2221
  },
  {
    "name": "nallepilli",
    "cc2": "13",
    "latitude": 10.72993,
    "longitude": 76.78515
  },
  {
    "name": "naduvannur",
    "cc2": "13",
    "latitude": 11.48772,
    "longitude": 75.77511
  },
  {
    "name": "nadapuram",
    "cc2": "13",
    "latitude": 11.68465,
    "longitude": 75.65493
  },
  {
    "name": "muvattupula",
    "cc2": "13",
    "latitude": 9.98493,
    "longitude": 76.57728
  },
  {
    "name": "muttam",
    "cc2": "13",
    "latitude": 9.98333,
    "longitude": 76.38333
  },
  {
    "name": "muttam",
    "cc2": "13",
    "latitude": 9.83333,
    "longitude": 76.75
  },
  {
    "name": "muthalamada",
    "cc2": "13",
    "latitude": 10.62112,
    "longitude": 76.78096
  },
  {
    "name": "munnar",
    "cc2": "13",
    "latitude": 10.08818,
    "longitude": 77.06239
  },
  {
    "name": "mundur",
    "cc2": "13",
    "latitude": 10.83739,
    "longitude": 76.57591
  },
  {
    "name": "mundakayam",
    "cc2": "13",
    "latitude": 9.53751,
    "longitude": 76.88518
  },
  {
    "name": "muluppilagadu",
    "cc2": "13",
    "latitude": 11.79788,
    "longitude": 75.45111
  },
  {
    "name": "mukkad",
    "cc2": "13",
    "latitude": 8.92869,
    "longitude": 76.55727
  },
  {
    "name": "meppadi",
    "cc2": "13",
    "latitude": 11.55344,
    "longitude": 76.13259
  },
  {
    "name": "mennanyam",
    "cc2": "13",
    "latitude": 11.5579,
    "longitude": 75.75964
  },
  {
    "name": "memunda",
    "cc2": "13",
    "latitude": 11.59815,
    "longitude": 75.59596
  },
  {
    "name": "melattur",
    "cc2": "13",
    "latitude": 11.06408,
    "longitude": 76.2751
  },
  {
    "name": "mavoor",
    "cc2": "13",
    "latitude": 11.26667,
    "longitude": 75.91667
  },
  {
    "name": "mavelikara",
    "cc2": "13",
    "latitude": 9.25929,
    "longitude": 76.55642
  },
  {
    "name": "mattanur",
    "cc2": "13",
    "latitude": 11.93018,
    "longitude": 75.57152
  },
  {
    "name": "mattancheri",
    "cc2": "13",
    "latitude": 9.93747,
    "longitude": 76.25166
  },
  {
    "name": "marayur",
    "cc2": "13",
    "latitude": 10.27641,
    "longitude": 77.16205
  },
  {
    "name": "mannarakkat",
    "cc2": "13",
    "latitude": 10.99223,
    "longitude": 76.46418
  },
  {
    "name": "mankara",
    "cc2": "13",
    "latitude": 10.78479,
    "longitude": 76.50356
  },
  {
    "name": "manjeshvar",
    "cc2": "13",
    "latitude": 12.71287,
    "longitude": 74.88857
  },
  {
    "name": "manjeri",
    "cc2": "13",
    "latitude": 11.12018,
    "longitude": 76.11996
  },
  {
    "name": "manimala",
    "cc2": "13",
    "latitude": 9.48333,
    "longitude": 76.75
  },
  {
    "name": "manganam",
    "cc2": "13",
    "latitude": 9.58333,
    "longitude": 76.55
  },
  {
    "name": "mangalapuram",
    "cc2": "13",
    "latitude": 8.62535,
    "longitude": 76.84872
  },
  {
    "name": "mangalapadi",
    "cc2": "13",
    "latitude": 12.66868,
    "longitude": 74.91039
  },
  {
    "name": "manattala",
    "cc2": "13",
    "latitude": 10.58105,
    "longitude": 76.02302
  },
  {
    "name": "manantoddy",
    "cc2": "13",
    "latitude": 11.8032,
    "longitude": 76.00451
  },
  {
    "name": "malayattur",
    "cc2": "13",
    "latitude": 10.2,
    "longitude": 76.53333
  },
  {
    "name": "malappuram",
    "cc2": "13",
    "latitude": 11.04199,
    "longitude": 76.08154
  },
  {
    "name": "mala",
    "cc2": "13",
    "latitude": 10.24258,
    "longitude": 76.26348
  },
  {
    "name": "makarachal",
    "cc2": "13",
    "latitude": 10.20341,
    "longitude": 76.71297
  },
  {
    "name": "mahe",
    "cc2": "13",
    "latitude": 11.70172,
    "longitude": 75.53474
  },
  {
    "name": "madwa",
    "cc2": "13",
    "latitude": 12.62291,
    "longitude": 74.93092
  },
  {
    "name": "lokamaleswaram",
    "cc2": "13",
    "latitude": 10.22461,
    "longitude": 76.1923
  },
  {
    "name": "lalam",
    "cc2": "13",
    "latitude": 9.71667,
    "longitude": 76.7
  },
  {
    "name": "lakkiti",
    "cc2": "13",
    "latitude": 10.75624,
    "longitude": 76.43691
  },
  {
    "name": "kuttyadi",
    "cc2": "13",
    "latitude": 11.65406,
    "longitude": 75.75397
  },
  {
    "name": "kuttuparamba",
    "cc2": "13",
    "latitude": 11.82775,
    "longitude": 75.5659
  },
  {
    "name": "kuttippuram",
    "cc2": "13",
    "latitude": 10.84246,
    "longitude": 76.03077
  },
  {
    "name": "kuttattukulam",
    "cc2": "13",
    "latitude": 9.86667,
    "longitude": 76.6
  },
  {
    "name": "kuttampuzha",
    "cc2": "13",
    "latitude": 10.15033,
    "longitude": 76.73544
  },
  {
    "name": "kutiatodu",
    "cc2": "13",
    "latitude": 9.8,
    "longitude": 76.33333
  },
  {
    "name": "kuravalangad",
    "cc2": "13",
    "latitude": 9.75,
    "longitude": 76.56667
  },
  {
    "name": "kunnamkulam",
    "cc2": "13",
    "latitude": 10.64667,
    "longitude": 76.06695
  },
  {
    "name": "kunnamangalam",
    "cc2": "13",
    "latitude": 11.30459,
    "longitude": 75.87772
  },
  {
    "name": "kumudi",
    "cc2": "13",
    "latitude": 9.96667,
    "longitude": 76.93333
  },
  {
    "name": "kumbla",
    "cc2": "13",
    "latitude": 12.59097,
    "longitude": 74.94449
  },
  {
    "name": "kumarakom",
    "cc2": "13",
    "latitude": 9.6,
    "longitude": 76.43333
  },
  {
    "name": "kulattur",
    "cc2": "13",
    "latitude": 10.94124,
    "longitude": 76.14605
  },
  {
    "name": "kudayattur",
    "cc2": "13",
    "latitude": 9.8,
    "longitude": 76.8
  },
  {
    "name": "kozhinjampara",
    "cc2": "13",
    "latitude": 10.73785,
    "longitude": 76.83625
  },
  {
    "name": "kozhikode",
    "cc2": "13",
    "latitude": 11.24802,
    "longitude": 75.7804
  },
  {
    "name": "kozhancheri",
    "cc2": "13",
    "latitude": 9.35,
    "longitude": 76.7
  },
  {
    "name": "kovalam",
    "cc2": "13",
    "latitude": 8.36667,
    "longitude": 76.99667
  },
  {
    "name": "kottayam",
    "cc2": "13",
    "latitude": 11.82519,
    "longitude": 75.54779
  },
  {
    "name": "kottayam",
    "cc2": "13",
    "latitude": 9.58692,
    "longitude": 76.52132
  },
  {
    "name": "kottarakara",
    "cc2": "13",
    "latitude": 9.00359,
    "longitude": 76.77383
  },
  {
    "name": "kottara",
    "cc2": "13",
    "latitude": 8.9135,
    "longitude": 76.74129
  },
  {
    "name": "kottakkal",
    "cc2": "13",
    "latitude": 11.00089,
    "longitude": 76.00618
  },
  {
    "name": "kotamangalam",
    "cc2": "13",
    "latitude": 10.06435,
    "longitude": 76.62843
  },
  {
    "name": "koroth",
    "cc2": "13",
    "latitude": 11.74415,
    "longitude": 75.88074
  },
  {
    "name": "koni",
    "cc2": "13",
    "latitude": 9.22504,
    "longitude": 76.85045
  },
  {
    "name": "kongad",
    "cc2": "13",
    "latitude": 10.8528,
    "longitude": 76.52288
  },
  {
    "name": "kondotty",
    "cc2": "13",
    "latitude": 11.1423,
    "longitude": 75.9657
  },
  {
    "name": "kondalseri",
    "cc2": "13",
    "latitude": 8.80213,
    "longitude": 76.65954
  },
  {
    "name": "kommeri",
    "cc2": "13",
    "latitude": 11.85497,
    "longitude": 75.72743
  },
  {
    "name": "kollengode",
    "cc2": "13",
    "latitude": 10.61667,
    "longitude": 76.7
  },
  {
    "name": "kollam",
    "cc2": "13",
    "latitude": 11.45602,
    "longitude": 75.68273
  },
  {
    "name": "kolitottattutura",
    "cc2": "13",
    "latitude": 8.9952,
    "longitude": 76.52325
  },
  {
    "name": "kolattupuzha",
    "cc2": "13",
    "latitude": 8.90557,
    "longitude": 77.05438
  },
  {
    "name": "kokkanissheri",
    "cc2": "13",
    "latitude": 12.10938,
    "longitude": 75.20916
  },
  {
    "name": "kodungallur",
    "cc2": "13",
    "latitude": 10.23263,
    "longitude": 76.19513
  },
  {
    "name": "kizhillam",
    "cc2": "13",
    "latitude": 10.05798,
    "longitude": 76.52489
  },
  {
    "name": "kizhake chalakudi",
    "cc2": "13",
    "latitude": 10.30067,
    "longitude": 76.33763
  },
  {
    "name": "kiluparamba",
    "cc2": "13",
    "latitude": 11.26667,
    "longitude": 76.01667
  },
  {
    "name": "kilimanur",
    "cc2": "13",
    "latitude": 8.75976,
    "longitude": 76.86729
  },
  {
    "name": "kilakkettara",
    "cc2": "13",
    "latitude": 10.61667,
    "longitude": 76.7
  },
  {
    "name": "kedavur",
    "cc2": "13",
    "latitude": 11.41454,
    "longitude": 75.93563
  },
  {
    "name": "kazhakuttam",
    "cc2": "13",
    "latitude": 8.56728,
    "longitude": 76.87407
  },
  {
    "name": "kayamkulam",
    "cc2": "13",
    "latitude": 9.18173,
    "longitude": 76.50093
  },
  {
    "name": "kattanam",
    "cc2": "13",
    "latitude": 9.17614,
    "longitude": 76.56325
  },
  {
    "name": "kasaragod",
    "cc2": "13",
    "latitude": 12.49838,
    "longitude": 74.98959
  },
  {
    "name": "karvarakundu",
    "cc2": "13",
    "latitude": 11.11374,
    "longitude": 76.32649
  },
  {
    "name": "karuvapadna",
    "cc2": "13",
    "latitude": 10.26667,
    "longitude": 76.2
  },
  {
    "name": "karungappalli",
    "cc2": "13",
    "latitude": 9.10422,
    "longitude": 76.53701
  },
  {
    "name": "karukachal",
    "cc2": "13",
    "latitude": 9.5,
    "longitude": 76.63333
  },
  {
    "name": "karimpuzha",
    "cc2": "13",
    "latitude": 10.91756,
    "longitude": 76.42651
  },
  {
    "name": "karimkunnum",
    "cc2": "13",
    "latitude": 9.85,
    "longitude": 76.68333
  },
  {
    "name": "kannavam",
    "cc2": "13",
    "latitude": 11.8445,
    "longitude": 75.66266
  },
  {
    "name": "kanhangad",
    "cc2": "13",
    "latitude": 12.30814,
    "longitude": 75.10632
  },
  {
    "name": "kannadi",
    "cc2": "13",
    "latitude": 9.95,
    "longitude": 76.81667
  },
  {
    "name": "kanjirapalli",
    "cc2": "13",
    "latitude": 9.55879,
    "longitude": 76.79194
  },
  {
    "name": "kaniyambetta",
    "cc2": "13",
    "latitude": 11.70334,
    "longitude": 76.0786
  },
  {
    "name": "kanipura",
    "cc2": "13",
    "latitude": 12.59607,
    "longitude": 74.95
  },
  {
    "name": "kangazha",
    "cc2": "13",
    "latitude": 9.51667,
    "longitude": 76.7
  },
  {
    "name": "kandakkadava",
    "cc2": "13",
    "latitude": 9.85,
    "longitude": 76.26667
  },
  {
    "name": "kanagari",
    "cc2": "13",
    "latitude": 9.7,
    "longitude": 76.55
  },
  {
    "name": "kalpatta",
    "cc2": "13",
    "latitude": 11.60871,
    "longitude": 76.08343
  },
  {
    "name": "kallayi",
    "cc2": "13",
    "latitude": 11.71011,
    "longitude": 75.52988
  },
  {
    "name": "kallar",
    "cc2": "13",
    "latitude": 12.43039,
    "longitude": 75.2672
  },
  {
    "name": "kallar",
    "cc2": "13",
    "latitude": 9.82495,
    "longitude": 77.15743
  },
  {
    "name": "kallar",
    "cc2": "13",
    "latitude": 8.70843,
    "longitude": 77.12831
  },
  {
    "name": "kallana",
    "cc2": "13",
    "latitude": 10.26667,
    "longitude": 76.6
  },
  {
    "name": "kalikavu",
    "cc2": "13",
    "latitude": 11.16673,
    "longitude": 76.32769
  },
  {
    "name": "kalanadu",
    "cc2": "13",
    "latitude": 12.5,
    "longitude": 74.98333
  },
  {
    "name": "kaladi",
    "cc2": "13",
    "latitude": 10.17316,
    "longitude": 76.44277
  },
  {
    "name": "kakkayam",
    "cc2": "13",
    "latitude": 11.25,
    "longitude": 75.83333
  },
  {
    "name": "kakkad",
    "cc2": "13",
    "latitude": 9.88333,
    "longitude": 76.48333
  },
  {
    "name": "kaduthuruthy",
    "cc2": "13",
    "latitude": 9.75,
    "longitude": 76.5
  },
  {
    "name": "kadikkad",
    "cc2": "13",
    "latitude": 10.67052,
    "longitude": 75.97975
  },
  {
    "name": "kadakkal",
    "cc2": "13",
    "latitude": 8.83326,
    "longitude": 76.92105
  },
  {
    "name": "iritty",
    "cc2": "13",
    "latitude": 11.98988,
    "longitude": 75.67143
  },
  {
    "name": "irinjalakuda",
    "cc2": "13",
    "latitude": 10.34238,
    "longitude": 76.21124
  },
  {
    "name": "iringal",
    "cc2": "13",
    "latitude": 11.55929,
    "longitude": 75.61663
  },
  {
    "name": "irimbranallur",
    "cc2": "13",
    "latitude": 10.50821,
    "longitude": 76.10065
  },
  {
    "name": "irikkur",
    "cc2": "13",
    "latitude": 11.98668,
    "longitude": 75.55007
  },
  {
    "name": "idukki",
    "cc2": "13",
    "latitude": 9.85,
    "longitude": 76.96667
  },
  {
    "name": "hosdrug",
    "cc2": "13",
    "latitude": 12.31699,
    "longitude": 75.0871
  },
  {
    "name": "haripad",
    "cc2": "13",
    "latitude": 9.28358,
    "longitude": 76.45519
  },
  {
    "name": "guruvayur",
    "cc2": "13",
    "latitude": 10.5943,
    "longitude": 76.0411
  },
  {
    "name": "ferokh",
    "cc2": "13",
    "latitude": 11.17989,
    "longitude": 75.84141
  },
  {
    "name": "ettumanur",
    "cc2": "13",
    "latitude": 9.66898,
    "longitude": 76.55924
  },
  {
    "name": "etakkare",
    "cc2": "13",
    "latitude": 11.35627,
    "longitude": 76.303
  },
  {
    "name": "ernakulam",
    "cc2": "13",
    "latitude": 9.96714,
    "longitude": 76.29036
  },
  {
    "name": "erattupetta",
    "cc2": "13",
    "latitude": 9.68747,
    "longitude": 76.77891
  },
  {
    "name": "elur",
    "cc2": "13",
    "latitude": 10.06667,
    "longitude": 76.28333
  },
  {
    "name": "elattur",
    "cc2": "13",
    "latitude": 11.33504,
    "longitude": 75.73589
  },
  {
    "name": "elamattur",
    "cc2": "13",
    "latitude": 9.43333,
    "longitude": 76.71667
  },
  {
    "name": "edayur",
    "cc2": "13",
    "latitude": 10.93492,
    "longitude": 76.11195
  },
  {
    "name": "edavanna",
    "cc2": "13",
    "latitude": 11.21534,
    "longitude": 76.14183
  },
  {
    "name": "edappal",
    "cc2": "13",
    "latitude": 10.78339,
    "longitude": 76.00789
  },
  {
    "name": "edappalli",
    "cc2": "13",
    "latitude": 10.02197,
    "longitude": 76.30872
  },
  {
    "name": "dharmadam",
    "cc2": "13",
    "latitude": 11.77538,
    "longitude": 75.46459
  },
  {
    "name": "devikolam",
    "cc2": "13",
    "latitude": 10.06481,
    "longitude": 77.10741
  },
  {
    "name": "kochi",
    "cc2": "13",
    "latitude": 9.93988,
    "longitude": 76.26022
  },
  {
    "name": "chittur",
    "cc2": "13",
    "latitude": 10.69967,
    "longitude": 76.7471
  },
  {
    "name": "cheruvalli",
    "cc2": "13",
    "latitude": 9.51679,
    "longitude": 76.76459
  },
  {
    "name": "cheruthuruthi",
    "cc2": "13",
    "latitude": 10.74571,
    "longitude": 76.27449
  },
  {
    "name": "cherupulassheri",
    "cc2": "13",
    "latitude": 10.87462,
    "longitude": 76.31877
  },
  {
    "name": "chengannur",
    "cc2": "13",
    "latitude": 9.31575,
    "longitude": 76.61513
  },
  {
    "name": "chelakara",
    "cc2": "13",
    "latitude": 10.69289,
    "longitude": 76.34387
  },
  {
    "name": "chengett",
    "cc2": "13",
    "latitude": 11.80527,
    "longitude": 76.07133
  },
  {
    "name": "chavassheri",
    "cc2": "13",
    "latitude": 11.94938,
    "longitude": 75.6118
  },
  {
    "name": "chavara",
    "cc2": "13",
    "latitude": 8.96727,
    "longitude": 76.54188
  },
  {
    "name": "chetwayi",
    "cc2": "13",
    "latitude": 10.52885,
    "longitude": 76.04793
  },
  {
    "name": "changanacheri",
    "cc2": "13",
    "latitude": 9.44203,
    "longitude": 76.53604
  },
  {
    "name": "chaliyar",
    "cc2": "13",
    "latitude": 11.15,
    "longitude": 75.81667
  },
  {
    "name": "chalai",
    "cc2": "13",
    "latitude": 8.48333,
    "longitude": 76.91667
  },
  {
    "name": "kannur",
    "cc2": "13",
    "latitude": 11.86752,
    "longitude": 75.35763
  },
  {
    "name": "beypore",
    "cc2": "13",
    "latitude": 11.17151,
    "longitude": 75.80611
  },
  {
    "name": "bekal",
    "cc2": "13",
    "latitude": 12.39647,
    "longitude": 75.03508
  },
  {
    "name": "bedradka",
    "cc2": "13",
    "latitude": 12.55558,
    "longitude": 74.98495
  },
  {
    "name": "bedadka",
    "cc2": "13",
    "latitude": 12.45658,
    "longitude": 75.1623
  },
  {
    "name": "balussheri",
    "cc2": "13",
    "latitude": 11.44738,
    "longitude": 75.82944
  },
  {
    "name": "balarampuram",
    "cc2": "13",
    "latitude": 8.42195,
    "longitude": 77.04399
  },
  {
    "name": "badagara",
    "cc2": "13",
    "latitude": 11.59776,
    "longitude": 75.58142
  },
  {
    "name": "ayur",
    "cc2": "13",
    "latitude": 8.89773,
    "longitude": 76.86085
  },
  {
    "name": "attingal",
    "cc2": "13",
    "latitude": 8.69609,
    "longitude": 76.81507
  },
  {
    "name": "attappadi",
    "cc2": "13",
    "latitude": 11.07277,
    "longitude": 76.56048
  },
  {
    "name": "arukutti",
    "cc2": "13",
    "latitude": 9.86667,
    "longitude": 76.35
  },
  {
    "name": "arikkod",
    "cc2": "13",
    "latitude": 11.23547,
    "longitude": 76.05037
  },
  {
    "name": "aranmula",
    "cc2": "13",
    "latitude": 9.33333,
    "longitude": 76.68333
  },
  {
    "name": "anjengo",
    "cc2": "13",
    "latitude": 8.67478,
    "longitude": 76.75783
  },
  {
    "name": "angamali",
    "cc2": "13",
    "latitude": 10.19055,
    "longitude": 76.38789
  },
  {
    "name": "angadipram",
    "cc2": "13",
    "latitude": 10.97639,
    "longitude": 76.20106
  },
  {
    "name": "andurkonam",
    "cc2": "13",
    "latitude": 8.61153,
    "longitude": 76.87154
  },
  {
    "name": "anchal",
    "cc2": "13",
    "latitude": 8.92813,
    "longitude": 76.90983
  },
  {
    "name": "ambalapuzha",
    "cc2": "13",
    "latitude": 9.38462,
    "longitude": 76.35507
  },
  {
    "name": "alwaye",
    "cc2": "13",
    "latitude": 10.10649,
    "longitude": 76.35484
  },
  {
    "name": "alappuzha",
    "cc2": "13",
    "latitude": 9.49004,
    "longitude": 76.3264
  },
  {
    "name": "alattur",
    "cc2": "13",
    "latitude": 10.65,
    "longitude": 76.53333
  },
  {
    "name": "alanallur",
    "cc2": "13",
    "latitude": 11.0094,
    "longitude": 76.3474
  },
  {
    "name": "aduru",
    "cc2": "13",
    "latitude": 12.55412,
    "longitude": 75.19188
  },
  {
    "name": "adur",
    "cc2": "13",
    "latitude": 9.15595,
    "longitude": 76.73192
  },
  {
    "name": "achankovil",
    "cc2": "13",
    "latitude": 9.09181,
    "longitude": 77.12375
  },
  {
    "name": "kovalam",
    "cc2": "13",
    "latitude": 8.38934,
    "longitude": 76.9788
  },
  {
    "name": "kariyad",
    "cc2": "13",
    "latitude": 11.6878,
    "longitude": 75.57743
  },
  {
    "name": "pallikuni",
    "cc2": "13",
    "latitude": 11.6987,
    "longitude": 75.57047
  },
  {
    "name": "chockli",
    "cc2": "13",
    "latitude": 11.72745,
    "longitude": 75.55509
  },
  {
    "name": "makunnu",
    "cc2": "13",
    "latitude": 11.71694,
    "longitude": 75.57715
  },
  {
    "name": "panoor",
    "cc2": "13",
    "latitude": 11.75938,
    "longitude": 75.57835
  },
  {
    "name": "kungipalli",
    "cc2": "13",
    "latitude": 11.67804,
    "longitude": 75.55142
  },
  {
    "name": "valiyannur",
    "cc2": "13",
    "latitude": 11.65072,
    "longitude": 75.74876
  },
  {
    "name": "kaudiar",
    "cc2": "13",
    "latitude": 8.52249,
    "longitude": 76.96063
  },
  {
    "name": "narani",
    "cc2": "13",
    "latitude": 8.41234,
    "longitude": 77.16067
  },
  {
    "name": "kunnathukal",
    "cc2": "13",
    "latitude": 8.39012,
    "longitude": 77.16183
  },
  {
    "name": "aluva",
    "cc2": "13",
    "latitude": 10.10764,
    "longitude": 76.35158
  },
  {
    "name": "muvattupuzha",
    "cc2": "13",
    "latitude": 9.97985,
    "longitude": 76.57381
  },
  {
    "name": "perumbavoor",
    "cc2": "13",
    "latitude": 10.10695,
    "longitude": 76.47366
  },
  {
    "name": "edakkulam",
    "cc2": "13",
    "latitude": 10.6102,
    "longitude": 76.18352
  },
  {
    "name": "avanoor",
    "cc2": "13",
    "latitude": 10.60826,
    "longitude": 76.1762
  },
  {
    "name": "palackattumala",
    "cc2": "13",
    "latitude": 9.74356,
    "longitude": 76.6294
  },
  {
    "name": "fort kochi",
    "cc2": "13",
    "latitude": 9.9653,
    "longitude": 76.24117
  },
  {
    "name": "eramalloor",
    "cc2": "13",
    "latitude": 9.82511,
    "longitude": 76.30898
  },
  {
    "name": "kumily",
    "cc2": "13",
    "latitude": 9.62512,
    "longitude": 77.1272
  },
  {
    "name": "thanneermukkom",
    "cc2": "13",
    "latitude": 9.66337,
    "longitude": 76.38073
  },
  {
    "name": "vizhinjam",
    "cc2": "13",
    "latitude": 8.38284,
    "longitude": 76.98893
  },
  {
    "name": "nellikunnu beach",
    "cc2": "13",
    "latitude": 8.371,
    "longitude": 77.00279
  },
  {
    "name": "mulloor",
    "cc2": "13",
    "latitude": 8.3752,
    "longitude": 77.00167
  },
  {
    "name": "vazhuthacaud",
    "cc2": "13",
    "latitude": 8.50374,
    "longitude": 76.96043
  },
  {
    "name": "ambalavayal",
    "cc2": "13",
    "latitude": 11.61901,
    "longitude": 76.21017
  },
  {
    "name": "nattika",
    "cc2": "13",
    "latitude": 10.41995,
    "longitude": 76.09989
  },
  {
    "name": "aymanam",
    "cc2": "13",
    "latitude": 9.60684,
    "longitude": 76.50055
  },
  {
    "name": "neeleshwar",
    "cc2": "13",
    "latitude": 12.26444,
    "longitude": 75.09816
  },
  {
    "name": "thottada",
    "cc2": "13",
    "latitude": 11.83851,
    "longitude": 75.4208
  },
  {
    "name": "amaravathy",
    "cc2": "13",
    "latitude": 9.96008,
    "longitude": 76.24392
  },
  {
    "name": "kumbalangy",
    "cc2": "13",
    "latitude": 9.87977,
    "longitude": 76.28353
  },
  {
    "name": "pothamedu",
    "cc2": "13",
    "latitude": 10.07112,
    "longitude": 77.04781
  },
  {
    "name": "cherai",
    "cc2": "13",
    "latitude": 9.977,
    "longitude": 76.27
  },
  {
    "name": "vaduvanchal",
    "cc2": "13",
    "latitude": 11.55827,
    "longitude": 76.22108
  },
  {
    "name": "chowara",
    "cc2": "13",
    "latitude": 8.35396,
    "longitude": 77.02669
  },
  {
    "name": "vyttila",
    "cc2": "13",
    "latitude": 9.96702,
    "longitude": 76.31593
  },
  {
    "name": "kuttikkanam",
    "cc2": "13",
    "latitude": 9.5803,
    "longitude": 76.97167
  },
  {
    "name": "murinjapuzha",
    "cc2": "13",
    "latitude": 9.56058,
    "longitude": 76.97554
  },
  {
    "name": "thenmala",
    "cc2": "13",
    "latitude": 8.95,
    "longitude": 77.06667
  },
  {
    "name": "achencoil",
    "cc2": "13",
    "latitude": 9.06969,
    "longitude": 76.8981
  },
  {
    "name": "pattom",
    "cc2": "13",
    "latitude": 8.52478,
    "longitude": 76.9382
  },
  {
    "name": "mararikulam",
    "cc2": "13",
    "latitude": 9.6113,
    "longitude": 76.31464
  },
  {
    "name": "thathampally",
    "cc2": "13",
    "latitude": 9.50457,
    "longitude": 76.34773
  },
  {
    "name": "chathurthiakary",
    "cc2": "13",
    "latitude": 9.45019,
    "longitude": 76.41294
  },
  {
    "name": "cherinchal",
    "cc2": "13",
    "latitude": 11.29664,
    "longitude": 75.86926
  },
  {
    "name": "manathanathu temple",
    "cc2": "13",
    "latitude": 11.3004,
    "longitude": 75.8712
  },
  {
    "name": "karanthoor",
    "cc2": "13",
    "latitude": 11.30153,
    "longitude": 75.86137
  },
  {
    "name": "punnamada",
    "cc2": "13",
    "latitude": 9.50465,
    "longitude": 76.35219
  },
  {
    "name": "meenangadi",
    "cc2": "13",
    "latitude": 11.65627,
    "longitude": 76.16959
  },
  {
    "name": "athickal house",
    "cc2": "13",
    "latitude": 10.78318,
    "longitude": 76.37852
  },
  {
    "name": "payyampally",
    "cc2": "13",
    "latitude": 11.81412,
    "longitude": 76.05303
  },
  {
    "name": "ellakkal",
    "cc2": "13",
    "latitude": 10.0032,
    "longitude": 77.06643
  },
  {
    "name": "kunjithanny",
    "cc2": "13",
    "latitude": 10.0115,
    "longitude": 77.06409
  },
  {
    "name": "chendamangalam",
    "cc2": "13",
    "latitude": 10.16322,
    "longitude": 76.23456
  },
  {
    "name": "cherai beach",
    "cc2": "13",
    "latitude": 10.14182,
    "longitude": 76.17868
  },
  {
    "name": "munambam beach",
    "cc2": "13",
    "latitude": 10.1768,
    "longitude": 76.1659
  },
  {
    "name": "koleri",
    "cc2": "13",
    "latitude": 11.71371,
    "longitude": 76.16392
  },
  {
    "name": "azhikkod",
    "cc2": "13",
    "latitude": 11.91985,
    "longitude": 75.33549
  },
  {
    "name": "kolentha",
    "cc2": "13",
    "latitude": 12.01493,
    "longitude": 75.54063
  },
  {
    "name": "kolantha",
    "cc2": "13",
    "latitude": 12.00302,
    "longitude": 75.53985
  },
  {
    "name": "kellur",
    "cc2": "13",
    "latitude": 11.75446,
    "longitude": 76.02506
  },
  {
    "name": "kizhal",
    "cc2": "13",
    "latitude": 11.58701,
    "longitude": 75.62108
  },
  {
    "name": "toparankudi",
    "cc2": "13",
    "latitude": 9.86496,
    "longitude": 77.05851
  },
  {
    "name": "nannambra",
    "cc2": "13",
    "latitude": 10.99211,
    "longitude": 75.90799
  },
  {
    "name": "arukizhaya",
    "cc2": "13",
    "latitude": 11.10052,
    "longitude": 76.11991
  },
  {
    "name": "arimanal",
    "cc2": "13",
    "latitude": 11.15466,
    "longitude": 76.32588
  },
  {
    "name": "pottassheri",
    "cc2": "13",
    "latitude": 11.00133,
    "longitude": 76.51013
  },
  {
    "name": "puntura",
    "cc2": "13",
    "latitude": 8.4455,
    "longitude": 77.04096
  },
  {
    "name": "chandanappalli",
    "cc2": "13",
    "latitude": 9.20875,
    "longitude": 76.77311
  },
  {
    "name": "chethakal",
    "cc2": "13",
    "latitude": 9.43621,
    "longitude": 76.86491
  },
  {
    "name": "mallacheri",
    "cc2": "13",
    "latitude": 9.25487,
    "longitude": 76.8417
  },
  {
    "name": "mallappulasseri",
    "cc2": "13",
    "latitude": 9.33834,
    "longitude": 76.76763
  },
  {
    "name": "triperuntura",
    "cc2": "13",
    "latitude": 9.2798,
    "longitude": 76.59214
  },
  {
    "name": "mallapalli",
    "cc2": "13",
    "latitude": 9.45126,
    "longitude": 76.71002
  },
  {
    "name": "kondur",
    "cc2": "13",
    "latitude": 9.701,
    "longitude": 76.81113
  },
  {
    "name": "pizhakukara",
    "cc2": "13",
    "latitude": 9.80071,
    "longitude": 76.74683
  },
  {
    "name": "pala",
    "cc2": "13",
    "latitude": 9.71358,
    "longitude": 76.73192
  },
  {
    "name": "kumaranallur",
    "cc2": "13",
    "latitude": 9.6176,
    "longitude": 76.57956
  },
  {
    "name": "panambukad",
    "cc2": "13",
    "latitude": 9.99873,
    "longitude": 76.27391
  },
  {
    "name": "tirumukulam",
    "cc2": "13",
    "latitude": 10.19129,
    "longitude": 76.29273
  },
  {
    "name": "azhikod",
    "cc2": "13",
    "latitude": 10.20148,
    "longitude": 76.16657
  },
  {
    "name": "vatakemuri",
    "cc2": "13",
    "latitude": 10.4176,
    "longitude": 76.15416
  },
  {
    "name": "edattirutti",
    "cc2": "13",
    "latitude": 10.36402,
    "longitude": 76.17373
  },
  {
    "name": "pukod",
    "cc2": "13",
    "latitude": 10.4365,
    "longitude": 76.2924
  },
  {
    "name": "nettinampalli",
    "cc2": "13",
    "latitude": 10.18302,
    "longitude": 76.45465
  },
  {
    "name": "ramallur",
    "cc2": "13",
    "latitude": 10.08165,
    "longitude": 76.6209
  },
  {
    "name": "palamattam",
    "cc2": "13",
    "latitude": 10.10417,
    "longitude": 76.70482
  },
  {
    "name": "omachchapuzha",
    "cc2": "13",
    "latitude": 10.97517,
    "longitude": 75.94189
  },
  {
    "name": "valavannur",
    "cc2": "13",
    "latitude": 10.95403,
    "longitude": 75.96925
  },
  {
    "name": "trikkandiyur",
    "cc2": "13",
    "latitude": 10.90899,
    "longitude": 75.92023
  },
  {
    "name": "kattakampala",
    "cc2": "13",
    "latitude": 10.69418,
    "longitude": 76.03362
  },
  {
    "name": "katavallur",
    "cc2": "13",
    "latitude": 10.71689,
    "longitude": 76.0695
  },
  {
    "name": "anjur",
    "cc2": "13",
    "latitude": 10.59169,
    "longitude": 76.15449
  },
  {
    "name": "mangod",
    "cc2": "13",
    "latitude": 10.8899,
    "longitude": 76.34378
  },
  {
    "name": "panjal",
    "cc2": "13",
    "latitude": 10.71956,
    "longitude": 76.30254
  },
  {
    "name": "vaniyamkulam",
    "cc2": "13",
    "latitude": 10.78303,
    "longitude": 76.33358
  },
  {
    "name": "vadakethara",
    "cc2": "13",
    "latitude": 10.6892,
    "longitude": 76.42417
  },
  {
    "name": "akkattettar",
    "cc2": "13",
    "latitude": 10.83399,
    "longitude": 76.60092
  },
  {
    "name": "cherpulassery",
    "cc2": "13",
    "latitude": 10.87655,
    "longitude": 76.30932
  },
  {
    "name": "muthanga",
    "cc2": "13",
    "latitude": 11.66884,
    "longitude": 76.36944
  },
  {
    "name": "chakkuppallam",
    "cc2": "13",
    "latitude": 9.65025,
    "longitude": 77.15123
  },
  {
    "name": "gavi",
    "cc2": "13",
    "latitude": 9.43636,
    "longitude": 77.15978
  },
  {
    "name": "pachakanam",
    "cc2": "13",
    "latitude": 9.46375,
    "longitude": 77.14547
  },
  {
    "name": "athani",
    "cc2": "13",
    "latitude": 10.15397,
    "longitude": 76.35524
  },
  {
    "name": "suryanelli",
    "cc2": "13",
    "latitude": 10.04906,
    "longitude": 77.19458
  },
  {
    "name": "chinnakanal",
    "cc2": "13",
    "latitude": 10.03647,
    "longitude": 77.17732
  },
  {
    "name": "nedumbassery",
    "cc2": "13",
    "latitude": 10.15646,
    "longitude": 76.40167
  },
  {
    "name": "varkkallai",
    "cc2": "13",
    "latitude": 8.73439,
    "longitude": 76.70659
  },
  {
    "name": "chiravila",
    "cc2": "13",
    "latitude": 8.82294,
    "longitude": 76.83745
  },
  {
    "name": "vythiri",
    "cc2": "13",
    "latitude": 11.55118,
    "longitude": 76.03921
  },
  {
    "name": "lakkidi",
    "cc2": "13",
    "latitude": 11.52178,
    "longitude": 76.02436
  },
  {
    "name": "ramapuram",
    "cc2": "13",
    "latitude": 9.79974,
    "longitude": 76.66225
  },
  {
    "name": "thodupuzha",
    "cc2": "13",
    "latitude": 9.89394,
    "longitude": 76.72216
  },
  {
    "name": "peroorkada",
    "cc2": "13",
    "latitude": 8.53956,
    "longitude": 76.96719
  },
  {
    "name": "oonnukal",
    "cc2": "13",
    "latitude": 9.25412,
    "longitude": 76.73077
  },
  {
    "name": "kattakkada",
    "cc2": "13",
    "latitude": 8.50195,
    "longitude": 77.08579
  },
  {
    "name": "kallambalam",
    "cc2": "13",
    "latitude": 8.76465,
    "longitude": 76.78847
  },
  {
    "name": "kulathupuzha",
    "cc2": "13",
    "latitude": 8.90902,
    "longitude": 77.05933
  },
  {
    "name": "pooppara",
    "cc2": "13",
    "latitude": 9.98057,
    "longitude": 77.20328
  },
  {
    "name": "chullimanoor",
    "cc2": "13",
    "latitude": 8.64219,
    "longitude": 77.02046
  },
  {
    "name": "elavupalam",
    "cc2": "13",
    "latitude": 8.77897,
    "longitude": 77.02157
  },
  {
    "name": "kattakada",
    "cc2": "13",
    "latitude": 8.5042,
    "longitude": 77.0803
  },
  {
    "name": "nedumkandam",
    "cc2": "13",
    "latitude": 9.84185,
    "longitude": 77.15273
  },
  {
    "name": "vagamon",
    "cc2": "13",
    "latitude": 9.68298,
    "longitude": 76.9049
  },
  {
    "name": "amboori",
    "cc2": "13",
    "latitude": 8.47,
    "longitude": 77.19
  },
  {
    "name": "ponkunnam",
    "cc2": "13",
    "latitude": 9.56,
    "longitude": 76.75
  },
  {
    "name": "ettumanoor",
    "cc2": "13",
    "latitude": 9.67,
    "longitude": 76.57
  },
  {
    "name": "perumpilavu",
    "cc2": "13",
    "latitude": 10.69873,
    "longitude": 76.09194
  },
  {
    "name": "kumbalam",
    "cc2": "13",
    "latitude": 9.9063,
    "longitude": 76.31127
  },
  {
    "name": "thumboly",
    "cc2": "13",
    "latitude": 9.51916,
    "longitude": 76.32172
  },
  {
    "name": "aroor",
    "cc2": "13",
    "latitude": 9.8694,
    "longitude": 76.30498
  },
  {
    "name": "kadakkavoor",
    "cc2": "13",
    "latitude": 8.67921,
    "longitude": 76.76714
  },
  {
    "name": "kalavoor",
    "cc2": "13",
    "latitude": 9.57046,
    "longitude": 76.32756
  },
  {
    "name": "kalamassery",
    "cc2": "13",
    "latitude": 10.0614,
    "longitude": 76.32631
  },
  {
    "name": "pettah",
    "cc2": "13",
    "latitude": 8.4954,
    "longitude": 76.93051
  },
  {
    "name": "vanchiyoor",
    "cc2": "13",
    "latitude": 8.49138,
    "longitude": 76.93801
  },
  {
    "name": "cherthala",
    "cc2": "13",
    "latitude": 9.68444,
    "longitude": 76.33558
  },
  {
    "name": "thiruvizha",
    "cc2": "13",
    "latitude": 9.64112,
    "longitude": 76.33498
  },
  {
    "name": "thakazhi",
    "cc2": "13",
    "latitude": 9.37235,
    "longitude": 76.40884
  },
  {
    "name": "harippad",
    "cc2": "13",
    "latitude": 9.28191,
    "longitude": 76.45493
  },
  {
    "name": "cheppad",
    "cc2": "13",
    "latitude": 9.23458,
    "longitude": 76.47326
  },
  {
    "name": "kunnumma",
    "cc2": "13",
    "latitude": 9.35672,
    "longitude": 76.41343
  },
  {
    "name": "karuvatta",
    "cc2": "13",
    "latitude": 9.31332,
    "longitude": 76.43043
  },
  {
    "name": "bachuvalike",
    "cc2": "13",
    "latitude": 12.75163,
    "longitude": 74.9009
  },
  {
    "name": "kedambadi",
    "cc2": "13",
    "latitude": 12.76165,
    "longitude": 74.91075
  },
  {
    "name": "paturu",
    "cc2": "13",
    "latitude": 12.77469,
    "longitude": 74.98413
  },
  {
    "name": "adekala",
    "cc2": "13",
    "latitude": 12.7685,
    "longitude": 74.96798
  },
  {
    "name": "kuttaje",
    "cc2": "13",
    "latitude": 12.77762,
    "longitude": 74.95672
  },
  {
    "name": "vorkadi kasba",
    "cc2": "13",
    "latitude": 12.76559,
    "longitude": 74.93615
  },
  {
    "name": "nadibail",
    "cc2": "13",
    "latitude": 12.76327,
    "longitude": 74.94195
  },
  {
    "name": "vorkadi",
    "cc2": "13",
    "latitude": 12.76098,
    "longitude": 74.92519
  },
  {
    "name": "battela",
    "cc2": "13",
    "latitude": 12.75699,
    "longitude": 74.93978
  },
  {
    "name": "anekal",
    "cc2": "13",
    "latitude": 12.75257,
    "longitude": 74.99407
  },
  {
    "name": "mulinja",
    "cc2": "13",
    "latitude": 12.68002,
    "longitude": 74.9138
  },
  {
    "name": "majibailu",
    "cc2": "13",
    "latitude": 12.70361,
    "longitude": 74.91569
  },
  {
    "name": "bangramanjeshvara",
    "cc2": "13",
    "latitude": 12.70894,
    "longitude": 74.8947
  },
  {
    "name": "hesabettu",
    "cc2": "13",
    "latitude": 12.71906,
    "longitude": 74.88721
  },
  {
    "name": "badaje",
    "cc2": "13",
    "latitude": 12.72341,
    "longitude": 74.91152
  },
  {
    "name": "udiyavara",
    "cc2": "13",
    "latitude": 12.73653,
    "longitude": 74.88603
  },
  {
    "name": "chaikunhambu",
    "cc2": "13",
    "latitude": 12.73869,
    "longitude": 74.88125
  },
  {
    "name": "kunjatturu",
    "cc2": "13",
    "latitude": 12.74689,
    "longitude": 74.88785
  },
  {
    "name": "aringula",
    "cc2": "13",
    "latitude": 12.74652,
    "longitude": 74.90966
  },
  {
    "name": "pavuru",
    "cc2": "13",
    "latitude": 12.74568,
    "longitude": 74.91623
  },
  {
    "name": "kaliyuru",
    "cc2": "13",
    "latitude": 12.74183,
    "longitude": 74.94341
  },
  {
    "name": "koliyura",
    "cc2": "13",
    "latitude": 12.73846,
    "longitude": 74.95878
  },
  {
    "name": "talekala",
    "cc2": "13",
    "latitude": 12.7232,
    "longitude": 74.94879
  },
  {
    "name": "anekallu",
    "cc2": "13",
    "latitude": 12.74844,
    "longitude": 74.99154
  },
  {
    "name": "kodlamogar",
    "cc2": "13",
    "latitude": 12.74321,
    "longitude": 74.97456
  },
  {
    "name": "paivalike",
    "cc2": "13",
    "latitude": 12.72553,
    "longitude": 74.99822
  },
  {
    "name": "kuriya",
    "cc2": "13",
    "latitude": 12.72621,
    "longitude": 74.97716
  },
  {
    "name": "minja",
    "cc2": "13",
    "latitude": 12.70534,
    "longitude": 74.96375
  },
  {
    "name": "mudambailu",
    "cc2": "13",
    "latitude": 12.70792,
    "longitude": 74.9386
  },
  {
    "name": "kadambaru",
    "cc2": "13",
    "latitude": 12.71795,
    "longitude": 74.91629
  },
  {
    "name": "kuluru",
    "cc2": "13",
    "latitude": 12.68104,
    "longitude": 74.93871
  },
  {
    "name": "paivalike",
    "cc2": "13",
    "latitude": 12.69247,
    "longitude": 74.9827
  },
  {
    "name": "kudalmerkala",
    "cc2": "13",
    "latitude": 12.66185,
    "longitude": 74.99554
  },
  {
    "name": "kaiyaru",
    "cc2": "13",
    "latitude": 12.66737,
    "longitude": 74.96493
  },
  {
    "name": "bekuru",
    "cc2": "13",
    "latitude": 12.67488,
    "longitude": 74.9458
  },
  {
    "name": "kubanuru",
    "cc2": "13",
    "latitude": 12.66769,
    "longitude": 74.9448
  },
  {
    "name": "kodibail",
    "cc2": "13",
    "latitude": 12.67129,
    "longitude": 74.91755
  },
  {
    "name": "parinkila",
    "cc2": "13",
    "latitude": 12.64644,
    "longitude": 74.92395
  },
  {
    "name": "ichlangodu",
    "cc2": "13",
    "latitude": 12.64139,
    "longitude": 74.94879
  },
  {
    "name": "heruru",
    "cc2": "13",
    "latitude": 12.64344,
    "longitude": 74.9691
  },
  {
    "name": "kiduru",
    "cc2": "13",
    "latitude": 12.63599,
    "longitude": 74.98329
  },
  {
    "name": "ujar ulvar",
    "cc2": "13",
    "latitude": 12.62336,
    "longitude": 74.96287
  },
  {
    "name": "bombrana",
    "cc2": "13",
    "latitude": 12.63063,
    "longitude": 74.94858
  },
  {
    "name": "shiriya",
    "cc2": "13",
    "latitude": 12.63337,
    "longitude": 74.93081
  },
  {
    "name": "arikadi",
    "cc2": "13",
    "latitude": 12.61396,
    "longitude": 74.94334
  },
  {
    "name": "ichlampadi",
    "cc2": "13",
    "latitude": 12.61339,
    "longitude": 74.97079
  },
  {
    "name": "kodiyamme",
    "cc2": "13",
    "latitude": 12.60722,
    "longitude": 74.9677
  },
  {
    "name": "yednad",
    "cc2": "13",
    "latitude": 12.60745,
    "longitude": 74.99188
  },
  {
    "name": "karingana",
    "cc2": "13",
    "latitude": 12.60433,
    "longitude": 74.99027
  },
  {
    "name": "parne",
    "cc2": "13",
    "latitude": 12.58753,
    "longitude": 74.9924
  },
  {
    "name": "naikap",
    "cc2": "13",
    "latitude": 12.5909,
    "longitude": 74.97832
  },
  {
    "name": "koipadi",
    "cc2": "13",
    "latitude": 12.59302,
    "longitude": 74.96262
  },
  {
    "name": "kannuru",
    "cc2": "13",
    "latitude": 12.58227,
    "longitude": 74.9809
  },
  {
    "name": "kana",
    "cc2": "13",
    "latitude": 12.57761,
    "longitude": 74.96693
  },
  {
    "name": "kotekar",
    "cc2": "13",
    "latitude": 12.59957,
    "longitude": 74.96008
  },
  {
    "name": "mogral",
    "cc2": "13",
    "latitude": 12.57255,
    "longitude": 74.95839
  },
  {
    "name": "tudiyar",
    "cc2": "13",
    "latitude": 12.56148,
    "longitude": 74.97971
  },
  {
    "name": "shiravagilu",
    "cc2": "13",
    "latitude": 12.54921,
    "longitude": 74.98759
  },
  {
    "name": "putturu",
    "cc2": "13",
    "latitude": 12.55321,
    "longitude": 74.96496
  },
  {
    "name": "kallangadi",
    "cc2": "13",
    "latitude": 12.53165,
    "longitude": 74.9645
  },
  {
    "name": "kudlu",
    "cc2": "13",
    "latitude": 12.52979,
    "longitude": 74.97881
  },
  {
    "name": "yeriyal",
    "cc2": "13",
    "latitude": 12.52495,
    "longitude": 74.97287
  },
  {
    "name": "kalmadi",
    "cc2": "13",
    "latitude": 12.51179,
    "longitude": 74.97405
  },
  {
    "name": "adkatbiailu",
    "cc2": "13",
    "latitude": 12.50733,
    "longitude": 74.98028
  },
  {
    "name": "ameya",
    "cc2": "13",
    "latitude": 12.50496,
    "longitude": 74.99573
  },
  {
    "name": "talangere",
    "cc2": "13",
    "latitude": 12.48637,
    "longitude": 74.99427
  },
  {
    "name": "kalnad",
    "cc2": "13",
    "latitude": 12.46369,
    "longitude": 74.99581
  },
  {
    "name": "ramanattukara",
    "cc2": "13",
    "latitude": 11.17802,
    "longitude": 75.86892
  },
  {
    "name": "sintunu",
    "cc2": "13",
    "latitude": 12.77011,
    "longitude": 75.0012
  },
  {
    "name": "paturu",
    "cc2": "13",
    "latitude": 12.76036,
    "longitude": 75.00291
  },
  {
    "name": "malaru",
    "cc2": "13",
    "latitude": 12.76305,
    "longitude": 75.00706
  },
  {
    "name": "badur",
    "cc2": "13",
    "latitude": 12.65311,
    "longitude": 75.03762
  },
  {
    "name": "angadimograr",
    "cc2": "13",
    "latitude": 12.63218,
    "longitude": 75.0157
  },
  {
    "name": "mugu",
    "cc2": "13",
    "latitude": 12.62232,
    "longitude": 75.03544
  },
  {
    "name": "puttige",
    "cc2": "13",
    "latitude": 12.6146,
    "longitude": 75.00677
  },
  {
    "name": "bela",
    "cc2": "13",
    "latitude": 12.58644,
    "longitude": 75.02372
  },
  {
    "name": "madhuru",
    "cc2": "13",
    "latitude": 12.53981,
    "longitude": 75.01016
  },
  {
    "name": "muttatodi",
    "cc2": "13",
    "latitude": 12.52698,
    "longitude": 75.02985
  },
  {
    "name": "pedi",
    "cc2": "13",
    "latitude": 12.52605,
    "longitude": 75.05661
  },
  {
    "name": "badiadka",
    "cc2": "13",
    "latitude": 12.58575,
    "longitude": 75.08036
  },
  {
    "name": "kuntikana mata",
    "cc2": "13",
    "latitude": 12.60613,
    "longitude": 75.05361
  },
  {
    "name": "badiadke",
    "cc2": "13",
    "latitude": 12.50704,
    "longitude": 75.05086
  },
  {
    "name": "changala",
    "cc2": "13",
    "latitude": 12.50469,
    "longitude": 75.05485
  },
  {
    "name": "maire",
    "cc2": "13",
    "latitude": 12.63097,
    "longitude": 75.06199
  },
  {
    "name": "turti",
    "cc2": "13",
    "latitude": 12.50398,
    "longitude": 75.0113
  },
  {
    "name": "yenmakaje",
    "cc2": "13",
    "latitude": 12.64982,
    "longitude": 75.09301
  },
  {
    "name": "kadar",
    "cc2": "13",
    "latitude": 12.59465,
    "longitude": 75.08935
  },
  {
    "name": "karuvaltadka",
    "cc2": "13",
    "latitude": 12.56922,
    "longitude": 75.09228
  },
  {
    "name": "pottipala",
    "cc2": "13",
    "latitude": 12.52745,
    "longitude": 75.08404
  },
  {
    "name": "yednir",
    "cc2": "13",
    "latitude": 12.51952,
    "longitude": 75.0725
  },
  {
    "name": "bayar",
    "cc2": "13",
    "latitude": 12.69231,
    "longitude": 75.02425
  },
  {
    "name": "manipadi",
    "cc2": "13",
    "latitude": 12.68639,
    "longitude": 75.00318
  },
  {
    "name": "palali",
    "cc2": "13",
    "latitude": 12.50679,
    "longitude": 75.08327
  },
  {
    "name": "boyikan",
    "cc2": "13",
    "latitude": 12.50547,
    "longitude": 75.09465
  },
  {
    "name": "cherkala",
    "cc2": "13",
    "latitude": 12.50183,
    "longitude": 75.0683
  },
  {
    "name": "mukkada",
    "cc2": "13",
    "latitude": 12.50604,
    "longitude": 75.11328
  },
  {
    "name": "muliyar",
    "cc2": "13",
    "latitude": 12.50852,
    "longitude": 75.11186
  },
  {
    "name": "malla",
    "cc2": "13",
    "latitude": 12.51744,
    "longitude": 75.09973
  },
  {
    "name": "paika",
    "cc2": "13",
    "latitude": 12.54019,
    "longitude": 75.09629
  },
  {
    "name": "pundur",
    "cc2": "13",
    "latitude": 12.54538,
    "longitude": 75.11313
  },
  {
    "name": "nekaraje",
    "cc2": "13",
    "latitude": 12.54776,
    "longitude": 75.09963
  },
  {
    "name": "narampadi",
    "cc2": "13",
    "latitude": 12.56199,
    "longitude": 75.1249
  },
  {
    "name": "uhrangala",
    "cc2": "13",
    "latitude": 12.56605,
    "longitude": 75.10343
  },
  {
    "name": "agalpadi",
    "cc2": "13",
    "latitude": 12.57043,
    "longitude": 75.10389
  },
  {
    "name": "nerampadi",
    "cc2": "13",
    "latitude": 12.59345,
    "longitude": 75.12041
  },
  {
    "name": "unnanadka",
    "cc2": "13",
    "latitude": 12.61561,
    "longitude": 75.10171
  },
  {
    "name": "puttarkal",
    "cc2": "13",
    "latitude": 12.61162,
    "longitude": 75.116
  },
  {
    "name": "balambat",
    "cc2": "13",
    "latitude": 12.62414,
    "longitude": 75.09484
  },
  {
    "name": "yenmakaje",
    "cc2": "13",
    "latitude": 12.68733,
    "longitude": 75.10575
  },
  {
    "name": "kattakukke",
    "cc2": "13",
    "latitude": 12.65826,
    "longitude": 75.13606
  },
  {
    "name": "padre",
    "cc2": "13",
    "latitude": 12.63324,
    "longitude": 75.13079
  },
  {
    "name": "yedadka",
    "cc2": "13",
    "latitude": 12.60421,
    "longitude": 75.13304
  },
  {
    "name": "mundekod",
    "cc2": "13",
    "latitude": 12.59731,
    "longitude": 75.13405
  },
  {
    "name": "kumbadaje",
    "cc2": "13",
    "latitude": 12.58588,
    "longitude": 75.12681
  },
  {
    "name": "belinja",
    "cc2": "13",
    "latitude": 12.58929,
    "longitude": 75.14094
  },
  {
    "name": "gosad",
    "cc2": "13",
    "latitude": 12.57721,
    "longitude": 75.13431
  },
  {
    "name": "natekal",
    "cc2": "13",
    "latitude": 12.56403,
    "longitude": 75.13197
  },
  {
    "name": "nuchipadpu",
    "cc2": "13",
    "latitude": 12.54617,
    "longitude": 75.14745
  },
  {
    "name": "kayenikan",
    "cc2": "13",
    "latitude": 12.53933,
    "longitude": 75.22672
  },
  {
    "name": "otemule",
    "cc2": "13",
    "latitude": 12.53234,
    "longitude": 75.2284
  },
  {
    "name": "arthya",
    "cc2": "13",
    "latitude": 12.52895,
    "longitude": 75.22589
  },
  {
    "name": "yevandur",
    "cc2": "13",
    "latitude": 12.5422,
    "longitude": 75.21908
  },
  {
    "name": "pallikochi",
    "cc2": "13",
    "latitude": 12.54051,
    "longitude": 75.21312
  },
  {
    "name": "mandebettu",
    "cc2": "13",
    "latitude": 12.53871,
    "longitude": 75.23718
  },
  {
    "name": "mallampare",
    "cc2": "13",
    "latitude": 12.51337,
    "longitude": 75.23416
  },
  {
    "name": "nachipadapu",
    "cc2": "13",
    "latitude": 12.51152,
    "longitude": 75.2294
  },
  {
    "name": "balangai",
    "cc2": "13",
    "latitude": 12.51635,
    "longitude": 75.22164
  },
  {
    "name": "surladi",
    "cc2": "13",
    "latitude": 12.5228,
    "longitude": 75.22793
  },
  {
    "name": "neralakeje",
    "cc2": "13",
    "latitude": 12.5212,
    "longitude": 75.23276
  },
  {
    "name": "amadipalla",
    "cc2": "13",
    "latitude": 12.56849,
    "longitude": 75.21464
  },
  {
    "name": "kuntaru",
    "cc2": "13",
    "latitude": 12.56163,
    "longitude": 75.21265
  },
  {
    "name": "mogaru",
    "cc2": "13",
    "latitude": 12.5614,
    "longitude": 75.23907
  },
  {
    "name": "kottumbe",
    "cc2": "13",
    "latitude": 12.54673,
    "longitude": 75.20861
  },
  {
    "name": "malayala",
    "cc2": "13",
    "latitude": 12.54383,
    "longitude": 75.20945
  },
  {
    "name": "bellacheri",
    "cc2": "13",
    "latitude": 12.54311,
    "longitude": 75.22453
  },
  {
    "name": "adur kasba",
    "cc2": "13",
    "latitude": 12.55961,
    "longitude": 75.23238
  },
  {
    "name": "periadka",
    "cc2": "13",
    "latitude": 12.54595,
    "longitude": 75.2309
  },
  {
    "name": "chinappadi",
    "cc2": "13",
    "latitude": 12.54763,
    "longitude": 75.21558
  },
  {
    "name": "ballarakaje",
    "cc2": "13",
    "latitude": 12.5162,
    "longitude": 75.21178
  },
  {
    "name": "pandibalu",
    "cc2": "13",
    "latitude": 12.52875,
    "longitude": 75.20732
  },
  {
    "name": "balavantadka",
    "cc2": "13",
    "latitude": 12.53097,
    "longitude": 75.18973
  },
  {
    "name": "kamaniya",
    "cc2": "13",
    "latitude": 12.5156,
    "longitude": 75.18583
  },
  {
    "name": "adurumale",
    "cc2": "13",
    "latitude": 12.54167,
    "longitude": 75.18354
  },
  {
    "name": "manjaparedattu",
    "cc2": "13",
    "latitude": 12.55452,
    "longitude": 75.20648
  },
  {
    "name": "padiatadka",
    "cc2": "13",
    "latitude": 12.5598,
    "longitude": 75.19996
  },
  {
    "name": "narandigol",
    "cc2": "13",
    "latitude": 12.53027,
    "longitude": 75.18341
  },
  {
    "name": "manakadu",
    "cc2": "13",
    "latitude": 12.5447,
    "longitude": 75.20173
  },
  {
    "name": "chirtoti",
    "cc2": "13",
    "latitude": 12.55086,
    "longitude": 75.20488
  },
  {
    "name": "parappa",
    "cc2": "13",
    "latitude": 12.50099,
    "longitude": 75.20172
  },
  {
    "name": "nerodi",
    "cc2": "13",
    "latitude": 12.50417,
    "longitude": 75.21097
  },
  {
    "name": "melpadapu",
    "cc2": "13",
    "latitude": 12.50504,
    "longitude": 75.23143
  },
  {
    "name": "mallankadap",
    "cc2": "13",
    "latitude": 12.50641,
    "longitude": 75.176
  },
  {
    "name": "pallanje",
    "cc2": "13",
    "latitude": 12.50748,
    "longitude": 75.20238
  },
  {
    "name": "tallanadka",
    "cc2": "13",
    "latitude": 12.51224,
    "longitude": 75.20282
  },
  {
    "name": "firthakare",
    "cc2": "13",
    "latitude": 12.50638,
    "longitude": 75.19474
  },
  {
    "name": "valeekechi",
    "cc2": "13",
    "latitude": 12.53892,
    "longitude": 75.24312
  },
  {
    "name": "neralakaje",
    "cc2": "13",
    "latitude": 12.52838,
    "longitude": 75.24099
  },
  {
    "name": "annapadi",
    "cc2": "13",
    "latitude": 12.51253,
    "longitude": 75.2498
  },
  {
    "name": "palangod",
    "cc2": "13",
    "latitude": 12.56651,
    "longitude": 75.24555
  },
  {
    "name": "babayanamule",
    "cc2": "13",
    "latitude": 12.5414,
    "longitude": 75.23817
  },
  {
    "name": "kanakatodi",
    "cc2": "13",
    "latitude": 12.59325,
    "longitude": 75.16208
  },
  {
    "name": "nejikadu",
    "cc2": "13",
    "latitude": 12.58585,
    "longitude": 75.17984
  },
  {
    "name": "nekrekadu",
    "cc2": "13",
    "latitude": 12.61869,
    "longitude": 75.1535
  },
  {
    "name": "belledhal",
    "cc2": "13",
    "latitude": 12.61731,
    "longitude": 75.16273
  },
  {
    "name": "kiningal",
    "cc2": "13",
    "latitude": 12.60401,
    "longitude": 75.16504
  },
  {
    "name": "advala",
    "cc2": "13",
    "latitude": 12.58099,
    "longitude": 75.16945
  },
  {
    "name": "kanakod",
    "cc2": "13",
    "latitude": 12.57081,
    "longitude": 75.16194
  },
  {
    "name": "belluru",
    "cc2": "13",
    "latitude": 12.58503,
    "longitude": 75.17544
  },
  {
    "name": "malenki",
    "cc2": "13",
    "latitude": 12.58028,
    "longitude": 75.17774
  },
  {
    "name": "tornurbali",
    "cc2": "13",
    "latitude": 12.54997,
    "longitude": 75.1543
  },
  {
    "name": "kuttangol",
    "cc2": "13",
    "latitude": 12.51922,
    "longitude": 75.15448
  },
  {
    "name": "kantur",
    "cc2": "13",
    "latitude": 12.502,
    "longitude": 75.14679
  },
  {
    "name": "aravanadka",
    "cc2": "13",
    "latitude": 12.5184,
    "longitude": 75.16979
  },
  {
    "name": "bedadka",
    "cc2": "13",
    "latitude": 12.50069,
    "longitude": 75.17539
  },
  {
    "name": "kudiatakda",
    "cc2": "13",
    "latitude": 12.50216,
    "longitude": 75.169
  },
  {
    "name": "yerinjeriadka",
    "cc2": "13",
    "latitude": 12.52291,
    "longitude": 75.13044
  },
  {
    "name": "barkolu",
    "cc2": "13",
    "latitude": 12.53169,
    "longitude": 75.13675
  },
  {
    "name": "beralum",
    "cc2": "13",
    "latitude": 12.53577,
    "longitude": 75.14262
  },
  {
    "name": "bellipadi",
    "cc2": "13",
    "latitude": 12.50409,
    "longitude": 75.12817
  },
  {
    "name": "kakkon",
    "cc2": "13",
    "latitude": 12.5134,
    "longitude": 75.12573
  },
  {
    "name": "maradmule",
    "cc2": "13",
    "latitude": 12.51775,
    "longitude": 75.13444
  },
  {
    "name": "karadka",
    "cc2": "13",
    "latitude": 12.54004,
    "longitude": 75.14826
  },
  {
    "name": "kutal",
    "cc2": "13",
    "latitude": 12.53837,
    "longitude": 75.15783
  },
  {
    "name": "kaduvanadka",
    "cc2": "13",
    "latitude": 12.52249,
    "longitude": 75.17721
  },
  {
    "name": "mulleri",
    "cc2": "13",
    "latitude": 12.54466,
    "longitude": 75.16273
  },
  {
    "name": "peradka",
    "cc2": "13",
    "latitude": 12.54407,
    "longitude": 75.1675
  },
  {
    "name": "partakochi",
    "cc2": "13",
    "latitude": 12.5413,
    "longitude": 75.17332
  },
  {
    "name": "doddavaikol",
    "cc2": "13",
    "latitude": 12.52601,
    "longitude": 75.16098
  },
  {
    "name": "adkatodi",
    "cc2": "13",
    "latitude": 12.52505,
    "longitude": 75.172
  },
  {
    "name": "balka",
    "cc2": "13",
    "latitude": 12.53026,
    "longitude": 75.17153
  },
  {
    "name": "tyambadi",
    "cc2": "13",
    "latitude": 12.53373,
    "longitude": 75.16805
  },
  {
    "name": "narala",
    "cc2": "13",
    "latitude": 12.52976,
    "longitude": 75.15229
  },
  {
    "name": "arthikodel",
    "cc2": "13",
    "latitude": 12.62481,
    "longitude": 75.1983
  },
  {
    "name": "bijantadka",
    "cc2": "13",
    "latitude": 12.62508,
    "longitude": 75.18229
  },
  {
    "name": "nettanige",
    "cc2": "13",
    "latitude": 12.6058,
    "longitude": 75.18435
  },
  {
    "name": "nakur",
    "cc2": "13",
    "latitude": 12.61154,
    "longitude": 75.18917
  },
  {
    "name": "berakke",
    "cc2": "13",
    "latitude": 12.58829,
    "longitude": 75.19556
  },
  {
    "name": "doddadka",
    "cc2": "13",
    "latitude": 12.59207,
    "longitude": 75.20448
  },
  {
    "name": "matkeri",
    "cc2": "13",
    "latitude": 12.5984,
    "longitude": 75.20599
  },
  {
    "name": "baja",
    "cc2": "13",
    "latitude": 12.61182,
    "longitude": 75.18323
  },
  {
    "name": "kula",
    "cc2": "13",
    "latitude": 12.61883,
    "longitude": 75.18968
  },
  {
    "name": "cherur",
    "cc2": "13",
    "latitude": 12.49593,
    "longitude": 75.03686
  },
  {
    "name": "kundadka",
    "cc2": "13",
    "latitude": 12.48751,
    "longitude": 75.02904
  },
  {
    "name": "chammanad",
    "cc2": "13",
    "latitude": 12.48023,
    "longitude": 75.00726
  },
  {
    "name": "perambale",
    "cc2": "13",
    "latitude": 12.48108,
    "longitude": 75.03019
  },
  {
    "name": "maduru",
    "cc2": "13",
    "latitude": 12.49136,
    "longitude": 75.04406
  },
  {
    "name": "manjigot",
    "cc2": "13",
    "latitude": 12.48396,
    "longitude": 75.03822
  },
  {
    "name": "bendichal",
    "cc2": "13",
    "latitude": 12.47758,
    "longitude": 75.04378
  },
  {
    "name": "anije",
    "cc2": "13",
    "latitude": 12.47081,
    "longitude": 75.03804
  },
  {
    "name": "melparambu",
    "cc2": "13",
    "latitude": 12.46682,
    "longitude": 75.00813
  },
  {
    "name": "chandragiri",
    "cc2": "13",
    "latitude": 12.46088,
    "longitude": 75.00209
  },
  {
    "name": "kalanadu",
    "cc2": "13",
    "latitude": 12.45708,
    "longitude": 75.01552
  },
  {
    "name": "adiyadka",
    "cc2": "13",
    "latitude": 12.46379,
    "longitude": 75.04748
  },
  {
    "name": "mangad",
    "cc2": "13",
    "latitude": 12.45708,
    "longitude": 75.03693
  },
  {
    "name": "uduma",
    "cc2": "13",
    "latitude": 12.43585,
    "longitude": 75.01811
  },
  {
    "name": "pakera",
    "cc2": "13",
    "latitude": 12.42834,
    "longitude": 75.03132
  },
  {
    "name": "karipodi",
    "cc2": "13",
    "latitude": 12.42133,
    "longitude": 75.03634
  },
  {
    "name": "harnad",
    "cc2": "13",
    "latitude": 12.42081,
    "longitude": 75.04552
  },
  {
    "name": "yerole",
    "cc2": "13",
    "latitude": 12.43333,
    "longitude": 75.05022
  },
  {
    "name": "kotikal",
    "cc2": "13",
    "latitude": 12.41625,
    "longitude": 75.01898
  },
  {
    "name": "pallikere",
    "cc2": "13",
    "latitude": 12.40598,
    "longitude": 75.03973
  },
  {
    "name": "balla",
    "cc2": "13",
    "latitude": 12.31437,
    "longitude": 75.07585
  },
  {
    "name": "adyal",
    "cc2": "13",
    "latitude": 12.32168,
    "longitude": 75.07376
  },
  {
    "name": "kotacheri",
    "cc2": "13",
    "latitude": 12.32567,
    "longitude": 75.07128
  },
  {
    "name": "ajanur",
    "cc2": "13",
    "latitude": 12.345,
    "longitude": 75.0765
  },
  {
    "name": "muttuntale",
    "cc2": "13",
    "latitude": 12.35111,
    "longitude": 75.06506
  },
  {
    "name": "yedeyil",
    "cc2": "13",
    "latitude": 12.35338,
    "longitude": 75.07751
  },
  {
    "name": "chittari",
    "cc2": "13",
    "latitude": 12.36522,
    "longitude": 75.06384
  },
  {
    "name": "chittari",
    "cc2": "13",
    "latitude": 12.36923,
    "longitude": 75.07636
  },
  {
    "name": "ravaneshwar",
    "cc2": "13",
    "latitude": 12.37636,
    "longitude": 75.07443
  },
  {
    "name": "bellantale",
    "cc2": "13",
    "latitude": 12.38002,
    "longitude": 75.07734
  },
  {
    "name": "kikana",
    "cc2": "13",
    "latitude": 12.38251,
    "longitude": 75.05577
  },
  {
    "name": "tannote",
    "cc2": "13",
    "latitude": 12.38554,
    "longitude": 75.08365
  },
  {
    "name": "kannambail",
    "cc2": "13",
    "latitude": 12.39473,
    "longitude": 75.07063
  },
  {
    "name": "alakode",
    "cc2": "13",
    "latitude": 12.39271,
    "longitude": 75.07269
  },
  {
    "name": "tachangad",
    "cc2": "13",
    "latitude": 12.41506,
    "longitude": 75.05701
  },
  {
    "name": "mapilangad",
    "cc2": "13",
    "latitude": 12.41965,
    "longitude": 75.06098
  },
  {
    "name": "pandiyal",
    "cc2": "13",
    "latitude": 12.42294,
    "longitude": 75.0594
  },
  {
    "name": "pandiyal kote",
    "cc2": "13",
    "latitude": 12.42637,
    "longitude": 75.04747
  },
  {
    "name": "pandiyal",
    "cc2": "13",
    "latitude": 12.42819,
    "longitude": 75.0596
  },
  {
    "name": "mayikan",
    "cc2": "13",
    "latitude": 12.43451,
    "longitude": 75.05836
  },
  {
    "name": "maladka",
    "cc2": "13",
    "latitude": 12.43604,
    "longitude": 75.06961
  },
  {
    "name": "kanjingaladka",
    "cc2": "13",
    "latitude": 12.4417,
    "longitude": 75.0504
  },
  {
    "name": "apichadka",
    "cc2": "13",
    "latitude": 12.44392,
    "longitude": 75.06105
  },
  {
    "name": "bare",
    "cc2": "13",
    "latitude": 12.44599,
    "longitude": 75.04202
  },
  {
    "name": "adkatbail",
    "cc2": "13",
    "latitude": 12.45133,
    "longitude": 75.04913
  },
  {
    "name": "koyangodechal",
    "cc2": "13",
    "latitude": 12.45544,
    "longitude": 75.06285
  },
  {
    "name": "pomachi",
    "cc2": "13",
    "latitude": 12.46535,
    "longitude": 75.05925
  },
  {
    "name": "kaniyadka",
    "cc2": "13",
    "latitude": 12.4734,
    "longitude": 75.05246
  },
  {
    "name": "chettianchal",
    "cc2": "13",
    "latitude": 12.47917,
    "longitude": 75.05839
  },
  {
    "name": "putriyadka",
    "cc2": "13",
    "latitude": 12.48528,
    "longitude": 75.05862
  },
  {
    "name": "tekkila",
    "cc2": "13",
    "latitude": 12.48851,
    "longitude": 75.05078
  },
  {
    "name": "bevinje",
    "cc2": "13",
    "latitude": 12.49583,
    "longitude": 75.05897
  },
  {
    "name": "chengala",
    "cc2": "13",
    "latitude": 12.49839,
    "longitude": 75.0503
  },
  {
    "name": "niduvote",
    "cc2": "13",
    "latitude": 12.49696,
    "longitude": 75.06981
  },
  {
    "name": "pannadka",
    "cc2": "13",
    "latitude": 12.49286,
    "longitude": 75.0862
  },
  {
    "name": "mundakai",
    "cc2": "13",
    "latitude": 12.48752,
    "longitude": 75.07901
  },
  {
    "name": "mannya",
    "cc2": "13",
    "latitude": 12.48387,
    "longitude": 75.07027
  },
  {
    "name": "machipura",
    "cc2": "13",
    "latitude": 12.47997,
    "longitude": 75.0748
  },
  {
    "name": "bitikal",
    "cc2": "13",
    "latitude": 12.47618,
    "longitude": 75.076
  },
  {
    "name": "chellakote",
    "cc2": "13",
    "latitude": 12.47239,
    "longitude": 75.07327
  },
  {
    "name": "parambu",
    "cc2": "13",
    "latitude": 12.46619,
    "longitude": 75.07304
  },
  {
    "name": "kome",
    "cc2": "13",
    "latitude": 12.47163,
    "longitude": 75.08809
  },
  {
    "name": "cheruvara",
    "cc2": "13",
    "latitude": 12.46263,
    "longitude": 75.0721
  },
  {
    "name": "pattiayal",
    "cc2": "13",
    "latitude": 12.46455,
    "longitude": 75.09166
  },
  {
    "name": "karicheri",
    "cc2": "13",
    "latitude": 12.46026,
    "longitude": 75.07755
  },
  {
    "name": "kutapanekal",
    "cc2": "13",
    "latitude": 12.4538,
    "longitude": 75.07015
  },
  {
    "name": "perladka",
    "cc2": "13",
    "latitude": 12.45733,
    "longitude": 75.09478
  },
  {
    "name": "bellakota",
    "cc2": "13",
    "latitude": 12.45026,
    "longitude": 75.08519
  },
  {
    "name": "kapiye",
    "cc2": "13",
    "latitude": 12.44635,
    "longitude": 75.08516
  },
  {
    "name": "tuval",
    "cc2": "13",
    "latitude": 12.44974,
    "longitude": 75.07318
  },
  {
    "name": "mutnadi",
    "cc2": "13",
    "latitude": 12.44604,
    "longitude": 75.07797
  },
  {
    "name": "iriyel",
    "cc2": "13",
    "latitude": 12.43899,
    "longitude": 75.07874
  },
  {
    "name": "bangad",
    "cc2": "13",
    "latitude": 12.44176,
    "longitude": 75.08617
  },
  {
    "name": "periyatadka",
    "cc2": "13",
    "latitude": 12.43203,
    "longitude": 75.07392
  },
  {
    "name": "cherambe",
    "cc2": "13",
    "latitude": 12.42647,
    "longitude": 75.07836
  },
  {
    "name": "ayambare",
    "cc2": "13",
    "latitude": 12.42766,
    "longitude": 75.0926
  },
  {
    "name": "kundya",
    "cc2": "13",
    "latitude": 12.42284,
    "longitude": 75.08261
  },
  {
    "name": "pukaiath",
    "cc2": "13",
    "latitude": 12.40739,
    "longitude": 75.08853
  },
  {
    "name": "alkot",
    "cc2": "13",
    "latitude": 12.39541,
    "longitude": 75.08492
  },
  {
    "name": "bellikoth",
    "cc2": "13",
    "latitude": 12.37727,
    "longitude": 75.0929
  },
  {
    "name": "keloth",
    "cc2": "13",
    "latitude": 12.36757,
    "longitude": 75.09804
  },
  {
    "name": "pulluru",
    "cc2": "13",
    "latitude": 12.35523,
    "longitude": 75.09151
  },
  {
    "name": "binacheri",
    "cc2": "13",
    "latitude": 12.34799,
    "longitude": 75.09399
  },
  {
    "name": "ajanur",
    "cc2": "13",
    "latitude": 12.33614,
    "longitude": 75.09297
  },
  {
    "name": "pudakai",
    "cc2": "13",
    "latitude": 12.2792,
    "longitude": 75.12687
  },
  {
    "name": "nunni",
    "cc2": "13",
    "latitude": 12.30617,
    "longitude": 75.12601
  },
  {
    "name": "kandanvail",
    "cc2": "13",
    "latitude": 12.31241,
    "longitude": 75.13321
  },
  {
    "name": "madakai",
    "cc2": "13",
    "latitude": 12.31263,
    "longitude": 75.12092
  },
  {
    "name": "balla",
    "cc2": "13",
    "latitude": 12.32101,
    "longitude": 75.10315
  },
  {
    "name": "munnit",
    "cc2": "13",
    "latitude": 12.35211,
    "longitude": 75.11122
  },
  {
    "name": "nagarkate",
    "cc2": "13",
    "latitude": 12.34612,
    "longitude": 75.10105
  },
  {
    "name": "karkundu",
    "cc2": "13",
    "latitude": 12.36621,
    "longitude": 75.11148
  },
  {
    "name": "megoth",
    "cc2": "13",
    "latitude": 12.36991,
    "longitude": 75.10474
  },
  {
    "name": "periyal",
    "cc2": "13",
    "latitude": 12.37603,
    "longitude": 75.12832
  },
  {
    "name": "chalangal",
    "cc2": "13",
    "latitude": 12.38084,
    "longitude": 75.10312
  },
  {
    "name": "mincat",
    "cc2": "13",
    "latitude": 12.37996,
    "longitude": 75.1238
  },
  {
    "name": "pulluru",
    "cc2": "13",
    "latitude": 12.38756,
    "longitude": 75.12965
  },
  {
    "name": "pannikunnu",
    "cc2": "13",
    "latitude": 12.39259,
    "longitude": 75.12107
  },
  {
    "name": "tayakolam",
    "cc2": "13",
    "latitude": 12.39768,
    "longitude": 75.11016
  },
  {
    "name": "periye",
    "cc2": "13",
    "latitude": 12.40444,
    "longitude": 75.10265
  },
  {
    "name": "kudana",
    "cc2": "13",
    "latitude": 12.41617,
    "longitude": 75.10899
  },
  {
    "name": "minnangolu",
    "cc2": "13",
    "latitude": 12.42761,
    "longitude": 75.12256
  },
  {
    "name": "kolarangode",
    "cc2": "13",
    "latitude": 12.43469,
    "longitude": 75.12329
  },
  {
    "name": "mepat",
    "cc2": "13",
    "latitude": 12.42845,
    "longitude": 75.11402
  },
  {
    "name": "mamyangsi",
    "cc2": "13",
    "latitude": 12.44027,
    "longitude": 75.10192
  },
  {
    "name": "ayankadavu",
    "cc2": "13",
    "latitude": 12.44389,
    "longitude": 75.09459
  },
  {
    "name": "kariath",
    "cc2": "13",
    "latitude": 12.44085,
    "longitude": 75.11036
  },
  {
    "name": "kikana",
    "cc2": "13",
    "latitude": 12.4464,
    "longitude": 75.12541
  },
  {
    "name": "kaleyaradka",
    "cc2": "13",
    "latitude": 12.44832,
    "longitude": 75.12984
  },
  {
    "name": "odotadka",
    "cc2": "13",
    "latitude": 12.44886,
    "longitude": 75.12313
  },
  {
    "name": "kaliyali",
    "cc2": "13",
    "latitude": 12.45172,
    "longitude": 75.11559
  },
  {
    "name": "motlankote",
    "cc2": "13",
    "latitude": 12.45478,
    "longitude": 75.10889
  },
  {
    "name": "cheriyakunda",
    "cc2": "13",
    "latitude": 12.45704,
    "longitude": 75.12556
  },
  {
    "name": "kolaturu",
    "cc2": "13",
    "latitude": 12.45706,
    "longitude": 75.10509
  },
  {
    "name": "narangote",
    "cc2": "13",
    "latitude": 12.45054,
    "longitude": 75.0944
  },
  {
    "name": "karipadadkathe",
    "cc2": "13",
    "latitude": 12.44605,
    "longitude": 75.09289
  },
  {
    "name": "kolaturu",
    "cc2": "13",
    "latitude": 12.45953,
    "longitude": 75.10501
  },
  {
    "name": "barikala",
    "cc2": "13",
    "latitude": 12.46753,
    "longitude": 75.10319
  },
  {
    "name": "pandi",
    "cc2": "13",
    "latitude": 12.47113,
    "longitude": 75.12178
  },
  {
    "name": "aryakochi",
    "cc2": "13",
    "latitude": 12.47416,
    "longitude": 75.1178
  },
  {
    "name": "karketadka",
    "cc2": "13",
    "latitude": 12.47453,
    "longitude": 75.10667
  },
  {
    "name": "yeriyal",
    "cc2": "13",
    "latitude": 12.47959,
    "longitude": 75.11097
  },
  {
    "name": "kutiana",
    "cc2": "13",
    "latitude": 12.48569,
    "longitude": 75.11318
  },
  {
    "name": "chettetodu",
    "cc2": "13",
    "latitude": 12.48086,
    "longitude": 75.12709
  },
  {
    "name": "kottiyana",
    "cc2": "13",
    "latitude": 12.48387,
    "longitude": 75.10631
  },
  {
    "name": "kolote",
    "cc2": "13",
    "latitude": 12.48431,
    "longitude": 75.09892
  },
  {
    "name": "ariyapadi",
    "cc2": "13",
    "latitude": 12.49075,
    "longitude": 75.09938
  },
  {
    "name": "gonipella",
    "cc2": "13",
    "latitude": 12.49144,
    "longitude": 75.10653
  },
  {
    "name": "yechabare",
    "cc2": "13",
    "latitude": 12.49168,
    "longitude": 75.11622
  },
  {
    "name": "bepu",
    "cc2": "13",
    "latitude": 12.4914,
    "longitude": 75.12197
  },
  {
    "name": "taiyadka",
    "cc2": "13",
    "latitude": 12.48643,
    "longitude": 75.12063
  },
  {
    "name": "kattipalle",
    "cc2": "13",
    "latitude": 12.49615,
    "longitude": 75.1099
  },
  {
    "name": "bhavikarebail",
    "cc2": "13",
    "latitude": 12.49537,
    "longitude": 75.10033
  },
  {
    "name": "karuvangattu",
    "cc2": "13",
    "latitude": 12.49876,
    "longitude": 75.13627
  },
  {
    "name": "iriyanadka",
    "cc2": "13",
    "latitude": 12.49811,
    "longitude": 75.1305
  },
  {
    "name": "tirukummamule",
    "cc2": "13",
    "latitude": 12.49332,
    "longitude": 75.12506
  },
  {
    "name": "kuduretodu",
    "cc2": "13",
    "latitude": 12.49639,
    "longitude": 75.14055
  },
  {
    "name": "kuthale",
    "cc2": "13",
    "latitude": 12.495,
    "longitude": 75.14711
  },
  {
    "name": "baje",
    "cc2": "13",
    "latitude": 12.49314,
    "longitude": 75.13974
  },
  {
    "name": "chedanampara",
    "cc2": "13",
    "latitude": 12.49147,
    "longitude": 75.15036
  },
  {
    "name": "mundakadu",
    "cc2": "13",
    "latitude": 12.48559,
    "longitude": 75.12348
  },
  {
    "name": "hosagame",
    "cc2": "13",
    "latitude": 12.48813,
    "longitude": 75.13291
  },
  {
    "name": "minnagol",
    "cc2": "13",
    "latitude": 12.48594,
    "longitude": 75.14057
  },
  {
    "name": "chatte",
    "cc2": "13",
    "latitude": 12.48172,
    "longitude": 75.13827
  },
  {
    "name": "kumeri",
    "cc2": "13",
    "latitude": 12.48467,
    "longitude": 75.13177
  },
  {
    "name": "gaddemula",
    "cc2": "13",
    "latitude": 12.46938,
    "longitude": 75.13861
  },
  {
    "name": "kundangoli",
    "cc2": "13",
    "latitude": 12.4607,
    "longitude": 75.13645
  },
  {
    "name": "kundangoli kote",
    "cc2": "13",
    "latitude": 12.45712,
    "longitude": 75.13273
  },
  {
    "name": "todatkanda",
    "cc2": "13",
    "latitude": 12.45496,
    "longitude": 75.13322
  },
  {
    "name": "verlam",
    "cc2": "13",
    "latitude": 12.45312,
    "longitude": 75.14552
  },
  {
    "name": "cheratuthuradka",
    "cc2": "13",
    "latitude": 12.44979,
    "longitude": 75.13175
  },
  {
    "name": "bedre",
    "cc2": "13",
    "latitude": 12.44518,
    "longitude": 75.13408
  },
  {
    "name": "puttiyadka",
    "cc2": "13",
    "latitude": 12.44704,
    "longitude": 75.14404
  },
  {
    "name": "ragikochi",
    "cc2": "13",
    "latitude": 12.44161,
    "longitude": 75.14578
  },
  {
    "name": "kuvare",
    "cc2": "13",
    "latitude": 12.43063,
    "longitude": 75.13158
  },
  {
    "name": "periath",
    "cc2": "13",
    "latitude": 12.42931,
    "longitude": 75.13457
  },
  {
    "name": "chulikad",
    "cc2": "13",
    "latitude": 12.42466,
    "longitude": 75.15351
  },
  {
    "name": "aramballa",
    "cc2": "13",
    "latitude": 12.41892,
    "longitude": 75.13922
  },
  {
    "name": "parpekat",
    "cc2": "13",
    "latitude": 12.42203,
    "longitude": 75.12845
  },
  {
    "name": "periyana",
    "cc2": "13",
    "latitude": 12.41333,
    "longitude": 75.12871
  },
  {
    "name": "uncha",
    "cc2": "13",
    "latitude": 12.4115,
    "longitude": 75.14375
  },
  {
    "name": "pindiyalgare",
    "cc2": "13",
    "latitude": 12.4093,
    "longitude": 75.13296
  },
  {
    "name": "kalliot",
    "cc2": "13",
    "latitude": 12.4086,
    "longitude": 75.14934
  },
  {
    "name": "kurangara",
    "cc2": "13",
    "latitude": 12.40475,
    "longitude": 75.13851
  },
  {
    "name": "tannithote",
    "cc2": "13",
    "latitude": 12.39793,
    "longitude": 75.12914
  },
  {
    "name": "parapalli",
    "cc2": "13",
    "latitude": 12.37583,
    "longitude": 75.13556
  },
  {
    "name": "batur",
    "cc2": "13",
    "latitude": 12.37487,
    "longitude": 75.14308
  },
  {
    "name": "nellithare",
    "cc2": "13",
    "latitude": 12.35281,
    "longitude": 75.12979
  },
  {
    "name": "perole",
    "cc2": "13",
    "latitude": 12.25729,
    "longitude": 75.1393
  },
  {
    "name": "chathoth",
    "cc2": "13",
    "latitude": 12.26258,
    "longitude": 75.16577
  },
  {
    "name": "chernathale",
    "cc2": "13",
    "latitude": 12.29034,
    "longitude": 75.15153
  },
  {
    "name": "kakkat",
    "cc2": "13",
    "latitude": 12.28861,
    "longitude": 75.14134
  },
  {
    "name": "mundote",
    "cc2": "13",
    "latitude": 12.32049,
    "longitude": 75.15913
  },
  {
    "name": "talakanam",
    "cc2": "13",
    "latitude": 12.32243,
    "longitude": 75.14121
  },
  {
    "name": "chulli",
    "cc2": "13",
    "latitude": 12.32903,
    "longitude": 75.13538
  },
  {
    "name": "taragode",
    "cc2": "13",
    "latitude": 12.34346,
    "longitude": 75.15647
  },
  {
    "name": "tunnapu",
    "cc2": "13",
    "latitude": 12.35397,
    "longitude": 75.14387
  },
  {
    "name": "hodotghat",
    "cc2": "13",
    "latitude": 12.36005,
    "longitude": 75.13709
  },
  {
    "name": "bhuthagana",
    "cc2": "13",
    "latitude": 12.36299,
    "longitude": 75.15276
  },
  {
    "name": "aralekadu",
    "cc2": "13",
    "latitude": 12.36703,
    "longitude": 75.14153
  },
  {
    "name": "molehannur",
    "cc2": "13",
    "latitude": 12.36999,
    "longitude": 75.15633
  },
  {
    "name": "beluru",
    "cc2": "13",
    "latitude": 12.38263,
    "longitude": 75.15616
  },
  {
    "name": "iriyal",
    "cc2": "13",
    "latitude": 12.3938,
    "longitude": 75.16107
  },
  {
    "name": "thannote",
    "cc2": "13",
    "latitude": 12.40029,
    "longitude": 75.15199
  },
  {
    "name": "ambladi",
    "cc2": "13",
    "latitude": 12.42963,
    "longitude": 75.16608
  },
  {
    "name": "yedapani",
    "cc2": "13",
    "latitude": 12.43925,
    "longitude": 75.15008
  },
  {
    "name": "belayi",
    "cc2": "13",
    "latitude": 12.43897,
    "longitude": 75.15867
  },
  {
    "name": "belantadka",
    "cc2": "13",
    "latitude": 12.44746,
    "longitude": 75.15503
  },
  {
    "name": "madkekanda",
    "cc2": "13",
    "latitude": 12.46166,
    "longitude": 75.15288
  },
  {
    "name": "kurchinadka",
    "cc2": "13",
    "latitude": 12.46429,
    "longitude": 75.15555
  },
  {
    "name": "darbeguni",
    "cc2": "13",
    "latitude": 12.47244,
    "longitude": 75.14853
  },
  {
    "name": "tumbadka",
    "cc2": "13",
    "latitude": 12.4718,
    "longitude": 75.15661
  },
  {
    "name": "donikadavu",
    "cc2": "13",
    "latitude": 12.47811,
    "longitude": 75.15203
  },
  {
    "name": "chembalgaya",
    "cc2": "13",
    "latitude": 12.48507,
    "longitude": 75.15256
  },
  {
    "name": "koliadka",
    "cc2": "13",
    "latitude": 12.49658,
    "longitude": 75.14907
  },
  {
    "name": "pairupalla",
    "cc2": "13",
    "latitude": 12.49863,
    "longitude": 75.14922
  },
  {
    "name": "yeranipaya",
    "cc2": "13",
    "latitude": 12.49613,
    "longitude": 75.15921
  },
  {
    "name": "voyala",
    "cc2": "13",
    "latitude": 12.49638,
    "longitude": 75.17217
  },
  {
    "name": "panakola",
    "cc2": "13",
    "latitude": 12.49342,
    "longitude": 75.18274
  },
  {
    "name": "kundakochi",
    "cc2": "13",
    "latitude": 12.48831,
    "longitude": 75.16925
  },
  {
    "name": "mullagode",
    "cc2": "13",
    "latitude": 12.47971,
    "longitude": 75.16549
  },
  {
    "name": "arichap",
    "cc2": "13",
    "latitude": 12.47176,
    "longitude": 75.17994
  },
  {
    "name": "ammagote",
    "cc2": "13",
    "latitude": 12.46682,
    "longitude": 75.16092
  },
  {
    "name": "periye",
    "cc2": "13",
    "latitude": 12.4591,
    "longitude": 75.17753
  },
  {
    "name": "maridalam",
    "cc2": "13",
    "latitude": 12.45053,
    "longitude": 75.18568
  },
  {
    "name": "kamala",
    "cc2": "13",
    "latitude": 12.44941,
    "longitude": 75.16605
  },
  {
    "name": "thalekunnu",
    "cc2": "13",
    "latitude": 12.44394,
    "longitude": 75.17159
  },
  {
    "name": "bannatikan",
    "cc2": "13",
    "latitude": 12.44196,
    "longitude": 75.16594
  },
  {
    "name": "bavadka",
    "cc2": "13",
    "latitude": 12.43235,
    "longitude": 75.17258
  },
  {
    "name": "cherpadi",
    "cc2": "13",
    "latitude": 12.4355,
    "longitude": 75.18338
  },
  {
    "name": "adkamola",
    "cc2": "13",
    "latitude": 12.43947,
    "longitude": 75.164
  },
  {
    "name": "kodoth",
    "cc2": "13",
    "latitude": 12.41008,
    "longitude": 75.1922
  },
  {
    "name": "pododka",
    "cc2": "13",
    "latitude": 12.39898,
    "longitude": 75.1808
  },
  {
    "name": "beluru",
    "cc2": "13",
    "latitude": 12.3949,
    "longitude": 75.19638
  },
  {
    "name": "dalur",
    "cc2": "13",
    "latitude": 12.38037,
    "longitude": 75.16529
  },
  {
    "name": "baimba",
    "cc2": "13",
    "latitude": 12.37663,
    "longitude": 75.17785
  },
  {
    "name": "aiyangal",
    "cc2": "13",
    "latitude": 12.36497,
    "longitude": 75.17681
  },
  {
    "name": "pannangote",
    "cc2": "13",
    "latitude": 12.34386,
    "longitude": 75.16338
  },
  {
    "name": "perlath",
    "cc2": "13",
    "latitude": 12.32684,
    "longitude": 75.18733
  },
  {
    "name": "bennanur",
    "cc2": "13",
    "latitude": 12.32325,
    "longitude": 75.17783
  },
  {
    "name": "kalingat",
    "cc2": "13",
    "latitude": 12.31616,
    "longitude": 75.18222
  },
  {
    "name": "malpacheri",
    "cc2": "13",
    "latitude": 12.3127,
    "longitude": 75.18492
  },
  {
    "name": "kodoth",
    "cc2": "13",
    "latitude": 12.31126,
    "longitude": 75.19298
  },
  {
    "name": "erikolam",
    "cc2": "13",
    "latitude": 12.30486,
    "longitude": 75.16447
  },
  {
    "name": "puliyanjuali",
    "cc2": "13",
    "latitude": 12.28984,
    "longitude": 75.1751
  },
  {
    "name": "pondi",
    "cc2": "13",
    "latitude": 12.28459,
    "longitude": 75.17188
  },
  {
    "name": "malpacheri",
    "cc2": "13",
    "latitude": 12.25164,
    "longitude": 75.17812
  },
  {
    "name": "alandatte",
    "cc2": "13",
    "latitude": 12.25528,
    "longitude": 75.20261
  },
  {
    "name": "palloth",
    "cc2": "13",
    "latitude": 12.26129,
    "longitude": 75.20573
  },
  {
    "name": "shutayil",
    "cc2": "13",
    "latitude": 12.26515,
    "longitude": 75.2039
  },
  {
    "name": "malartara",
    "cc2": "13",
    "latitude": 12.2742,
    "longitude": 75.2236
  },
  {
    "name": "irturti",
    "cc2": "13",
    "latitude": 12.29654,
    "longitude": 75.20032
  },
  {
    "name": "anapadi",
    "cc2": "13",
    "latitude": 12.32369,
    "longitude": 75.22296
  },
  {
    "name": "alattadi",
    "cc2": "13",
    "latitude": 12.33225,
    "longitude": 75.20217
  },
  {
    "name": "cheralath",
    "cc2": "13",
    "latitude": 12.34122,
    "longitude": 75.21079
  },
  {
    "name": "tayannur",
    "cc2": "13",
    "latitude": 12.34779,
    "longitude": 75.19528
  },
  {
    "name": "chendola",
    "cc2": "13",
    "latitude": 12.39976,
    "longitude": 75.198
  },
  {
    "name": "aiyarote",
    "cc2": "13",
    "latitude": 12.42172,
    "longitude": 75.21123
  },
  {
    "name": "padangote",
    "cc2": "13",
    "latitude": 12.42356,
    "longitude": 75.19586
  },
  {
    "name": "narikole",
    "cc2": "13",
    "latitude": 12.44259,
    "longitude": 75.19748
  },
  {
    "name": "chulli",
    "cc2": "13",
    "latitude": 12.44422,
    "longitude": 75.21613
  },
  {
    "name": "bavadka",
    "cc2": "13",
    "latitude": 12.44867,
    "longitude": 75.19793
  },
  {
    "name": "parayambala",
    "cc2": "13",
    "latitude": 12.45318,
    "longitude": 75.21235
  },
  {
    "name": "kakkata",
    "cc2": "13",
    "latitude": 12.45636,
    "longitude": 75.20677
  },
  {
    "name": "peringana",
    "cc2": "13",
    "latitude": 12.45899,
    "longitude": 75.20228
  },
  {
    "name": "munnad",
    "cc2": "13",
    "latitude": 12.46256,
    "longitude": 75.19191
  },
  {
    "name": "kolkare",
    "cc2": "13",
    "latitude": 12.47109,
    "longitude": 75.21334
  },
  {
    "name": "kuttikolu",
    "cc2": "13",
    "latitude": 12.47725,
    "longitude": 75.20645
  },
  {
    "name": "ittakad",
    "cc2": "13",
    "latitude": 12.47443,
    "longitude": 75.19433
  },
  {
    "name": "kuramb",
    "cc2": "13",
    "latitude": 12.48741,
    "longitude": 75.20049
  },
  {
    "name": "ame",
    "cc2": "13",
    "latitude": 12.4894,
    "longitude": 75.19107
  },
  {
    "name": "thevunam",
    "cc2": "13",
    "latitude": 12.49765,
    "longitude": 75.23706
  },
  {
    "name": "pudiaparamba",
    "cc2": "13",
    "latitude": 12.49322,
    "longitude": 75.22671
  },
  {
    "name": "alanthangad",
    "cc2": "13",
    "latitude": 12.47939,
    "longitude": 75.24089
  },
  {
    "name": "kudumbur",
    "cc2": "13",
    "latitude": 12.46017,
    "longitude": 75.23965
  },
  {
    "name": "anjanamukkund",
    "cc2": "13",
    "latitude": 12.45746,
    "longitude": 75.23114
  },
  {
    "name": "bayavalap",
    "cc2": "13",
    "latitude": 12.44004,
    "longitude": 75.23651
  },
  {
    "name": "chullikaro",
    "cc2": "13",
    "latitude": 12.41297,
    "longitude": 75.23613
  },
  {
    "name": "aiyangal",
    "cc2": "13",
    "latitude": 12.41098,
    "longitude": 75.24284
  },
  {
    "name": "malothu",
    "cc2": "13",
    "latitude": 12.38111,
    "longitude": 75.23629
  },
  {
    "name": "kinanu",
    "cc2": "13",
    "latitude": 12.36903,
    "longitude": 75.24612
  },
  {
    "name": "madakai",
    "cc2": "13",
    "latitude": 12.36346,
    "longitude": 75.24133
  },
  {
    "name": "banath",
    "cc2": "13",
    "latitude": 12.34646,
    "longitude": 75.24375
  },
  {
    "name": "vandakundu",
    "cc2": "13",
    "latitude": 12.33055,
    "longitude": 75.24261
  },
  {
    "name": "tumbranda",
    "cc2": "13",
    "latitude": 12.32553,
    "longitude": 75.23759
  },
  {
    "name": "karlath",
    "cc2": "13",
    "latitude": 12.308,
    "longitude": 75.24131
  },
  {
    "name": "kuriko",
    "cc2": "13",
    "latitude": 12.28839,
    "longitude": 75.23697
  },
  {
    "name": "kikanam",
    "cc2": "13",
    "latitude": 12.27409,
    "longitude": 75.23178
  },
  {
    "name": "chima",
    "cc2": "13",
    "latitude": 12.27388,
    "longitude": 75.24862
  },
  {
    "name": "karindala",
    "cc2": "13",
    "latitude": 12.26915,
    "longitude": 75.23917
  },
  {
    "name": "puliyannu",
    "cc2": "13",
    "latitude": 12.26384,
    "longitude": 75.24362
  },
  {
    "name": "chimen",
    "cc2": "13",
    "latitude": 12.26271,
    "longitude": 75.24439
  },
  {
    "name": "payyare",
    "cc2": "13",
    "latitude": 12.25525,
    "longitude": 75.24613
  },
  {
    "name": "podavur",
    "cc2": "13",
    "latitude": 12.26058,
    "longitude": 75.22885
  },
  {
    "name": "taire",
    "cc2": "13",
    "latitude": 12.48945,
    "longitude": 75.07361
  },
  {
    "name": "puvalmule",
    "cc2": "13",
    "latitude": 12.49503,
    "longitude": 75.12208
  },
  {
    "name": "kokkal",
    "cc2": "13",
    "latitude": 12.1572,
    "longitude": 75.15141
  },
  {
    "name": "takkekad",
    "cc2": "13",
    "latitude": 12.16159,
    "longitude": 75.14656
  },
  {
    "name": "padne kadparam",
    "cc2": "13",
    "latitude": 12.16465,
    "longitude": 75.13722
  },
  {
    "name": "badkekad",
    "cc2": "13",
    "latitude": 12.17932,
    "longitude": 75.13906
  },
  {
    "name": "purtale",
    "cc2": "13",
    "latitude": 12.18342,
    "longitude": 75.13661
  },
  {
    "name": "kotekurpu",
    "cc2": "13",
    "latitude": 12.189,
    "longitude": 75.13707
  },
  {
    "name": "chamandemad",
    "cc2": "13",
    "latitude": 12.19453,
    "longitude": 75.13482
  },
  {
    "name": "kadonkota",
    "cc2": "13",
    "latitude": 12.21331,
    "longitude": 75.13533
  },
  {
    "name": "thurti",
    "cc2": "13",
    "latitude": 12.21641,
    "longitude": 75.12715
  },
  {
    "name": "purtemad",
    "cc2": "13",
    "latitude": 12.22952,
    "longitude": 75.12549
  },
  {
    "name": "kotepora",
    "cc2": "13",
    "latitude": 12.23732,
    "longitude": 75.12939
  },
  {
    "name": "pantekai",
    "cc2": "13",
    "latitude": 12.22862,
    "longitude": 75.11645
  },
  {
    "name": "kadnemula",
    "cc2": "13",
    "latitude": 12.23198,
    "longitude": 75.11057
  },
  {
    "name": "punje",
    "cc2": "13",
    "latitude": 12.243,
    "longitude": 75.10577
  },
  {
    "name": "pado thurti",
    "cc2": "13",
    "latitude": 12.24429,
    "longitude": 75.15828
  },
  {
    "name": "kilayyikote",
    "cc2": "13",
    "latitude": 12.24051,
    "longitude": 75.17131
  },
  {
    "name": "moikoch",
    "cc2": "13",
    "latitude": 12.24519,
    "longitude": 75.17745
  },
  {
    "name": "ochathidle",
    "cc2": "13",
    "latitude": 12.24064,
    "longitude": 75.18681
  },
  {
    "name": "mundemad",
    "cc2": "13",
    "latitude": 12.23642,
    "longitude": 75.13617
  },
  {
    "name": "charvattu",
    "cc2": "13",
    "latitude": 12.21816,
    "longitude": 75.14293
  },
  {
    "name": "kutat",
    "cc2": "13",
    "latitude": 12.22214,
    "longitude": 75.16864
  },
  {
    "name": "putlut",
    "cc2": "13",
    "latitude": 12.2095,
    "longitude": 75.18001
  },
  {
    "name": "pilikodu",
    "cc2": "13",
    "latitude": 12.19154,
    "longitude": 75.16443
  },
  {
    "name": "vatakumbad",
    "cc2": "13",
    "latitude": 12.18737,
    "longitude": 75.17769
  },
  {
    "name": "chandare",
    "cc2": "13",
    "latitude": 12.17617,
    "longitude": 75.17314
  },
  {
    "name": "karuvellur",
    "cc2": "13",
    "latitude": 12.17606,
    "longitude": 75.19314
  },
  {
    "name": "udenuru",
    "cc2": "13",
    "latitude": 12.16326,
    "longitude": 75.16231
  },
  {
    "name": "nadkau",
    "cc2": "13",
    "latitude": 12.16176,
    "longitude": 75.17838
  },
  {
    "name": "velap",
    "cc2": "13",
    "latitude": 12.14649,
    "longitude": 75.1581
  },
  {
    "name": "trikarpur north",
    "cc2": "13",
    "latitude": 12.14579,
    "longitude": 75.17475
  },
  {
    "name": "yaiyekat",
    "cc2": "13",
    "latitude": 12.16595,
    "longitude": 75.18449
  },
  {
    "name": "mariyat",
    "cc2": "13",
    "latitude": 12.17639,
    "longitude": 75.16796
  },
  {
    "name": "udenuru kadparam",
    "cc2": "13",
    "latitude": 12.13031,
    "longitude": 75.14899
  },
  {
    "name": "mattamal",
    "cc2": "13",
    "latitude": 12.1219,
    "longitude": 75.16792
  },
  {
    "name": "tayakat",
    "cc2": "13",
    "latitude": 12.11346,
    "longitude": 75.1817
  },
  {
    "name": "trikarpur south",
    "cc2": "13",
    "latitude": 12.11649,
    "longitude": 75.18517
  },
  {
    "name": "madkal",
    "cc2": "13",
    "latitude": 12.10413,
    "longitude": 75.16693
  },
  {
    "name": "udumanthala",
    "cc2": "13",
    "latitude": 12.10461,
    "longitude": 75.17649
  },
  {
    "name": "kaikotkado",
    "cc2": "13",
    "latitude": 12.11748,
    "longitude": 75.17394
  },
  {
    "name": "kavvayi",
    "cc2": "13",
    "latitude": 12.09155,
    "longitude": 75.18345
  },
  {
    "name": "poranaura",
    "cc2": "13",
    "latitude": 12.07881,
    "longitude": 75.17063
  },
  {
    "name": "vadkumpad",
    "cc2": "13",
    "latitude": 12.07057,
    "longitude": 75.18375
  },
  {
    "name": "ettikkulam",
    "cc2": "13",
    "latitude": 12.01314,
    "longitude": 75.20906
  },
  {
    "name": "kunnariyam",
    "cc2": "13",
    "latitude": 12.05742,
    "longitude": 75.21625
  },
  {
    "name": "kandankavi",
    "cc2": "13",
    "latitude": 12.08571,
    "longitude": 75.21449
  },
  {
    "name": "perampuzha",
    "cc2": "13",
    "latitude": 12.11143,
    "longitude": 75.22001
  },