[
  {
    "name": "zunheboto",
    "cc2": "20",
    "latitude": 25.96667,
    "longitude": 94.51667
  },
  {
    "name": "zulhami",
    "cc2": "20",
    "latitude": 25.82455,
    "longitude": 94.39098
  },
  {
    "name": "zhumkiri",
    "cc2": "20",
    "latitude": 25.88112,
    "longitude": 94.86265
  },
  {
    "name": "yimtsung-aenrr",
    "cc2": "20",
    "latitude": 26.10453,
    "longitude": 94.78851
  },
  {
    "name": "yezami",
    "cc2": "20",
    "latitude": 26.05,
    "longitude": 94.56667
  },
  {
    "name": "yekhum",
    "cc2": "20",
    "latitude": 26.15005,
    "longitude": 94.23523
  },
  {
    "name": "yangching",
    "cc2": "20",
    "latitude": 26.44675,
    "longitude": 94.88453
  },
  {
    "name": "wokha",
    "cc2": "20",
    "latitude": 26.09717,
    "longitude": 94.25817
  },
  {
    "name": "wangla",
    "cc2": "20",
    "latitude": 26.8072,
    "longitude": 95.00513
  },
  {
    "name": "wakching",
    "cc2": "20",
    "latitude": 26.6608,
    "longitude": 94.84323
  },
  {
    "name": "ungr",
    "cc2": "20",
    "latitude": 26.48922,
    "longitude": 94.66116
  },
  {
    "name": "ungma",
    "cc2": "20",
    "latitude": 26.29631,
    "longitude": 94.50377
  },
  {
    "name": "tuensang",
    "cc2": "20",
    "latitude": 26.26704,
    "longitude": 94.82415
  },
  {
    "name": "tseminyu",
    "cc2": "20",
    "latitude": 25.92474,
    "longitude": 94.21615
  },
  {
    "name": "thonokhyu",
    "cc2": "20",
    "latitude": 25.96897,
    "longitude": 94.90596
  },
  {
    "name": "tasangki",
    "cc2": "20",
    "latitude": 25.49729,
    "longitude": 93.66787
  },
  {
    "name": "tamlu",
    "cc2": "20",
    "latitude": 26.67399,
    "longitude": 94.74446
  },
  {
    "name": "tamkhung",
    "cc2": "20",
    "latitude": 26.38226,
    "longitude": 95.00638
  },
  {
    "name": "sirire",
    "cc2": "20",
    "latitude": 25.91053,
    "longitude": 94.76701
  },
  {
    "name": "shipungrr",
    "cc2": "20",
    "latitude": 26.05759,
    "longitude": 94.79734
  },
  {
    "name": "sathazumi",
    "cc2": "20",
    "latitude": 25.76021,
    "longitude": 94.36254
  },
  {
    "name": "sapekhati",
    "cc2": "20",
    "latitude": 27.07993,
    "longitude": 95.17871
  },
  {
    "name": "sanis",
    "cc2": "20",
    "latitude": 26.21935,
    "longitude": 94.21865
  },
  {
    "name": "sampurre",
    "cc2": "20",
    "latitude": 25.83285,
    "longitude": 94.77514
  },
  {
    "name": "sakhalu",
    "cc2": "20",
    "latitude": 25.97512,
    "longitude": 94.51257
  },
  {
    "name": "sakhai",
    "cc2": "20",
    "latitude": 25.88019,
    "longitude": 94.50341
  },
  {
    "name": "rusa",
    "cc2": "20",
    "latitude": 27.02579,
    "longitude": 95.27794
  },
  {
    "name": "purorr",
    "cc2": "20",
    "latitude": 25.98666,
    "longitude": 94.79659
  },
  {
    "name": "priphema",
    "cc2": "20",
    "latitude": 25.74462,
    "longitude": 93.96959
  },
  {
    "name": "philimi",
    "cc2": "20",
    "latitude": 26.07026,
    "longitude": 94.40516
  },
  {
    "name": "pasompui",
    "cc2": "20",
    "latitude": 25.5138,
    "longitude": 93.54934
  },
  {
    "name": "panso",
    "cc2": "20",
    "latitude": 26.11726,
    "longitude": 94.92957
  },
  {
    "name": "pangti",
    "cc2": "20",
    "latitude": 26.26167,
    "longitude": 94.31942
  },
  {
    "name": "nyasia",
    "cc2": "20",
    "latitude": 26.77893,
    "longitude": 95.20265
  },
  {
    "name": "nichuguard",
    "cc2": "20",
    "latitude": 25.80555,
    "longitude": 93.78486
  },
  {
    "name": "nerhema",
    "cc2": "20",
    "latitude": 25.77949,
    "longitude": 94.1201
  },
  {
    "name": "natsimi",
    "cc2": "20",
    "latitude": 25.91648,
    "longitude": 94.2988
  },
  {
    "name": "namtolagaon",
    "cc2": "20",
    "latitude": 26.96562,
    "longitude": 95.05937
  },
  {
    "name": "naginimora",
    "cc2": "20",
    "latitude": 26.81492,
    "longitude": 94.81084
  },
  {
    "name": "mongsenyimti",
    "cc2": "20",
    "latitude": 26.42913,
    "longitude": 94.6213
  },
  {
    "name": "mon",
    "cc2": "20",
    "latitude": 26.73583,
    "longitude": 95.05841
  },
  {
    "name": "molungyimsen",
    "cc2": "20",
    "latitude": 26.66449,
    "longitude": 94.59936
  },
  {
    "name": "mokokchung",
    "cc2": "20",
    "latitude": 26.3248,
    "longitude": 94.51834
  },
  {
    "name": "merangkong",
    "cc2": "20",
    "latitude": 26.61438,
    "longitude": 94.66944
  },
  {
    "name": "meluri",
    "cc2": "20",
    "latitude": 25.67511,
    "longitude": 94.61951
  },
  {
    "name": "lungsachung",
    "cc2": "20",
    "latitude": 26.05501,
    "longitude": 94.25961
  },
  {
    "name": "lungkam",
    "cc2": "20",
    "latitude": 26.27093,
    "longitude": 94.45275
  },
  {
    "name": "lukami",
    "cc2": "20",
    "latitude": 25.98333,
    "longitude": 94.66667
  },
  {
    "name": "lu",
    "cc2": "20",
    "latitude": 26.95599,
    "longitude": 95.22533
  },
  {
    "name": "longsa",
    "cc2": "20",
    "latitude": 26.22089,
    "longitude": 94.54994
  },
  {
    "name": "longching",
    "cc2": "20",
    "latitude": 26.51784,
    "longitude": 94.93496
  },
  {
    "name": "litim",
    "cc2": "20",
    "latitude": 26.36591,
    "longitude": 94.70007
  },
  {
    "name": "lephori",
    "cc2": "20",
    "latitude": 25.61446,
    "longitude": 94.62304
  },
  {
    "name": "lazami",
    "cc2": "20",
    "latitude": 25.8569,
    "longitude": 94.2493
  },
  {
    "name": "laruri",
    "cc2": "20",
    "latitude": 25.68553,
    "longitude": 94.84263
  },
  {
    "name": "lapa",
    "cc2": "20",
    "latitude": 26.89716,
    "longitude": 95.03103
  },
  {
    "name": "lakhuti",
    "cc2": "20",
    "latitude": 26.29119,
    "longitude": 94.24528
  },
  {
    "name": "lakema",
    "cc2": "20",
    "latitude": 25.56743,
    "longitude": 93.76056
  },
  {
    "name": "kongan",
    "cc2": "20",
    "latitude": 26.74842,
    "longitude": 94.83279
  },
  {
    "name": "kohima",
    "cc2": "20",
    "latitude": 25.67467,
    "longitude": 94.11099
  },
  {
    "name": "kiyekhu",
    "cc2": "20",
    "latitude": 25.93412,
    "longitude": 94.5096
  },
  {
    "name": "kitagha",
    "cc2": "20",
    "latitude": 25.9804,
    "longitude": 94.23754
  },
  {
    "name": "kilami",
    "cc2": "20",
    "latitude": 25.86389,
    "longitude": 94.4158
  },
  {
    "name": "khuzami",
    "cc2": "20",
    "latitude": 25.76746,
    "longitude": 94.47432
  },
  {
    "name": "khonoma",
    "cc2": "20",
    "latitude": 25.65423,
    "longitude": 94.02179
  },
  {
    "name": "khensa",
    "cc2": "20",
    "latitude": 26.34572,
    "longitude": 94.48917
  },
  {
    "name": "jotsema",
    "cc2": "20",
    "latitude": 25.67604,
    "longitude": 94.06071
  },
  {
    "name": "henima",
    "cc2": "20",
    "latitude": 25.35995,
    "longitude": 93.6162
  },
  {
    "name": "ghaspani",
    "cc2": "20",
    "latitude": 25.76059,
    "longitude": 93.88312
  },
  {
    "name": "dimapur",
    "cc2": "20",
    "latitude": 25.91174,
    "longitude": 93.7217
  },
  {
    "name": "chungtia",
    "cc2": "20",
    "latitude": 26.38362,
    "longitude": 94.44199
  },
  {
    "name": "chozuba",
    "cc2": "20",
    "latitude": 25.71821,
    "longitude": 94.31678
  },
  {
    "name": "chongliyimsen",
    "cc2": "20",
    "latitude": 26.45224,
    "longitude": 94.42244
  },
  {
    "name": "chizami",
    "cc2": "20",
    "latitude": 25.59917,
    "longitude": 94.39212
  },
  {
    "name": "chipoketami",
    "cc2": "20",
    "latitude": 25.79878,
    "longitude": 94.48274
  },
  {
    "name": "chingtang",
    "cc2": "20",
    "latitude": 26.62398,
    "longitude": 94.91896
  },
  {
    "name": "chimakudi",
    "cc2": "20",
    "latitude": 25.77892,
    "longitude": 93.78466
  },
  {
    "name": "cheswezumi",
    "cc2": "20",
    "latitude": 25.68016,
    "longitude": 94.27176
  },
  {
    "name": "cheshorr",
    "cc2": "20",
    "latitude": 26.08983,
    "longitude": 94.74611
  },
  {
    "name": "chen",
    "cc2": "20",
    "latitude": 26.58502,
    "longitude": 95.09015
  },
  {
    "name": "chantongia",
    "cc2": "20",
    "latitude": 26.54588,
    "longitude": 94.6856
  },
  {
    "name": "chakhabama",
    "cc2": "20",
    "latitude": 25.66983,
    "longitude": 94.19506
  },
  {
    "name": "borjan",
    "cc2": "20",
    "latitude": 26.76494,
    "longitude": 94.83347
  },
  {
    "name": "baimho",
    "cc2": "20",
    "latitude": 26.02932,
    "longitude": 94.55339
  },
  {
    "name": "aochagalimi",
    "cc2": "20",
    "latitude": 26.14481,
    "longitude": 94.52722
  },
  {
    "name": "akhegwo",
    "cc2": "20",
    "latitude": 25.72187,
    "longitude": 94.67989
  },
  {
    "name": "aichisagami",
    "cc2": "20",
    "latitude": 26.11918,
    "longitude": 94.59223
  },
  {
    "name": "manipur road",
    "cc2": "20",
    "latitude": 25.87854,
    "longitude": 93.77309
  },
  {
    "name": "lambodhar",
    "cc2": "20",
    "latitude": 25.76097,
    "longitude": 93.59283
  },
  {
    "name": "razephema",
    "cc2": "20",
    "latitude": 25.71922,
    "longitude": 93.80159
  },
  {
    "name": "dzulake",
    "cc2": "20",
    "latitude": 25.62089,
    "longitude": 93.96049
  },
  {
    "name": "boaroami",
    "cc2": "20",
    "latitude": 25.57598,
    "longitude": 93.86467
  },
  {
    "name": "phuitomi",
    "cc2": "20",
    "latitude": 25.47324,
    "longitude": 93.76466
  },
  {
    "name": "lalongmi",
    "cc2": "20",
    "latitude": 25.29412,
    "longitude": 93.55726
  },
  {
    "name": "mesangpi",
    "cc2": "20",
    "latitude": 26.20481,
    "longitude": 94.19112
  },
  {
    "name": "keromichomi",
    "cc2": "20",
    "latitude": 26.09063,
    "longitude": 94.46615
  },
  {
    "name": "lungithang",
    "cc2": "20",
    "latitude": 26.03024,
    "longitude": 94.33769
  },
  {
    "name": "tiyingchomo",
    "cc2": "20",
    "latitude": 26.11224,
    "longitude": 94.24458
  },
  {
    "name": "asukukhwami",
    "cc2": "20",
    "latitude": 26.0759,
    "longitude": 94.53924
  },
  {
    "name": "zhekiya",
    "cc2": "20",
    "latitude": 25.92996,
    "longitude": 94.48988
  },
  {
    "name": "kivikhu",
    "cc2": "20",
    "latitude": 25.84402,
    "longitude": 94.50674
  },
  {
    "name": "kidzematuma",
    "cc2": "20",
    "latitude": 25.76841,
    "longitude": 94.24292
  },
  {
    "name": "lozaphohemi",
    "cc2": "20",
    "latitude": 25.63296,
    "longitude": 94.49314
  },
  {
    "name": "oting",
    "cc2": "20",
    "latitude": 26.84347,
    "longitude": 94.96422
  },
  {
    "name": "punkhung",
    "cc2": "20",
    "latitude": 26.76933,
    "longitude": 94.96171
  },
  {
    "name": "shiong",
    "cc2": "20",
    "latitude": 26.69519,
    "longitude": 94.92715
  },
  {
    "name": "kongtsung toluba",
    "cc2": "20",
    "latitude": 26.7093,
    "longitude": 94.71113
  },
  {
    "name": "kanching",
    "cc2": "20",
    "latitude": 26.646,
    "longitude": 94.72232
  },
  {
    "name": "kamahu",
    "cc2": "20",
    "latitude": 26.56185,
    "longitude": 94.77977
  },
  {
    "name": "kulingmen",
    "cc2": "20",
    "latitude": 26.52118,
    "longitude": 94.61352
  },
  {
    "name": "pongo",
    "cc2": "20",
    "latitude": 26.48508,
    "longitude": 94.87179
  },
  {
    "name": "yangpi",
    "cc2": "20",
    "latitude": 26.4017,
    "longitude": 94.77621
  },
  {
    "name": "chuchu yimbang",
    "cc2": "20",
    "latitude": 26.33561,
    "longitude": 94.55962
  },
  {
    "name": "chare",
    "cc2": "20",
    "latitude": 26.28527,
    "longitude": 94.62012
  },
  {
    "name": "kudeh",
    "cc2": "20",
    "latitude": 26.25731,
    "longitude": 94.76757
  },
  {
    "name": "sapatimi",
    "cc2": "20",
    "latitude": 26.20037,
    "longitude": 94.54691
  },
  {
    "name": "litsammi",
    "cc2": "20",
    "latitude": 26.18817,
    "longitude": 94.63792
  },
  {
    "name": "lizatomi",
    "cc2": "20",
    "latitude": 26.0875,
    "longitude": 94.66487
  },
  {
    "name": "chingmei",
    "cc2": "20",
    "latitude": 26.24206,
    "longitude": 94.93484
  },
  {
    "name": "sangpurr",
    "cc2": "20",
    "latitude": 26.13376,
    "longitude": 94.85146
  },
  {
    "name": "shamtorr",
    "cc2": "20",
    "latitude": 26.05954,
    "longitude": 94.87993
  },
  {
    "name": "rishetsu",
    "cc2": "20",
    "latitude": 25.95938,
    "longitude": 94.75028
  },
  {
    "name": "tsaikiyang",
    "cc2": "20",
    "latitude": 25.97615,
    "longitude": 94.6669
  },
  {
    "name": "kuvukhu",
    "cc2": "20",
    "latitude": 25.79211,
    "longitude": 94.69384
  },
  {
    "name": "longting",
    "cc2": "20",
    "latitude": 26.89544,
    "longitude": 95.16306
  },
  {
    "name": "nokhu",
    "cc2": "20",
    "latitude": 26.15279,
    "longitude": 95.01877
  },
  {
    "name": "kherbari",
    "cc2": "20",
    "latitude": 25.80238,
    "longitude": 93.61172
  },
  {
    "name": "akuluto",
    "cc2": "20",
    "latitude": 26.16615,
    "longitude": 94.48706
  },
  {
    "name": "longleng",
    "cc2": "20",
    "latitude": 26.48989,
    "longitude": 94.81772
  },
  {
    "name": "hukpang",
    "cc2": "20",
    "latitude": 26.46892,
    "longitude": 94.80369
  },
  {
    "name": "tuli",
    "cc2": "20",
    "latitude": 26.66426,
    "longitude": 94.64207
  },
  {
    "name": "sechu zubza",
    "cc2": "20",
    "latitude": 25.71639,
    "longitude": 94.03853
  },
  {
    "name": "pedi",
    "cc2": "20",
    "latitude": 25.591,
    "longitude": 93.809
  },
  {
    "name": "tening",
    "cc2": "20",
    "latitude": 25.34327,
    "longitude": 93.58672
  },
  {
    "name": "jalukie",
    "cc2": "20",
    "latitude": 25.64674,
    "longitude": 93.66087
  },
  {
    "name": "jakhama hq",
    "cc2": "20",
    "latitude": 25.57594,
    "longitude": 94.09252
  },
  {
    "name": "nsong",
    "cc2": "20",
    "latitude": 25.34862,
    "longitude": 93.55306
  },
  {
    "name": "khelma",
    "cc2": "20",
    "latitude": 25.45656,
    "longitude": 93.4255
  },
  {
    "name": "athibung",
    "cc2": "20",
    "latitude": 25.54436,
    "longitude": 93.61826
  },
  {
    "name": "dhansiripar",
    "cc2": "20",
    "latitude": 25.78116,
    "longitude": 93.62323
  },
  {
    "name": "chumukedima",
    "cc2": "20",
    "latitude": 25.82483,
    "longitude": 93.77592
  },
  {
    "name": "medziphema",
    "cc2": "20",
    "latitude": 25.75759,
    "longitude": 93.86545
  },
  {
    "name": "phokhungri",
    "cc2": "20",
    "latitude": 25.60693,
    "longitude": 94.82146
  },
  {
    "name": "weziho",
    "cc2": "20",
    "latitude": 25.66963,
    "longitude": 94.6955
  },
  {
    "name": "pungro",
    "cc2": "20",
    "latitude": 25.81545,
    "longitude": 94.8407
  },
  {
    "name": "khongsa",
    "cc2": "20",
    "latitude": 25.79129,
    "longitude": 94.90799
  },
  {
    "name": "phor",
    "cc2": "20",
    "latitude": 25.73825,
    "longitude": 94.77452
  },
  {
    "name": "longmatra",
    "cc2": "20",
    "latitude": 25.79199,
    "longitude": 94.73279
  },
  {
    "name": "satoi",
    "cc2": "20",
    "latitude": 25.82942,
    "longitude": 94.56583
  },
  {
    "name": "khuza",
    "cc2": "20",
    "latitude": 25.76872,
    "longitude": 94.45729
  },
  {
    "name": "sekruzu",
    "cc2": "20",
    "latitude": 25.76238,
    "longitude": 94.36677
  },
  {
    "name": "kiusam",
    "cc2": "20",
    "latitude": 25.91186,
    "longitude": 94.90899
  },
  {
    "name": "sitimi",
    "cc2": "20",
    "latitude": 25.81866,
    "longitude": 94.64633
  },
  {
    "name": "kiphire",
    "cc2": "20",
    "latitude": 25.86785,
    "longitude": 94.78572
  },
  {
    "name": "seyochung",
    "cc2": "20",
    "latitude": 25.90261,
    "longitude": 94.6256
  },
  {
    "name": "khezhakeno",
    "cc2": "20",
    "latitude": 25.50761,
    "longitude": 94.2149
  },
  {
    "name": "zapami",
    "cc2": "20",
    "latitude": 25.53516,
    "longitude": 94.24691
  },
  {
    "name": "pfutsero",
    "cc2": "20",
    "latitude": 25.57036,
    "longitude": 94.29828
  },
  {
    "name": "razieba",
    "cc2": "20",
    "latitude": 25.51663,
    "longitude": 94.32544
  },
  {
    "name": "sakraba",
    "cc2": "20",
    "latitude": 25.61836,
    "longitude": 94.36385
  },
  {
    "name": "kezocha",
    "cc2": "20",
    "latitude": 25.57806,
    "longitude": 94.18567
  },
  {
    "name": "chetheba",
    "cc2": "20",
    "latitude": 25.66686,
    "longitude": 94.25632
  },
  {
    "name": "chiephobozou",
    "cc2": "20",
    "latitude": 25.78161,
    "longitude": 94.09718
  },
  {
    "name": "kuhuboto",
    "cc2": "20",
    "latitude": 25.79842,
    "longitude": 93.85189
  },
  {
    "name": "nihokhu",
    "cc2": "20",
    "latitude": 25.85144,
    "longitude": 93.92792
  },
  {
    "name": "niuland",
    "cc2": "20",
    "latitude": 25.90758,
    "longitude": 93.98774
  },
  {
    "name": "tsogin",
    "cc2": "20",
    "latitude": 25.9458,
    "longitude": 94.04007
  },
  {
    "name": "botsa",
    "cc2": "20",
    "latitude": 25.84117,
    "longitude": 94.1314
  },
  {
    "name": "mishilimi",
    "cc2": "20",
    "latitude": 25.87921,
    "longitude": 94.25147
  },
  {
    "name": "ralan",
    "cc2": "20",
    "latitude": 26.00192,
    "longitude": 93.97819
  },
  {
    "name": "chunlika",
    "cc2": "20",
    "latitude": 25.97609,
    "longitude": 94.22882
  },
  {
    "name": "wozhuro",
    "cc2": "20",
    "latitude": 26.00207,
    "longitude": 94.16816
  },
  {
    "name": "lotsu",
    "cc2": "20",
    "latitude": 26.07774,
    "longitude": 94.08405
  },
  {
    "name": "satakha",
    "cc2": "20",
    "latitude": 25.92477,
    "longitude": 94.43648
  },
  {
    "name": "aghunato",
    "cc2": "20",
    "latitude": 26.01625,
    "longitude": 94.62731
  },
  {
    "name": "ghathashi",
    "cc2": "20",
    "latitude": 25.86039,
    "longitude": 94.33474
  },
  {
    "name": "saptiqa",
    "cc2": "20",
    "latitude": 25.98435,
    "longitude": 94.38742
  },
  {
    "name": "amahator",
    "cc2": "20",
    "latitude": 25.94346,
    "longitude": 94.73697
  },
  {
    "name": "tsurungto",
    "cc2": "20",
    "latitude": 26.00676,
    "longitude": 94.75793
  },
  {
    "name": "mangko",
    "cc2": "20",
    "latitude": 26.04514,
    "longitude": 94.77981
  },
  {
    "name": "sotokur",
    "cc2": "20",
    "latitude": 26.15117,
    "longitude": 94.75074
  },
  {
    "name": "sangsangnyu",
    "cc2": "20",
    "latitude": 26.3267,
    "longitude": 94.89578
  },
  {
    "name": "noklak",
    "cc2": "20",
    "latitude": 26.19845,
    "longitude": 95.01658
  },
  {
    "name": "asuto",
    "cc2": "20",
    "latitude": 26.11431,
    "longitude": 94.63449
  },
  {
    "name": "atoizu",
    "cc2": "20",
    "latitude": 26.07203,
    "longitude": 94.48455
  },
  {
    "name": "akuhaito",
    "cc2": "20",
    "latitude": 26.08925,
    "longitude": 94.4071
  },
  {
    "name": "suruhuto",
    "cc2": "20",
    "latitude": 26.14598,
    "longitude": 94.58854
  },
  {
    "name": "chukitong",
    "cc2": "20",
    "latitude": 26.10774,
    "longitude": 94.29706
  },
  {
    "name": "englan",
    "cc2": "20",
    "latitude": 26.17179,
    "longitude": 94.25111
  },
  {
    "name": "baghty",
    "cc2": "20",
    "latitude": 26.25327,
    "longitude": 94.19763
  },
  {
    "name": "v.k.",
    "cc2": "20",
    "latitude": 26.17429,
    "longitude": 94.40501
  },
  {
    "name": "ongpangkong",
    "cc2": "20",
    "latitude": 26.36312,
    "longitude": 94.47709
  },
  {
    "name": "sungro",
    "cc2": "20",
    "latitude": 26.26768,
    "longitude": 94.33239
  },
  {
    "name": "longkhim",
    "cc2": "20",
    "latitude": 26.21808,
    "longitude": 94.6713
  },
  {
    "name": "aitepyong",
    "cc2": "20",
    "latitude": 26.29967,
    "longitude": 94.24963
  },
  {
    "name": "changpang",
    "cc2": "20",
    "latitude": 26.39578,
    "longitude": 94.19685
  },
  {
    "name": "tsurangkong",
    "cc2": "20",
    "latitude": 26.46454,
    "longitude": 94.33607
  },
  {
    "name": "mangkolemba",
    "cc2": "20",
    "latitude": 26.49518,
    "longitude": 94.43772
  },
  {
    "name": "kubolong",
    "cc2": "20",
    "latitude": 26.41308,
    "longitude": 94.53298
  },
  {
    "name": "tobu",
    "cc2": "20",
    "latitude": 26.36286,
    "longitude": 94.91007
  },
  {
    "name": "ngoungchung",
    "cc2": "20",
    "latitude": 26.33399,
    "longitude": 94.80484
  },
  {
    "name": "noksen",
    "cc2": "20",
    "latitude": 26.37525,
    "longitude": 94.71017
  },
  {
    "name": "monyakshu",
    "cc2": "20",
    "latitude": 26.43774,
    "longitude": 95.01605
  },
  {
    "name": "mopong",
    "cc2": "20",
    "latitude": 26.41855,
    "longitude": 94.95616
  },
  {
    "name": "sakchi",
    "cc2": "20",
    "latitude": 26.40394,
    "longitude": 94.84991
  },
  {
    "name": "phomching",
    "cc2": "20",
    "latitude": 26.68585,
    "longitude": 95.18762
  },
  {
    "name": "longshen",
    "cc2": "20",
    "latitude": 26.67412,
    "longitude": 95.11473
  },
  {
    "name": "angphang",
    "cc2": "20",
    "latitude": 26.50036,
    "longitude": 94.97934
  },
  {
    "name": "aboi",
    "cc2": "20",
    "latitude": 26.60412,
    "longitude": 94.96247
  },
  {
    "name": "yongya",
    "cc2": "20",
    "latitude": 26.59454,
    "longitude": 94.81353
  },
  {
    "name": "chuchuyimlang",
    "cc2": "20",
    "latitude": 26.44215,
    "longitude": 94.6348
  },
  {
    "name": "alongkima",
    "cc2": "20",
    "latitude": 26.53899,
    "longitude": 94.51707
  },
  {
    "name": "namsang",
    "cc2": "20",
    "latitude": 26.72949,
    "longitude": 94.79663
  },
  {
    "name": "tizit",
    "cc2": "20",
    "latitude": 26.90402,
    "longitude": 95.07981
  },
  {
    "name": "shangnyu",
    "cc2": "20",
    "latitude": 26.76565,
    "longitude": 95.11045
  },
  {
    "name": "hunta",
    "cc2": "20",
    "latitude": 26.99673,
    "longitude": 95.1932
  },
  {
    "name": "kanubari",
    "cc2": "20",
    "latitude": 27.01493,
    "longitude": 95.19632
  },
  {
    "name": "longchem",
    "cc2": "20",
    "latitude": 26.61095,
    "longitude": 94.49004
  },
  {
    "name": "tsudikong",
    "cc2": "20",
    "latitude": 26.67979,
    "longitude": 94.64357
  },
  {
    "name": "diphupar 'a'",
    "cc2": "20",
    "latitude": 25.8578,
    "longitude": 93.76905
  },
  {
    "name": "kuda",
    "cc2": "20",
    "latitude": 25.89086,
    "longitude": 93.7388
  }
]