[
  {
    "name": "ganga sagar",
    "cc2": "28",
    "latitude": 21.63933,
    "longitude": 88.07742
  },
  {
    "name": "zamin nischinta",
    "cc2": "28",
    "latitude": 25.29982,
    "longitude": 88.63236
  },
  {
    "name": "watganj",
    "cc2": "28",
    "latitude": 22.53333,
    "longitude": 88.31667
  },
  {
    "name": "uttarpara",
    "cc2": "28",
    "latitude": 22.66076,
    "longitude": 88.34711
  },
  {
    "name": "uluberiya",
    "cc2": "28",
    "latitude": 22.4756,
    "longitude": 88.09898
  },
  {
    "name": "ulkanda",
    "cc2": "28",
    "latitude": 23.89124,
    "longitude": 87.80974
  },
  {
    "name": "uday narayanpur",
    "cc2": "28",
    "latitude": 23.73333,
    "longitude": 87.98333
  },
  {
    "name": "uchalon",
    "cc2": "28",
    "latitude": 23.03592,
    "longitude": 87.77485
  },
  {
    "name": "tulsihata",
    "cc2": "28",
    "latitude": 25.4585,
    "longitude": 87.91079
  },
  {
    "name": "tulin",
    "cc2": "28",
    "latitude": 23.38073,
    "longitude": 85.89035
  },
  {
    "name": "tufanganj",
    "cc2": "28",
    "latitude": 26.31688,
    "longitude": 89.66549
  },
  {
    "name": "tribeni",
    "cc2": "28",
    "latitude": 22.98672,
    "longitude": 88.39872
  },
  {
    "name": "taliganja",
    "cc2": "28",
    "latitude": 22.50409,
    "longitude": 88.35975
  },
  {
    "name": "titagarh",
    "cc2": "28",
    "latitude": 22.74252,
    "longitude": 88.37326
  },
  {
    "name": "tilpara",
    "cc2": "28",
    "latitude": 23.93333,
    "longitude": 87.73333
  },
  {
    "name": "tildanga",
    "cc2": "28",
    "latitude": 24.78931,
    "longitude": 87.87649
  },
  {
    "name": "thode",
    "cc2": "28",
    "latitude": 27.10378,
    "longitude": 88.83816
  },
  {
    "name": "tehata",
    "cc2": "28",
    "latitude": 23.73116,
    "longitude": 88.52921
  },
  {
    "name": "tegharia",
    "cc2": "28",
    "latitude": 24.4896,
    "longitude": 87.85271
  },
  {
    "name": "tarakeswar",
    "cc2": "28",
    "latitude": 22.88605,
    "longitude": 88.01363
  },
  {
    "name": "tangra",
    "cc2": "28",
    "latitude": 22.55,
    "longitude": 88.38333
  },
  {
    "name": "tamluk",
    "cc2": "28",
    "latitude": 22.30083,
    "longitude": 87.92593
  },
  {
    "name": "taldangra",
    "cc2": "28",
    "latitude": 23.01756,
    "longitude": 87.10286
  },
  {
    "name": "takipur",
    "cc2": "28",
    "latitude": 24.30997,
    "longitude": 87.9037
  },
  {
    "name": "takipur",
    "cc2": "28",
    "latitude": 23.98333,
    "longitude": 87.66667
  },
  {
    "name": "taki",
    "cc2": "28",
    "latitude": 22.58867,
    "longitude": 88.93253
  },
  {
    "name": "takdah",
    "cc2": "28",
    "latitude": 27.05654,
    "longitude": 88.33129
  },
  {
    "name": "syampur",
    "cc2": "28",
    "latitude": 22.30318,
    "longitude": 88.0318
  },
  {
    "name": "swarupnagar",
    "cc2": "28",
    "latitude": 22.81418,
    "longitude": 88.83178
  },
  {
    "name": "suti",
    "cc2": "28",
    "latitude": 24.59546,
    "longitude": 88.04402
  },
  {
    "name": "supur",
    "cc2": "28",
    "latitude": 23.01825,
    "longitude": 86.86257
  },
  {
    "name": "suklara",
    "cc2": "28",
    "latitude": 23.19061,
    "longitude": 86.35023
  },
  {
    "name": "sukhani",
    "cc2": "28",
    "latitude": 26.86667,
    "longitude": 88.9
  },
  {
    "name": "suisa",
    "cc2": "28",
    "latitude": 23.19351,
    "longitude": 85.90227
  },
  {
    "name": "sugrai",
    "cc2": "28",
    "latitude": 23.15066,
    "longitude": 87.80763
  },
  {
    "name": "stalkuri",
    "cc2": "28",
    "latitude": 25.34209,
    "longitude": 88.16202
  },
  {
    "name": "sri niketan",
    "cc2": "28",
    "latitude": 23.67259,
    "longitude": 87.66084
  },
  {
    "name": "srikhanda",
    "cc2": "28",
    "latitude": 23.60219,
    "longitude": 88.07715
  },
  {
    "name": "rajpur sonarpur",
    "cc2": "28",
    "latitude": 22.4382,
    "longitude": 88.43205
  },
  {
    "name": "sonamukhi",
    "cc2": "28",
    "latitude": 23.30521,
    "longitude": 87.41336
  },
  {
    "name": "sonada",
    "cc2": "28",
    "latitude": 26.95748,
    "longitude": 88.26999
  },
  {
    "name": "sodpur",
    "cc2": "28",
    "latitude": 22.70428,
    "longitude": 88.39166
  },
  {
    "name": "siuri",
    "cc2": "28",
    "latitude": 23.90806,
    "longitude": 87.52773
  },
  {
    "name": "sitarampur",
    "cc2": "28",
    "latitude": 23.72085,
    "longitude": 86.88527
  },
  {
    "name": "sitalkuchi",
    "cc2": "28",
    "latitude": 26.16342,
    "longitude": 89.18381
  },
  {
    "name": "sirkabad",
    "cc2": "28",
    "latitude": 23.27519,
    "longitude": 86.19833
  },
  {
    "name": "singur",
    "cc2": "28",
    "latitude": 22.80917,
    "longitude": 88.22944
  },
  {
    "name": "sindri",
    "cc2": "28",
    "latitude": 23.40215,
    "longitude": 86.23022
  },
  {
    "name": "sindri",
    "cc2": "28",
    "latitude": 23.19274,
    "longitude": 86.01161
  },
  {
    "name": "sindri",
    "cc2": "28",
    "latitude": 23.04441,
    "longitude": 86.49805
  },
  {
    "name": "simlapal",
    "cc2": "28",
    "latitude": 22.91315,
    "longitude": 87.07183
  },
  {
    "name": "simana basti",
    "cc2": "28",
    "latitude": 26.98023,
    "longitude": 88.13526
  },
  {
    "name": "silli",
    "cc2": "28",
    "latitude": 23.35481,
    "longitude": 85.84082
  },
  {
    "name": "silda",
    "cc2": "28",
    "latitude": 22.61667,
    "longitude": 86.81667
  },
  {
    "name": "sija",
    "cc2": "28",
    "latitude": 23.88333,
    "longitude": 87.7
  },
  {
    "name": "sibpur",
    "cc2": "28",
    "latitude": 22.56667,
    "longitude": 88.31667
  },
  {
    "name": "shyamnagar",
    "cc2": "28",
    "latitude": 22.83333,
    "longitude": 88.36667
  },
  {
    "name": "shyamalpur",
    "cc2": "28",
    "latitude": 22.25,
    "longitude": 87.38333
  },
  {
    "name": "shrirampur",
    "cc2": "28",
    "latitude": 22.75278,
    "longitude": 88.34222
  },
  {
    "name": "shiur",
    "cc2": "28",
    "latitude": 23.78393,
    "longitude": 87.70582
  },
  {
    "name": "siliguri",
    "cc2": "28",
    "latitude": 26.71004,
    "longitude": 88.42851
  },
  {
    "name": "shikarpur",
    "cc2": "28",
    "latitude": 23.98082,
    "longitude": 88.71973
  },
  {
    "name": "shibpur",
    "cc2": "28",
    "latitude": 23.72833,
    "longitude": 87.05882
  },
  {
    "name": "sheakhala",
    "cc2": "28",
    "latitude": 22.76756,
    "longitude": 88.17858
  },
  {
    "name": "shaugaon",
    "cc2": "28",
    "latitude": 26.82328,
    "longitude": 88.6008
  },
  {
    "name": "shantipur",
    "cc2": "28",
    "latitude": 23.24723,
    "longitude": 88.43302
  },
  {
    "name": "shanti niketan",
    "cc2": "28",
    "latitude": 23.68228,
    "longitude": 87.68637
  },
  {
    "name": "seoraphuli",
    "cc2": "28",
    "latitude": 22.77447,
    "longitude": 88.32307
  },
  {
    "name": "sehara",
    "cc2": "28",
    "latitude": 23.10119,
    "longitude": 87.80571
  },
  {
    "name": "satgachia",
    "cc2": "28",
    "latitude": 23.27186,
    "longitude": 88.12691
  },
  {
    "name": "sarenga",
    "cc2": "28",
    "latitude": 22.76193,
    "longitude": 87.02124
  },
  {
    "name": "saora",
    "cc2": "28",
    "latitude": 23.96418,
    "longitude": 87.66667
  },
  {
    "name": "saora",
    "cc2": "28",
    "latitude": 22.46667,
    "longitude": 87.28333
  },
  {
    "name": "santuri",
    "cc2": "28",
    "latitude": 23.5272,
    "longitude": 86.85709
  },
  {
    "name": "santragachi",
    "cc2": "28",
    "latitude": 22.58333,
    "longitude": 88.3
  },
  {
    "name": "santoshpur",
    "cc2": "28",
    "latitude": 22.52038,
    "longitude": 88.26973
  },
  {
    "name": "santipur",
    "cc2": "28",
    "latitude": 23.25,
    "longitude": 88.43333
  },
  {
    "name": "sankrail",
    "cc2": "28",
    "latitude": 22.54997,
    "longitude": 88.22515
  },
  {
    "name": "sankrail",
    "cc2": "28",
    "latitude": 22.56694,
    "longitude": 88.23972
  },
  {
    "name": "sandeshkhali",
    "cc2": "28",
    "latitude": 22.35682,
    "longitude": 88.88408
  },
  {
    "name": "samthar",
    "cc2": "28",
    "latitude": 26.98809,
    "longitude": 88.51972
  },
  {
    "name": "samjhia",
    "cc2": "28",
    "latitude": 25.51784,
    "longitude": 88.76201
  },
  {
    "name": "samardanga",
    "cc2": "28",
    "latitude": 26.87399,
    "longitude": 88.47184
  },
  {
    "name": "samalpur",
    "cc2": "28",
    "latitude": 25.20344,
    "longitude": 88.05176
  },
  {
    "name": "samailya",
    "cc2": "28",
    "latitude": 23.76667,
    "longitude": 87.33333
  },
  {
    "name": "saltora",
    "cc2": "28",
    "latitude": 23.52274,
    "longitude": 86.936
  },
  {
    "name": "salt lake city",
    "cc2": "28",
    "latitude": 22.58333,
    "longitude": 88.41667
  },
  {
    "name": "salkhia",
    "cc2": "28",
    "latitude": 22.58333,
    "longitude": 88.35
  },
  {
    "name": "salbani",
    "cc2": "28",
    "latitude": 23.06514,
    "longitude": 86.26949
  },
  {
    "name": "salbani",
    "cc2": "28",
    "latitude": 22.64024,
    "longitude": 87.32455
  },
  {
    "name": "salar",
    "cc2": "28",
    "latitude": 23.77082,
    "longitude": 88.10213
  },
  {
    "name": "salanpur",
    "cc2": "28",
    "latitude": 23.76702,
    "longitude": 86.87492
  },
  {
    "name": "saktipur",
    "cc2": "28",
    "latitude": 23.85842,
    "longitude": 88.19584
  },
  {
    "name": "saktigarh",
    "cc2": "28",
    "latitude": 23.20898,
    "longitude": 87.97337
  },
  {
    "name": "sainthia",
    "cc2": "28",
    "latitude": 23.94826,
    "longitude": 87.68045
  },
  {
    "name": "sahaganj",
    "cc2": "28",
    "latitude": 22.9275,
    "longitude": 88.39444
  },
  {
    "name": "sagardighi",
    "cc2": "28",
    "latitude": 24.29406,
    "longitude": 88.09544
  },
  {
    "name": "sabang",
    "cc2": "28",
    "latitude": 22.17768,
    "longitude": 87.59879
  },
  {
    "name": "rupnarayanpur",
    "cc2": "28",
    "latitude": 23.81489,
    "longitude": 86.88646
  },
  {
    "name": "rohini",
    "cc2": "28",
    "latitude": 22.16404,
    "longitude": 87.09006
  },
  {
    "name": "rishra",
    "cc2": "28",
    "latitude": 22.72394,
    "longitude": 88.34563
  },
  {
    "name": "rayna",
    "cc2": "28",
    "latitude": 23.07302,
    "longitude": 87.8982
  },
  {
    "name": "ratua",
    "cc2": "28",
    "latitude": 25.20384,
    "longitude": 87.92676
  },
  {
    "name": "ratanpur",
    "cc2": "28",
    "latitude": 23.10635,
    "longitude": 87.06991
  },
  {
    "name": "rasuan",
    "cc2": "28",
    "latitude": 23.78711,
    "longitude": 87.20702
  },
  {
    "name": "raniganj",
    "cc2": "28",
    "latitude": 23.6164,
    "longitude": 87.13061
  },
  {
    "name": "ranichera",
    "cc2": "28",
    "latitude": 26.91585,
    "longitude": 88.64714
  },
  {
    "name": "ranibandh",
    "cc2": "28",
    "latitude": 22.86453,
    "longitude": 86.78357
  },
  {
    "name": "rangamati",
    "cc2": "28",
    "latitude": 26.80759,
    "longitude": 89.45724
  },
  {
    "name": "ranaghat",
    "cc2": "28",
    "latitude": 23.17623,
    "longitude": 88.56667
  },
  {
    "name": "ramthenga",
    "cc2": "28",
    "latitude": 26.47305,
    "longitude": 89.2161
  },
  {
    "name": "rampur hat",
    "cc2": "28",
    "latitude": 24.17737,
    "longitude": 87.78275
  },
  {
    "name": "rampur",
    "cc2": "28",
    "latitude": 23.48441,
    "longitude": 86.56714
  },
  {
    "name": "ramnagar",
    "cc2": "28",
    "latitude": 21.67483,
    "longitude": 87.56395
  },
  {
    "name": "ramjibanpur",
    "cc2": "28",
    "latitude": 22.82815,
    "longitude": 87.60888
  },
  {
    "name": "ramgarh",
    "cc2": "28",
    "latitude": 22.69295,
    "longitude": 87.05872
  },
  {
    "name": "ramganj",
    "cc2": "28",
    "latitude": 26.31795,
    "longitude": 88.28997
  },
  {
    "name": "rajnagar",
    "cc2": "28",
    "latitude": 23.94565,
    "longitude": 87.31517
  },
  {
    "name": "rajgan",
    "cc2": "28",
    "latitude": 24.53266,
    "longitude": 87.8574
  },
  {
    "name": "rajbari",
    "cc2": "28",
    "latitude": 22.40729,
    "longitude": 88.79476
  },
  {
    "name": "rajabhat khawa",
    "cc2": "28",
    "latitude": 26.61164,
    "longitude": 89.53008
  },
  {
    "name": "raipur",
    "cc2": "28",
    "latitude": 22.79866,
    "longitude": 86.95145
  },
  {
    "name": "rainagar",
    "cc2": "28",
    "latitude": 23.0664,
    "longitude": 87.90372
  },
  {
    "name": "raiganj",
    "cc2": "28",
    "latitude": 25.61281,
    "longitude": 88.12449
  },
  {
    "name": "raghunathpur",
    "cc2": "28",
    "latitude": 23.53878,
    "longitude": 86.6735
  },
  {
    "name": "raghunathbari",
    "cc2": "28",
    "latitude": 22.3623,
    "longitude": 87.78106
  },
  {
    "name": "radhanagar",
    "cc2": "28",
    "latitude": 23.15462,
    "longitude": 87.32344
  },
  {
    "name": "puruliya",
    "cc2": "28",
    "latitude": 23.33062,
    "longitude": 86.36303
  },
  {
    "name": "purandarpur",
    "cc2": "28",
    "latitude": 23.85534,
    "longitude": 87.5827
  },
  {
    "name": "puncha",
    "cc2": "28",
    "latitude": 23.15921,
    "longitude": 86.6484
  },
  {
    "name": "pratapnagar",
    "cc2": "28",
    "latitude": 22.4424,
    "longitude": 88.5162
  },
  {
    "name": "polba",
    "cc2": "28",
    "latitude": 22.96181,
    "longitude": 88.30244
  },
  {
    "name": "pochipara",
    "cc2": "28",
    "latitude": 23.88333,
    "longitude": 87.91667
  },
  {
    "name": "pirakata",
    "cc2": "28",
    "latitude": 22.56491,
    "longitude": 87.17945
  },
  {
    "name": "piplun",
    "cc2": "28",
    "latitude": 23.35537,
    "longitude": 88.14325
  },
  {
    "name": "phulkusma",
    "cc2": "28",
    "latitude": 22.70987,
    "longitude": 86.86558
  },
  {
    "name": "phulbari",
    "cc2": "28",
    "latitude": 24.30202,
    "longitude": 88.01738
  },
  {
    "name": "phansidewa hat",
    "cc2": "28",
    "latitude": 26.58644,
    "longitude": 88.36804
  },
  {
    "name": "phagu",
    "cc2": "28",
    "latitude": 26.95,
    "longitude": 88.7
  },
  {
    "name": "pedong",
    "cc2": "28",
    "latitude": 27.15393,
    "longitude": 88.61448
  },
  {
    "name": "pauram",
    "cc2": "28",
    "latitude": 25.33333,
    "longitude": 88.75
  },
  {
    "name": "patuli",
    "cc2": "28",
    "latitude": 23.55286,
    "longitude": 88.26473
  },
  {
    "name": "patrasaer",
    "cc2": "28",
    "latitude": 23.19697,
    "longitude": 87.53319
  },
  {
    "name": "patkapara",
    "cc2": "28",
    "latitude": 26.56837,
    "longitude": 89.42955
  },
  {
    "name": "patiram",
    "cc2": "28",
    "latitude": 25.33001,
    "longitude": 88.7666
  },
  {
    "name": "patiraj",
    "cc2": "28",
    "latitude": 25.47212,
    "longitude": 88.25396
  },
  {
    "name": "patipukur",
    "cc2": "28",
    "latitude": 22.6,
    "longitude": 88.4
  },
  {
    "name": "paten",
    "cc2": "28",
    "latitude": 27.06296,
    "longitude": 88.87157
  },
  {
    "name": "parokata",
    "cc2": "28",
    "latitude": 26.45,
    "longitude": 89.71667
  },
  {
    "name": "parihati",
    "cc2": "28",
    "latitude": 22.51978,
    "longitude": 86.84851
  },
  {
    "name": "para",
    "cc2": "28",
    "latitude": 23.51055,
    "longitude": 86.50638
  },
  {
    "name": "panuria",
    "cc2": "28",
    "latitude": 23.81683,
    "longitude": 86.97921
  },
  {
    "name": "panskura",
    "cc2": "28",
    "latitude": 22.40418,
    "longitude": 87.71746
  },
  {
    "name": "pankhabari",
    "cc2": "28",
    "latitude": 26.83038,
    "longitude": 88.26252
  },
  {
    "name": "panjipara",
    "cc2": "28",
    "latitude": 26.13706,
    "longitude": 88.02098
  },
  {
    "name": "panihati",
    "cc2": "28",
    "latitude": 22.69089,
    "longitude": 88.37404
  },
  {
    "name": "panchgram",
    "cc2": "28",
    "latitude": 24.20231,
    "longitude": 88.00814
  },
  {
    "name": "panduk",
    "cc2": "28",
    "latitude": 23.57724,
    "longitude": 87.6442
  },
  {
    "name": "pandua",
    "cc2": "28",
    "latitude": 23.07492,
    "longitude": 88.28637
  },
  {
    "name": "pandaveswar",
    "cc2": "28",
    "latitude": 23.72793,
    "longitude": 87.27089
  },
  {
    "name": "pandapata",
    "cc2": "28",
    "latitude": 22.1483,
    "longitude": 86.94245
  },
  {
    "name": "panchmura",
    "cc2": "28",
    "latitude": 22.96546,
    "longitude": 87.16135
  },
  {
    "name": "panchanandapur",
    "cc2": "28",
    "latitude": 24.85296,
    "longitude": 87.97547
  },
  {
    "name": "panchanai",
    "cc2": "28",
    "latitude": 26.73482,
    "longitude": 88.40369
  },
  {
    "name": "panchal",
    "cc2": "28",
    "latitude": 23.22789,
    "longitude": 87.28808
  },
  {
    "name": "panagarh",
    "cc2": "28",
    "latitude": 23.45606,
    "longitude": 87.44718
  },
  {
    "name": "palta",
    "cc2": "28",
    "latitude": 22.78367,
    "longitude": 88.36341
  },
  {
    "name": "palsa",
    "cc2": "28",
    "latitude": 24.48067,
    "longitude": 87.86697
  },
  {
    "name": "palashi",
    "cc2": "28",
    "latitude": 23.78006,
    "longitude": 88.24703
  },
  {
    "name": "palashdanga",
    "cc2": "28",
    "latitude": 23.40638,
    "longitude": 87.38956
  },
  {
    "name": "palasgachi",
    "cc2": "28",
    "latitude": 24.98333,
    "longitude": 87.9
  },
  {
    "name": "onda",
    "cc2": "28",
    "latitude": 23.13874,
    "longitude": 87.20265
  },
  {
    "name": "odlabari",
    "cc2": "28",
    "latitude": 26.83644,
    "longitude": 88.62943
  },
  {
    "name": "nurpur",
    "cc2": "28",
    "latitude": 22.21659,
    "longitude": 88.08142
  },
  {
    "name": "nituria",
    "cc2": "28",
    "latitude": 23.63333,
    "longitude": 86.81667
  },
  {
    "name": "nimtita",
    "cc2": "28",
    "latitude": 24.65,
    "longitude": 88.03333
  },
  {
    "name": "nikursini",
    "cc2": "28",
    "latitude": 22.00427,
    "longitude": 87.30169
  },
  {
    "name": "nij narajol",
    "cc2": "28",
    "latitude": 22.56667,
    "longitude": 87.61667
  },
  {
    "name": "nijgaon paranpur",
    "cc2": "28",
    "latitude": 25.15,
    "longitude": 87.96667
  },
  {
    "name": "nigan",
    "cc2": "28",
    "latitude": 23.50992,
    "longitude": 87.9878
  },
  {
    "name": "neora nadi",
    "cc2": "28",
    "latitude": 26.72497,
    "longitude": 88.74356
  },
  {
    "name": "nayagram",
    "cc2": "28",
    "latitude": 22.03295,
    "longitude": 87.17221
  },
  {
    "name": "navadwip",
    "cc2": "28",
    "latitude": 23.4067,
    "longitude": 88.36861
  },
  {
    "name": "natabari hat",
    "cc2": "28",
    "latitude": 26.38919,
    "longitude": 89.59167
  },
  {
    "name": "narikeldanga",
    "cc2": "28",
    "latitude": 22.56667,
    "longitude": 88.38333
  },
  {
    "name": "narayanpur",
    "cc2": "28",
    "latitude": 24.23984,
    "longitude": 87.69031
  },
  {
    "name": "narangi",
    "cc2": "28",
    "latitude": 23.08333,
    "longitude": 87.51667
  },
  {
    "name": "nanur",
    "cc2": "28",
    "latitude": 23.70311,
    "longitude": 87.86572
  },
  {
    "name": "nandigram",
    "cc2": "28",
    "latitude": 22.00176,
    "longitude": 87.95944
  },
  {
    "name": "namkhana",
    "cc2": "28",
    "latitude": 21.75668,
    "longitude": 88.22223
  },
  {
    "name": "nalhati",
    "cc2": "28",
    "latitude": 24.29704,
    "longitude": 87.82899
  },
  {
    "name": "nalgora",
    "cc2": "28",
    "latitude": 22.02666,
    "longitude": 88.46515
  },
  {
    "name": "naksalbari",
    "cc2": "28",
    "latitude": 26.6827,
    "longitude": 88.22001
  },
  {
    "name": "nakasipara",
    "cc2": "28",
    "latitude": 23.58954,
    "longitude": 88.34737
  },
  {
    "name": "naihati",
    "cc2": "28",
    "latitude": 22.89396,
    "longitude": 88.41521
  },
  {
    "name": "nagtala",
    "cc2": "28",
    "latitude": 22.46667,
    "longitude": 88.38333
  },
  {
    "name": "nagrakata",
    "cc2": "28",
    "latitude": 26.88029,
    "longitude": 88.90126
  },
  {
    "name": "nagarbazar",
    "cc2": "28",
    "latitude": 22.61667,
    "longitude": 88.41667
  },
  {
    "name": "nachinda",
    "cc2": "28",
    "latitude": 21.87741,
    "longitude": 87.73368
  },
  {
    "name": "murshidabad",
    "cc2": "28",
    "latitude": 24.1839,
    "longitude": 88.27171
  },
  {
    "name": "muri",
    "cc2": "28",
    "latitude": 23.37074,
    "longitude": 85.86236
  },
  {
    "name": "murarai",
    "cc2": "28",
    "latitude": 24.44,
    "longitude": 87.861
  },
  {
    "name": "muragacha",
    "cc2": "28",
    "latitude": 23.53631,
    "longitude": 88.39425
  },
  {
    "name": "mullahjor",
    "cc2": "28",
    "latitude": 22.83333,
    "longitude": 88.38333
  },
  {
    "name": "muhammad bazar",
    "cc2": "28",
    "latitude": 23.98966,
    "longitude": 87.57042
  },
  {
    "name": "mohanpur",
    "cc2": "28",
    "latitude": 21.83888,
    "longitude": 87.42565
  },
  {
    "name": "mirzapur",
    "cc2": "28",
    "latitude": 24.40574,
    "longitude": 88.06512
  },
  {
    "name": "mirik",
    "cc2": "28",
    "latitude": 26.88817,
    "longitude": 88.19007
  },
  {
    "name": "metia bruz",
    "cc2": "28",
    "latitude": 22.55,
    "longitude": 88.3
  },
  {
    "name": "memari",
    "cc2": "28",
    "latitude": 23.17647,
    "longitude": 88.09749
  },
  {
    "name": "mejia",
    "cc2": "28",
    "latitude": 23.56728,
    "longitude": 87.10803
  },
  {
    "name": "mejedihi",
    "cc2": "28",
    "latitude": 23.55,
    "longitude": 87.25
  },
  {
    "name": "medinipur",
    "cc2": "28",
    "latitude": 22.42114,
    "longitude": 87.32257
  },
  {
    "name": "mayureswar",
    "cc2": "28",
    "latitude": 23.98699,
    "longitude": 87.76384
  },
  {
    "name": "mayna",
    "cc2": "28",
    "latitude": 22.23701,
    "longitude": 87.78291
  },
  {
    "name": "mayapur",
    "cc2": "28",
    "latitude": 22.41667,
    "longitude": 88.11667
  },
  {
    "name": "matigara",
    "cc2": "28",
    "latitude": 26.72298,
    "longitude": 88.38063
  },
  {
    "name": "matiali",
    "cc2": "28",
    "latitude": 26.92982,
    "longitude": 88.82454
  },
  {
    "name": "mathurapur",
    "cc2": "28",
    "latitude": 25.55,
    "longitude": 88.03333
  },
  {
    "name": "mathurapur",
    "cc2": "28",
    "latitude": 22.11508,
    "longitude": 88.3925
  },
  {
    "name": "matabhanga",
    "cc2": "28",
    "latitude": 26.34197,
    "longitude": 89.21555
  },
  {
    "name": "masaldaha bazar",
    "cc2": "28",
    "latitude": 25.33196,
    "longitude": 87.92607
  },
  {
    "name": "manteswar",
    "cc2": "28",
    "latitude": 23.42412,
    "longitude": 88.10764
  },
  {
    "name": "manoharpur",
    "cc2": "28",
    "latitude": 21.99287,
    "longitude": 87.31328
  },
  {
    "name": "mankur",
    "cc2": "28",
    "latitude": 23.42579,
    "longitude": 87.557
  },
  {
    "name": "manikpara",
    "cc2": "28",
    "latitude": 22.36581,
    "longitude": 87.12247
  },
  {
    "name": "bara mangwa",
    "cc2": "28",
    "latitude": 27.06604,
    "longitude": 88.41828
  },
  {
    "name": "mangpu",
    "cc2": "28",
    "latitude": 26.97023,
    "longitude": 88.38101
  },
  {
    "name": "mangalkot",
    "cc2": "28",
    "latitude": 23.5275,
    "longitude": 87.899
  },
  {
    "name": "mangalduari",
    "cc2": "28",
    "latitude": 22.4,
    "longitude": 87.7
  },
  {
    "name": "mandra",
    "cc2": "28",
    "latitude": 22.83333,
    "longitude": 88.08333
  },
  {
    "name": "manbazar",
    "cc2": "28",
    "latitude": 23.0591,
    "longitude": 86.66269
  },
  {
    "name": "maliara",
    "cc2": "28",
    "latitude": 23.47555,
    "longitude": 87.22482
  },
  {
    "name": "malandighi",
    "cc2": "28",
    "latitude": 23.56478,
    "longitude": 87.406
  },
  {
    "name": "makhdumnagar",
    "cc2": "28",
    "latitude": 24.02784,
    "longitude": 87.62742
  },
  {
    "name": "majiyara",
    "cc2": "28",
    "latitude": 23.72056,
    "longitude": 87.00367
  },
  {
    "name": "mainaguri",
    "cc2": "28",
    "latitude": 26.56263,
    "longitude": 88.8204
  },
  {
    "name": "mahishkuchi",
    "cc2": "28",
    "latitude": 26.39515,
    "longitude": 89.73572
  },
  {
    "name": "mahishagot",
    "cc2": "28",
    "latitude": 22.16667,
    "longitude": 87.06667
  },
  {
    "name": "mahishadal",
    "cc2": "28",
    "latitude": 22.18616,
    "longitude": 87.98072
  },
  {
    "name": "mahesh",
    "cc2": "28",
    "latitude": 22.73333,
    "longitude": 88.35
  },
  {
    "name": "maharajpur",
    "cc2": "28",
    "latitude": 24.81667,
    "longitude": 87.8
  },
  {
    "name": "mahalandi",
    "cc2": "28",
    "latitude": 24.07538,
    "longitude": 88.12534
  },
  {
    "name": "mahakalguri",
    "cc2": "28",
    "latitude": 26.54015,
    "longitude": 89.68414
  },
  {
    "name": "mahadipur",
    "cc2": "28",
    "latitude": 24.84681,
    "longitude": 88.12525
  },
  {
    "name": "magra hat",
    "cc2": "28",
    "latitude": 22.23843,
    "longitude": 88.36879
  },
  {
    "name": "magra",
    "cc2": "28",
    "latitude": 22.98809,
    "longitude": 88.37308
  },
  {
    "name": "magra",
    "cc2": "28",
    "latitude": 22.85727,
    "longitude": 87.98454
  },
  {
    "name": "madhyamgram",
    "cc2": "28",
    "latitude": 22.68944,
    "longitude": 88.44594
  },
  {
    "name": "madari hat",
    "cc2": "28",
    "latitude": 26.69523,
    "longitude": 89.28145
  },
  {
    "name": "madanpur",
    "cc2": "28",
    "latitude": 23.00589,
    "longitude": 88.49168
  },
  {
    "name": "lowada",
    "cc2": "28",
    "latitude": 22.44874,
    "longitude": 87.61588
  },
  {
    "name": "lodhasuli",
    "cc2": "28",
    "latitude": 22.33628,
    "longitude": 87.04924
  },
  {
    "name": "liluah",
    "cc2": "28",
    "latitude": 22.61951,
    "longitude": 88.33104
  },
  {
    "name": "lebong canttonment",
    "cc2": "28",
    "latitude": 27.06232,
    "longitude": 88.28293
  },
  {
    "name": "lashkarhat",
    "cc2": "28",
    "latitude": 25.21667,
    "longitude": 88.58333
  },
  {
    "name": "lankapara hat",
    "cc2": "28",
    "latitude": 26.79487,
    "longitude": 89.22983
  },
  {
    "name": "lalgola",
    "cc2": "28",
    "latitude": 24.42244,
    "longitude": 88.25238
  },
  {
    "name": "lalgarh",
    "cc2": "28",
    "latitude": 22.58732,
    "longitude": 87.04968
  },
  {
    "name": "lalbagh",
    "cc2": "28",
    "latitude": 24.16619,
    "longitude": 88.24936
  },
  {
    "name": "lakshmisagar",
    "cc2": "28",
    "latitude": 22.92744,
    "longitude": 87.01375
  },
  {
    "name": "lakshmikantapur",
    "cc2": "28",
    "latitude": 22.10461,
    "longitude": 88.30258
  },
  {
    "name": "lakhyabad",
    "cc2": "28",
    "latitude": 23.66667,
    "longitude": 86.66667
  },
  {
    "name": "lakhipur",
    "cc2": "28",
    "latitude": 26.32866,
    "longitude": 88.37726
  },
  {
    "name": "ladhurka",
    "cc2": "28",
    "latitude": 23.35456,
    "longitude": 86.53415
  },
  {
    "name": "lachan",
    "cc2": "28",
    "latitude": 25.7478,
    "longitude": 88.30379
  },
  {
    "name": "labpur",
    "cc2": "28",
    "latitude": 23.81699,
    "longitude": 87.80427
  },
  {
    "name": "kusba korodho",
    "cc2": "28",
    "latitude": 25.29588,
    "longitude": 88.48776
  },
  {
    "name": "kusbah",
    "cc2": "28",
    "latitude": 25.30145,
    "longitude": 88.57238
  },
  {
    "name": "kumardubhi",
    "cc2": "28",
    "latitude": 23.74201,
    "longitude": 86.77882
  },
  {
    "name": "kumai",
    "cc2": "28",
    "latitude": 27.00461,
    "longitude": 88.82278
  },
  {
    "name": "kulti",
    "cc2": "28",
    "latitude": 23.73166,
    "longitude": 86.84372
  },
  {
    "name": "kulpi",
    "cc2": "28",
    "latitude": 22.07903,
    "longitude": 88.23741
  },
  {
    "name": "krishnapur",
    "cc2": "28",
    "latitude": 24.41247,
    "longitude": 88.25918
  },
  {
    "name": "krishnanagar",
    "cc2": "28",
    "latitude": 23.40576,
    "longitude": 88.49073
  },
  {
    "name": "kotulpur",
    "cc2": "28",
    "latitude": 23.0119,
    "longitude": 87.59382
  },
  {
    "name": "konri",
    "cc2": "28",
    "latitude": 23.92547,
    "longitude": 87.61048
  },
  {
    "name": "konnagar",
    "cc2": "28",
    "latitude": 22.70508,
    "longitude": 88.34446
  },
  {
    "name": "kola",
    "cc2": "28",
    "latitude": 22.44998,
    "longitude": 87.87099
  },
  {
    "name": "koch bihar",
    "cc2": "28",
    "latitude": 26.32539,
    "longitude": 89.44508
  },
  {
    "name": "kisoripur",
    "cc2": "28",
    "latitude": 22.08333,
    "longitude": 88.56667
  },
  {
    "name": "kirnahar",
    "cc2": "28",
    "latitude": 23.75802,
    "longitude": 87.87404
  },
  {
    "name": "kidderpore",
    "cc2": "28",
    "latitude": 22.53333,
    "longitude": 88.31667
  },
  {
    "name": "khirpai",
    "cc2": "28",
    "latitude": 22.70996,
    "longitude": 87.61768
  },
  {
    "name": "khedra",
    "cc2": "28",
    "latitude": 25.30348,
    "longitude": 88.17433
  },
  {
    "name": "khatra",
    "cc2": "28",
    "latitude": 22.97617,
    "longitude": 86.85462
  },
  {
    "name": "kharibari hat",
    "cc2": "28",
    "latitude": 26.55628,
    "longitude": 88.19149
  },
  {
    "name": "khargram",
    "cc2": "28",
    "latitude": 24.02734,
    "longitude": 87.9897
  },
  {
    "name": "khardah",
    "cc2": "28",
    "latitude": 22.71861,
    "longitude": 88.37806
  },
  {
    "name": "kharba",
    "cc2": "28",
    "latitude": 25.42596,
    "longitude": 88.06888
  },
  {
    "name": "kharar",
    "cc2": "28",
    "latitude": 22.72211,
    "longitude": 87.67824
  },
  {
    "name": "kharai kotbar",
    "cc2": "28",
    "latitude": 21.96826,
    "longitude": 87.50582
  },
  {
    "name": "kharagpur",
    "cc2": "28",
    "latitude": 22.33971,
    "longitude": 87.32501
  },
  {
    "name": "khaprail",
    "cc2": "28",
    "latitude": 26.77233,
    "longitude": 88.31564
  },
  {
    "name": "khanta",
    "cc2": "28",
    "latitude": 25.84961,
    "longitude": 88.04571
  },
  {
    "name": "khandaghosh",
    "cc2": "28",
    "latitude": 23.20807,
    "longitude": 87.69406
  },
  {
    "name": "khanakul",
    "cc2": "28",
    "latitude": 22.70891,
    "longitude": 87.85016
  },
  {
    "name": "khana",
    "cc2": "28",
    "latitude": 23.32891,
    "longitude": 87.73336
  },
  {
    "name": "khajuri",
    "cc2": "28",
    "latitude": 21.86897,
    "longitude": 87.96563
  },
  {
    "name": "khairani",
    "cc2": "28",
    "latitude": 26.7915,
    "longitude": 88.40093
  },
  {
    "name": "ketugram",
    "cc2": "28",
    "latitude": 23.70115,
    "longitude": 88.04532
  },
  {
    "name": "kenda",
    "cc2": "28",
    "latitude": 23.1959,
    "longitude": 86.51499
  },
  {
    "name": "katoya",
    "cc2": "28",
    "latitude": 23.64558,
    "longitude": 88.13258
  },
  {
    "name": "kasiari",
    "cc2": "28",
    "latitude": 22.12014,
    "longitude": 87.23395
  },
  {
    "name": "kashipur",
    "cc2": "28",
    "latitude": 23.43444,
    "longitude": 86.66723
  },
  {
    "name": "kasba pataspur",
    "cc2": "28",
    "latitude": 22.01835,
    "longitude": 87.53978
  },
  {
    "name": "kasba narayangarh",
    "cc2": "28",
    "latitude": 22.15592,
    "longitude": 87.38818
  },
  {
    "name": "kasba mirgoda",
    "cc2": "28",
    "latitude": 21.72125,
    "longitude": 87.48333
  },
  {
    "name": "kartika",
    "cc2": "28",
    "latitude": 26.64304,
    "longitude": 89.71727
  },
  {
    "name": "kurseong",
    "cc2": "28",
    "latitude": 26.88251,
    "longitude": 88.27729
  },
  {
    "name": "karimpur",
    "cc2": "28",
    "latitude": 23.97594,
    "longitude": 88.61917
  },
  {
    "name": "karanjali",
    "cc2": "28",
    "latitude": 22.03197,
    "longitude": 88.24929
  },
  {
    "name": "karandighi",
    "cc2": "28",
    "latitude": 25.80878,
    "longitude": 87.93205
  },
  {
    "name": "kankinara",
    "cc2": "28",
    "latitude": 22.86278,
    "longitude": 88.39806
  },
  {
    "name": "kanki",
    "cc2": "28",
    "latitude": 26.01834,
    "longitude": 87.87046
  },
  {
    "name": "kandi",
    "cc2": "28",
    "latitude": 23.95946,
    "longitude": 88.04018
  },
  {
    "name": "kamdebpur",
    "cc2": "28",
    "latitude": 25.43016,
    "longitude": 88.73088
  },
  {
    "name": "kamarhati",
    "cc2": "28",
    "latitude": 22.67111,
    "longitude": 88.37472
  },
  {
    "name": "kalyani",
    "cc2": "28",
    "latitude": 22.9757,
    "longitude": 88.4337
  },
  {
    "name": "kalna",
    "cc2": "28",
    "latitude": 23.21944,
    "longitude": 88.36295
  },
  {
    "name": "kaliyaganj",
    "cc2": "28",
    "latitude": 25.63442,
    "longitude": 88.32665
  },
  {
    "name": "kalipahari",
    "cc2": "28",
    "latitude": 23.43017,
    "longitude": 86.87717
  },
  {
    "name": "kalimpong",
    "cc2": "28",
    "latitude": 27.07059,
    "longitude": 88.47529
  },
  {
    "name": "kaliganj",
    "cc2": "28",
    "latitude": 23.72695,
    "longitude": 88.2314
  },
  {
    "name": "kaliachak",
    "cc2": "28",
    "latitude": 24.86371,
    "longitude": 88.02207
  },
  {
    "name": "kalchini",
    "cc2": "28",
    "latitude": 26.68895,
    "longitude": 89.44831
  },
  {
    "name": "kalaikunda",
    "cc2": "28",
    "latitude": 22.3393,
    "longitude": 87.22637
  },
  {
    "name": "kalagechhia",
    "cc2": "28",
    "latitude": 21.94562,
    "longitude": 87.9001
  },
  {
    "name": "kaksa",
    "cc2": "28",
    "latitude": 23.45431,
    "longitude": 87.45798
  },
  {
    "name": "kakdwip",
    "cc2": "28",
    "latitude": 21.87914,
    "longitude": 88.1913
  },
  {
    "name": "kajlagarh",
    "cc2": "28",
    "latitude": 22.03665,
    "longitude": 87.79549
  },
  {
    "name": "kanchrapara",
    "cc2": "28",
    "latitude": 22.95998,
    "longitude": 88.42849
  },
  {
    "name": "joteswar hat",
    "cc2": "28",
    "latitude": 26.60468,
    "longitude": 89.14077
  },
  {
    "name": "jinjirpul",
    "cc2": "28",
    "latitude": 22.51667,
    "longitude": 88.3
  },
  {
    "name": "jibdharer khuti",
    "cc2": "28",
    "latitude": 26.36667,
    "longitude": 89.41667
  },
  {
    "name": "jiaganj",
    "cc2": "28",
    "latitude": 24.2387,
    "longitude": 88.26454
  },
  {
    "name": "jhilimili",
    "cc2": "28",
    "latitude": 22.81392,
    "longitude": 86.64575
  },
  {
    "name": "jhikra",
    "cc2": "28",
    "latitude": 22.6209,
    "longitude": 87.91392
  },
  {
    "name": "jhargram",
    "cc2": "28",
    "latitude": 22.45384,
    "longitude": 86.99497
  },
  {
    "name": "jhalida",
    "cc2": "28",
    "latitude": 23.36545,
    "longitude": 85.97643
  },
  {
    "name": "jaypur",
    "cc2": "28",
    "latitude": 23.05223,
    "longitude": 87.44346
  },
  {
    "name": "jaynagar majilpur",
    "cc2": "28",
    "latitude": 22.1752,
    "longitude": 88.42008
  },
  {
    "name": "jaykaynagar",
    "cc2": "28",
    "latitude": 23.68333,
    "longitude": 86.98333
  },
  {
    "name": "jaydeb kenduli",
    "cc2": "28",
    "latitude": 23.64666,
    "longitude": 87.42911
  },
  {
    "name": "jayanti",
    "cc2": "28",
    "latitude": 26.7024,
    "longitude": 89.61067
  },
  {
    "name": "jatar deul",
    "cc2": "28",
    "latitude": 21.98821,
    "longitude": 88.48913
  },
  {
    "name": "jangipur",
    "cc2": "28",
    "latitude": 24.47001,
    "longitude": 88.07659
  },
  {
    "name": "jangipara",
    "cc2": "28",
    "latitude": 22.73931,
    "longitude": 88.06891
  },
  {
    "name": "jamuria",
    "cc2": "28",
    "latitude": 23.70468,
    "longitude": 87.07872
  },
  {
    "name": "jamtoli",
    "cc2": "28",
    "latitude": 23.39828,
    "longitude": 85.85724
  },
  {
    "name": "jamalpur",
    "cc2": "28",
    "latitude": 23.06664,
    "longitude": 87.99181
  },
  {
    "name": "jalpaiguri",
    "cc2": "28",
    "latitude": 26.51667,
    "longitude": 88.73333
  },
  {
    "name": "jalapahar",
    "cc2": "28",
    "latitude": 27.02033,
    "longitude": 88.25558
  },
  {
    "name": "jakpur",
    "cc2": "28",
    "latitude": 22.3766,
    "longitude": 87.38198
  },
  {
    "name": "jaipur",
    "cc2": "28",
    "latitude": 23.4187,
    "longitude": 86.14578
  },
  {
    "name": "jaguli",
    "cc2": "28",
    "latitude": 22.93175,
    "longitude": 88.5394
  },
  {
    "name": "jagatdal",
    "cc2": "28",
    "latitude": 22.85,
    "longitude": 88.38333
  },
  {
    "name": "jagatballabhpur",
    "cc2": "28",
    "latitude": 22.68,
    "longitude": 88.11111
  },
  {
    "name": "jagannathpur",
    "cc2": "28",
    "latitude": 24.83448,
    "longitude": 87.90443
  },
  {
    "name": "jadavpur",
    "cc2": "28",
    "latitude": 22.48794,
    "longitude": 88.37873
  },
  {
    "name": "itinda",
    "cc2": "28",
    "latitude": 22.6773,
    "longitude": 88.91665
  },
  {
    "name": "islampur",
    "cc2": "28",
    "latitude": 26.26541,
    "longitude": 88.18982
  },
  {
    "name": "islampur",
    "cc2": "28",
    "latitude": 24.15467,
    "longitude": 88.46743
  },
  {
    "name": "malda",
    "cc2": "28",
    "latitude": 25.00447,
    "longitude": 88.14573
  },
  {
    "name": "indrani",
    "cc2": "28",
    "latitude": 24.1339,
    "longitude": 88.01713
  },
  {
    "name": "indpur",
    "cc2": "28",
    "latitude": 23.16667,
    "longitude": 86.93333
  },
  {
    "name": "indas",
    "cc2": "28",
    "latitude": 23.14499,
    "longitude": 87.62685
  },
  {
    "name": "ilam bazar",
    "cc2": "28",
    "latitude": 23.62603,
    "longitude": 87.5386
  },
  {
    "name": "ichapur",
    "cc2": "28",
    "latitude": 22.80499,
    "longitude": 88.37088
  },
  {
    "name": "hurshi",
    "cc2": "28",
    "latitude": 24.27366,
    "longitude": 88.4675
  },
  {
    "name": "hura",
    "cc2": "28",
    "latitude": 23.30337,
    "longitude": 86.65717
  },
  {
    "name": "humgarh",
    "cc2": "28",
    "latitude": 22.82884,
    "longitude": 87.24865
  },
  {
    "name": "hugli",
    "cc2": "28",
    "latitude": 22.90877,
    "longitude": 88.39674
  },
  {
    "name": "hirapur",
    "cc2": "28",
    "latitude": 23.65852,
    "longitude": 86.93547
  },
  {
    "name": "hingalganj",
    "cc2": "28",
    "latitude": 22.47051,
    "longitude": 88.98989
  },
  {
    "name": "heria atmaram chak",
    "cc2": "28",
    "latitude": 21.96601,
    "longitude": 87.80264
  },
  {
    "name": "hemtabad",
    "cc2": "28",
    "latitude": 25.67709,
    "longitude": 88.22277
  },
  {
    "name": "hatkanda",
    "cc2": "28",
    "latitude": 22.93333,
    "longitude": 88.51667
  },
  {
    "name": "hatigeria",
    "cc2": "28",
    "latitude": 22.16667,
    "longitude": 87.25
  },
  {
    "name": "hastings",
    "cc2": "28",
    "latitude": 22.55,
    "longitude": 88.33333
  },
  {
    "name": "hasnabad",
    "cc2": "28",
    "latitude": 22.57073,
    "longitude": 88.91693
  },
  {
    "name": "hasimara",
    "cc2": "28",
    "latitude": 26.7469,
    "longitude": 89.35385
  },
  {
    "name": "harua",
    "cc2": "28",
    "latitude": 22.60536,
    "longitude": 88.67992
  },
  {
    "name": "harishchandrapur",
    "cc2": "28",
    "latitude": 25.4179,
    "longitude": 87.88187
  },
  {
    "name": "haripur kismat",
    "cc2": "28",
    "latitude": 22.28333,
    "longitude": 87.36667
  },
  {
    "name": "haringhata",
    "cc2": "28",
    "latitude": 22.96474,
    "longitude": 88.57451
  },
  {
    "name": "hariharpara",
    "cc2": "28",
    "latitude": 24.02885,
    "longitude": 88.44967
  },
  {
    "name": "howrah",
    "cc2": "28",
    "latitude": 22.57688,
    "longitude": 88.31857
  },
  {
    "name": "hanuman tanenguria",
    "cc2": "28",
    "latitude": 22.21667,
    "longitude": 87.06667
  },
  {
    "name": "hansapathar",
    "cc2": "28",
    "latitude": 23.63125,
    "longitude": 86.66218
  },
  {
    "name": "halisahar",
    "cc2": "28",
    "latitude": 22.93218,
    "longitude": 88.41859
  },
  {
    "name": "haldibari",
    "cc2": "28",
    "latitude": 26.33887,
    "longitude": 88.7822
  },
  {
    "name": "hakala",
    "cc2": "28",
    "latitude": 22.4,
    "longitude": 87.86667
  },
  {
    "name": "hajipur",
    "cc2": "28",
    "latitude": 22.82764,
    "longitude": 87.63611
  },
  {
    "name": "habra",
    "cc2": "28",
    "latitude": 22.84202,
    "longitude": 88.65606
  },
  {
    "name": "guskhara",
    "cc2": "28",
    "latitude": 23.49276,
    "longitude": 87.73484
  },
  {
    "name": "gura",
    "cc2": "28",
    "latitude": 24.18944,
    "longitude": 88.07489
  },
  {
    "name": "goyerkata",
    "cc2": "28",
    "latitude": 26.69984,
    "longitude": 89.02565
  },
  {
    "name": "gosanimari bandar",
    "cc2": "28",
    "latitude": 26.14321,
    "longitude": 89.35909
  },
  {
    "name": "gosaba",
    "cc2": "28",
    "latitude": 22.16547,
    "longitude": 88.8007
  },
  {
    "name": "gorubathan",
    "cc2": "28",
    "latitude": 26.95529,
    "longitude": 88.72867
  },
  {
    "name": "gopiballabhpur",
    "cc2": "28",
    "latitude": 22.20892,
    "longitude": 86.89861
  },
  {
    "name": "gopalpur",
    "cc2": "28",
    "latitude": 21.84875,
    "longitude": 87.7255
  },
  {
    "name": "gokarna",
    "cc2": "28",
    "latitude": 24.04234,
    "longitude": 88.11468
  },
  {
    "name": "godapiasal",
    "cc2": "28",
    "latitude": 22.53641,
    "longitude": 87.32783
  },
  {
    "name": "gobindapur",
    "cc2": "28",
    "latitude": 23.25819,
    "longitude": 87.97999
  },
  {
    "name": "gobardanga",
    "cc2": "28",
    "latitude": 22.8774,
    "longitude": 88.75479
  },
  {
    "name": "goaltor",
    "cc2": "28",
    "latitude": 22.70943,
    "longitude": 87.16964
  },
  {
    "name": "goalpokhar",
    "cc2": "28",
    "latitude": 26.08457,
    "longitude": 88.12393
  },
  {
    "name": "goabaria",
    "cc2": "28",
    "latitude": 22.62183,
    "longitude": 88.7067
  },
  {
    "name": "giria",
    "cc2": "28",
    "latitude": 24.51834,
    "longitude": 88.07687
  },
  {
    "name": "gidhni",
    "cc2": "28",
    "latitude": 22.48449,
    "longitude": 86.85498
  },
  {
    "name": "ghusuri",
    "cc2": "28",
    "latitude": 22.61667,
    "longitude": 88.35
  },
  {
    "name": "ghum",
    "cc2": "28",
    "latitude": 27.00691,
    "longitude": 88.25768
  },
  {
    "name": "ghatal",
    "cc2": "28",
    "latitude": 22.66244,
    "longitude": 87.73399
  },
  {
    "name": "geonkhali",
    "cc2": "28",
    "latitude": 22.20139,
    "longitude": 88.04942
  },
  {
    "name": "gauripur",
    "cc2": "28",
    "latitude": 22.65,
    "longitude": 88.45
  },
  {
    "name": "gaurhati",
    "cc2": "28",
    "latitude": 22.8,
    "longitude": 88.35
  },
  {
    "name": "gaurhati",
    "cc2": "28",
    "latitude": 22.77574,
    "longitude": 87.80606
  },
  {
    "name": "garui",
    "cc2": "28",
    "latitude": 22.63333,
    "longitude": 88.4
  },
  {
    "name": "garphalbari",
    "cc2": "28",
    "latitude": 23.74547,
    "longitude": 86.76098
  },
  {
    "name": "garifa",
    "cc2": "28",
    "latitude": 22.90699,
    "longitude": 88.41334
  },
  {
    "name": "garh panchkot",
    "cc2": "28",
    "latitude": 23.5977,
    "longitude": 86.77291
  },
  {
    "name": "garden reach",
    "cc2": "28",
    "latitude": 22.54389,
    "longitude": 88.30667
  },
  {
    "name": "ganutia",
    "cc2": "28",
    "latitude": 23.86667,
    "longitude": 87.83333
  },
  {
    "name": "ganrapota",
    "cc2": "28",
    "latitude": 23.13333,
    "longitude": 88.81928
  },
  {
    "name": "gangra",
    "cc2": "28",
    "latitude": 21.92556,
    "longitude": 87.98982
  },
  {
    "name": "gangarampur",
    "cc2": "28",
    "latitude": 25.40138,
    "longitude": 88.52978
  },
  {
    "name": "gangajalghati",
    "cc2": "28",
    "latitude": 23.4224,
    "longitude": 87.11411
  },
  {
    "name": "galsi",
    "cc2": "28",
    "latitude": 23.33928,
    "longitude": 87.68926
  },
  {
    "name": "gajol",
    "cc2": "28",
    "latitude": 25.21309,
    "longitude": 88.19363
  },
  {
    "name": "gaighata",
    "cc2": "28",
    "latitude": 22.93608,
    "longitude": 88.7336
  },
  {
    "name": "futtehpoor",
    "cc2": "28",
    "latitude": 25.56413,
    "longitude": 88.33977
  },
  {
    "name": "fort gloster",
    "cc2": "28",
    "latitude": 22.50444,
    "longitude": 88.18333
  },
  {
    "name": "fatehpur",
    "cc2": "28",
    "latitude": 24.08095,
    "longitude": 87.73092
  },
  {
    "name": "fatehpur",
    "cc2": "28",
    "latitude": 22.28601,
    "longitude": 88.23627
  },
  {
    "name": "fatehabad",
    "cc2": "28",
    "latitude": 26.48333,
    "longitude": 88.3
  },
  {
    "name": "farakka",
    "cc2": "28",
    "latitude": 24.81667,
    "longitude": 87.9
  },
  {
    "name": "phalta",
    "cc2": "28",
    "latitude": 22.30021,
    "longitude": 88.10706
  },
  {
    "name": "falakata",
    "cc2": "28",
    "latitude": 26.51963,
    "longitude": 89.20423
  },
  {
    "name": "egra",
    "cc2": "28",
    "latitude": 21.89947,
    "longitude": 87.53794
  },
  {
    "name": "durgapur",
    "cc2": "28",
    "latitude": 25.52867,
    "longitude": 88.15058
  },
  {
    "name": "durgapur",
    "cc2": "28",
    "latitude": 23.51583,
    "longitude": 87.30801
  },
  {
    "name": "dam dam",
    "cc2": "28",
    "latitude": 22.63341,
    "longitude": 88.42286
  },
  {
    "name": "dubrajpur",
    "cc2": "28",
    "latitude": 23.7902,
    "longitude": 87.37648
  },
  {
    "name": "dubra",
    "cc2": "28",
    "latitude": 23.54332,
    "longitude": 86.52102
  },
  {
    "name": "dublat",
    "cc2": "28",
    "latitude": 21.63905,
    "longitude": 88.13176
  },
  {
    "name": "domahani",
    "cc2": "28",
    "latitude": 23.75346,
    "longitude": 87.02722
  },
  {
    "name": "dishergarh",
    "cc2": "28",
    "latitude": 23.69064,
    "longitude": 86.82735
  },
  {
    "name": "dinhata",
    "cc2": "28",
    "latitude": 26.13526,
    "longitude": 89.46129
  },
  {
    "name": "dignagar",
    "cc2": "28",
    "latitude": 23.43242,
    "longitude": 87.68324
  },
  {
    "name": "dignagar",
    "cc2": "28",
    "latitude": 23.32375,
    "longitude": 88.45201
  },
  {
    "name": "digha",
    "cc2": "28",
    "latitude": 21.62776,
    "longitude": 87.51965
  },
  {
    "name": "digambarpur",
    "cc2": "28",
    "latitude": 21.93492,
    "longitude": 88.38999
  },
  {
    "name": "diamond harbour",
    "cc2": "28",
    "latitude": 22.19268,
    "longitude": 88.18951
  },
  {
    "name": "dhupgari",
    "cc2": "28",
    "latitude": 26.58904,
    "longitude": 89.00732
  },
  {
    "name": "dhulian",
    "cc2": "28",
    "latitude": 24.68127,
    "longitude": 87.9535
  },
  {
    "name": "dhosha",
    "cc2": "28",
    "latitude": 22.25047,
    "longitude": 88.53921
  },
  {
    "name": "dhantola",
    "cc2": "28",
    "latitude": 26.18772,
    "longitude": 88.10348
  },
  {
    "name": "dhaniakhali",
    "cc2": "28",
    "latitude": 22.96984,
    "longitude": 88.09603
  },
  {
    "name": "dewan hat",
    "cc2": "28",
    "latitude": 26.22803,
    "longitude": 89.48194
  },
  {
    "name": "devanandapur",
    "cc2": "28",
    "latitude": 22.93333,
    "longitude": 88.36667
  },
  {
    "name": "depal",
    "cc2": "28",
    "latitude": 21.73435,
    "longitude": 87.54915
  },
  {
    "name": "deocha",
    "cc2": "28",
    "latitude": 24.03996,
    "longitude": 87.58521
  },
  {
    "name": "deganga",
    "cc2": "28",
    "latitude": 22.68764,
    "longitude": 88.65168
  },
  {
    "name": "debra",
    "cc2": "28",
    "latitude": 22.3952,
    "longitude": 87.56015
  },
  {
    "name": "debipur",
    "cc2": "28",
    "latitude": 24.25029,
    "longitude": 88.61824
  },
  {
    "name": "debagram",
    "cc2": "28",
    "latitude": 23.68832,
    "longitude": 88.30083
  },
  {
    "name": "daulatpur",
    "cc2": "28",
    "latitude": 25.32605,
    "longitude": 88.32989
  },
  {
    "name": "dattapulia",
    "cc2": "28",
    "latitude": 23.2368,
    "longitude": 88.70653
  },
  {
    "name": "daspur",
    "cc2": "28",
    "latitude": 22.60691,
    "longitude": 87.72331
  },
  {
    "name": "daskalgram",
    "cc2": "28",
    "latitude": 23.75406,
    "longitude": 87.93108
  },
  {
    "name": "dasghara",
    "cc2": "28",
    "latitude": 22.96316,
    "longitude": 88.01798
  },
  {
    "name": "darodih",
    "cc2": "28",
    "latitude": 23.22422,
    "longitude": 86.45125
  },
  {
    "name": "darjiling",
    "cc2": "28",
    "latitude": 27.03333,
    "longitude": 88.26667
  },
  {
    "name": "dantan",
    "cc2": "28",
    "latitude": 21.94658,
    "longitude": 87.27678
  },
  {
    "name": "dam dim",
    "cc2": "28",
    "latitude": 26.86463,
    "longitude": 88.74526
  },
  {
    "name": "dalkola",
    "cc2": "28",
    "latitude": 25.87577,
    "longitude": 87.84009
  },
  {
    "name": "dahijuri",
    "cc2": "28",
    "latitude": 22.50219,
    "longitude": 86.99109
  },
  {
    "name": "cossipore",
    "cc2": "28",
    "latitude": 22.62276,
    "longitude": 88.37906
  },
  {
    "name": "cossimbazar",
    "cc2": "28",
    "latitude": 24.11914,
    "longitude": 88.27707
  },
  {
    "name": "churulia",
    "cc2": "28",
    "latitude": 23.78335,
    "longitude": 87.07149
  },
  {
    "name": "churaman",
    "cc2": "28",
    "latitude": 25.43032,
    "longitude": 88.10641
  },
  {
    "name": "chunchura",
    "cc2": "28",
    "latitude": 22.88765,
    "longitude": 88.39672
  },
  {
    "name": "chuna",
    "cc2": "28",
    "latitude": 23.41944,
    "longitude": 86.61021
  },
  {
    "name": "chota mollakhali",
    "cc2": "28",
    "latitude": 22.21667,
    "longitude": 88.9
  },
  {
    "name": "chopra",
    "cc2": "28",
    "latitude": 26.36764,
    "longitude": 88.31257
  },
  {
    "name": "chittaranjan",
    "cc2": "28",
    "latitude": 23.85681,
    "longitude": 86.90324
  },
  {
    "name": "chinpai",
    "cc2": "28",
    "latitude": 23.82063,
    "longitude": 87.43713
  },
  {
    "name": "chillapata",
    "cc2": "28",
    "latitude": 26.54555,
    "longitude": 89.35208
  },
  {
    "name": "chilakhana",
    "cc2": "28",
    "latitude": 26.30955,
    "longitude": 89.59485
  },
  {
    "name": "chhatna",
    "cc2": "28",
    "latitude": 23.30566,
    "longitude": 86.97174
  },
  {
    "name": "chengel",
    "cc2": "28",
    "latitude": 22.50444,
    "longitude": 88.14361
  },
  {
    "name": "chelyama",
    "cc2": "28",
    "latitude": 23.61576,
    "longitude": 86.55245
  },
  {
    "name": "chawalhati",
    "cc2": "28",
    "latitude": 26.48411,
    "longitude": 88.56769
  },
  {
    "name": "chatra",
    "cc2": "28",
    "latitude": 24.37499,
    "longitude": 87.85203
  },
  {
    "name": "charanpur",
    "cc2": "28",
    "latitude": 23.74298,
    "longitude": 87.04585
  },
  {
    "name": "chapra",
    "cc2": "28",
    "latitude": 23.52791,
    "longitude": 88.55429
  },
  {
    "name": "changrabandha",
    "cc2": "28",
    "latitude": 26.41564,
    "longitude": 88.91871
  },
  {
    "name": "chandrakona",
    "cc2": "28",
    "latitude": 22.73333,
    "longitude": 87.51667
  },
  {
    "name": "chandra",
    "cc2": "28",
    "latitude": 22.46175,
    "longitude": 87.14845
  },
  {
    "name": "chandpara",
    "cc2": "28",
    "latitude": 22.97779,
    "longitude": 88.76919
  },
  {
    "name": "chandannagar",
    "cc2": "28",
    "latitude": 22.86225,
    "longitude": 88.36796
  },
  {
    "name": "chandankiari",
    "cc2": "28",
    "latitude": 23.56873,
    "longitude": 86.35978
  },
  {
    "name": "chandabila",
    "cc2": "28",
    "latitude": 22.08734,
    "longitude": 87.01762
  },
  {
    "name": "chanchiara",
    "cc2": "28",
    "latitude": 22.36667,
    "longitude": 87.8
  },
  {
    "name": "chanch",
    "cc2": "28",
    "latitude": 23.71674,
    "longitude": 86.77551
  },
  {
    "name": "champahati",
    "cc2": "28",
    "latitude": 22.40026,
    "longitude": 88.49209
  },
  {
    "name": "champadanga",
    "cc2": "28",
    "latitude": 22.83771,
    "longitude": 87.97575
  },
  {
    "name": "chalsa mahabari",
    "cc2": "28",
    "latitude": 26.88333,
    "longitude": 88.8
  },
  {
    "name": "chalsa",
    "cc2": "28",
    "latitude": 26.88413,
    "longitude": 88.79068
  },
  {
    "name": "chakdipa",
    "cc2": "28",
    "latitude": 22.08399,
    "longitude": 88.02133
  },
  {
    "name": "chakdaha",
    "cc2": "28",
    "latitude": 23.07558,
    "longitude": 88.52872
  },
  {
    "name": "chakchoka",
    "cc2": "28",
    "latitude": 26.47236,
    "longitude": 89.80918
  },
  {
    "name": "chaital",
    "cc2": "28",
    "latitude": 22.51519,
    "longitude": 88.77576
  },
  {
    "name": "canning",
    "cc2": "28",
    "latitude": 22.31399,
    "longitude": 88.66508
  },
  {
    "name": "kolkata",
    "cc2": "28",
    "latitude": 22.56263,
    "longitude": 88.36304
  },
  {
    "name": "buxa duar",
    "cc2": "28",
    "latitude": 26.75865,
    "longitude": 89.59398
  },
  {
    "name": "burnpur",
    "cc2": "28",
    "latitude": 23.67051,
    "longitude": 86.94655
  },
  {
    "name": "budbud",
    "cc2": "28",
    "latitude": 23.40131,
    "longitude": 87.53895
  },
  {
    "name": "brindabanpur",
    "cc2": "28",
    "latitude": 23.31018,
    "longitude": 87.27878
  },
  {
    "name": "bolpur",
    "cc2": "28",
    "latitude": 23.66278,
    "longitude": 87.69695
  },
  {
    "name": "bishnupur",
    "cc2": "28",
    "latitude": 23.0738,
    "longitude": 87.31991
  },
  {
    "name": "bishnupur",
    "cc2": "28",
    "latitude": 22.37777,
    "longitude": 88.27411
  },
  {
    "name": "birgi",
    "cc2": "28",
    "latitude": 22.69392,
    "longitude": 86.68438
  },
  {
    "name": "biramput",
    "cc2": "28",
    "latitude": 21.72949,
    "longitude": 87.7866
  },
  {
    "name": "binpur",
    "cc2": "28",
    "latitude": 22.58132,
    "longitude": 86.92072
  },
  {
    "name": "binnaguri",
    "cc2": "28",
    "latitude": 26.7617,
    "longitude": 89.07669
  },
  {
    "name": "binnaguri",
    "cc2": "28",
    "latitude": 26.67708,
    "longitude": 88.48144
  },
  {
    "name": "binnaguri",
    "cc2": "28",
    "latitude": 26.66433,
    "longitude": 88.47131
  },
  {
    "name": "binnaguri",
    "cc2": "28",
    "latitude": 26.65,
    "longitude": 88.46667
  },
  {
    "name": "bindola",
    "cc2": "28",
    "latitude": 25.77073,
    "longitude": 88.1834
  },
  {
    "name": "bilsara",
    "cc2": "28",
    "latitude": 23.08184,
    "longitude": 88.1623
  },
  {
    "name": "bijpul",
    "cc2": "28",
    "latitude": 22.94554,
    "longitude": 88.44558
  },
  {
    "name": "bijaybati",
    "cc2": "28",
    "latitude": 21.58333,
    "longitude": 88.26667
  },
  {
    "name": "bijapur",
    "cc2": "28",
    "latitude": 25.08333,
    "longitude": 88.4
  },
  {
    "name": "bijanbari bazar",
    "cc2": "28",
    "latitude": 27.06768,
    "longitude": 88.19517
  },
  {
    "name": "bhusudih",
    "cc2": "28",
    "latitude": 23.22885,
    "longitude": 85.86284
  },
  {
    "name": "bhurkundi",
    "cc2": "28",
    "latitude": 22.25,
    "longitude": 87.28333
  },
  {
    "name": "bholahat",
    "cc2": "28",
    "latitude": 24.95123,
    "longitude": 88.20536
  },
  {
    "name": "bhatpara",
    "cc2": "28",
    "latitude": 22.86643,
    "longitude": 88.40113
  },
  {
    "name": "bhatar",
    "cc2": "28",
    "latitude": 23.41251,
    "longitude": 87.91529
  },
  {
    "name": "bhastara",
    "cc2": "28",
    "latitude": 23.03542,
    "longitude": 88.14966
  },
  {
    "name": "bhangar",
    "cc2": "28",
    "latitude": 22.51244,
    "longitude": 88.61225
  },
  {
    "name": "bhaluka",
    "cc2": "28",
    "latitude": 25.28572,
    "longitude": 87.8766
  },
  {
    "name": "bhainskuchi",
    "cc2": "28",
    "latitude": 26.36915,
    "longitude": 89.76932
  },
  {
    "name": "bhagwangola",
    "cc2": "28",
    "latitude": 24.34495,
    "longitude": 88.32356
  },
  {
    "name": "bhagabhera",
    "cc2": "28",
    "latitude": 22.18333,
    "longitude": 87.38333
  },
  {
    "name": "bhagabanpur",
    "cc2": "28",
    "latitude": 24.78772,
    "longitude": 88.01242
  },
  {
    "name": "bhagabanpur",
    "cc2": "28",
    "latitude": 22.10126,
    "longitude": 87.76551
  },
  {
    "name": "bhadreswar",
    "cc2": "28",
    "latitude": 22.82449,
    "longitude": 88.33841
  },
  {
    "name": "berubari",
    "cc2": "28",
    "latitude": 26.41296,
    "longitude": 88.70563
  },
  {
    "name": "belur",
    "cc2": "28",
    "latitude": 22.63629,
    "longitude": 88.33828
  },
  {
    "name": "belpukur",
    "cc2": "28",
    "latitude": 22.00484,
    "longitude": 88.2326
  },
  {
    "name": "belmuri",
    "cc2": "28",
    "latitude": 22.94643,
    "longitude": 88.15091
  },
  {
    "name": "beliator",
    "cc2": "28",
    "latitude": 23.32052,
    "longitude": 87.22081
  },
  {
    "name": "beliaghata",
    "cc2": "28",
    "latitude": 22.56667,
    "longitude": 88.38333
  },
  {
    "name": "beliabera",
    "cc2": "28",
    "latitude": 22.27207,
    "longitude": 86.95414
  },
  {
    "name": "beli",
    "cc2": "28",
    "latitude": 22.36667,
    "longitude": 87.41667
  },
  {
    "name": "belgharia",
    "cc2": "28",
    "latitude": 22.65814,
    "longitude": 88.38519
  },
  {
    "name": "belgaon",
    "cc2": "28",
    "latitude": 23.96667,
    "longitude": 87.86667
  },
  {
    "name": "belgachia",
    "cc2": "28",
    "latitude": 22.6,
    "longitude": 88.38333
  },
  {
    "name": "beldanga",
    "cc2": "28",
    "latitude": 23.93428,
    "longitude": 88.26018
  },
  {
    "name": "belda",
    "cc2": "28",
    "latitude": 22.08427,
    "longitude": 87.35204
  },
  {
    "name": "belakoba",
    "cc2": "28",
    "latitude": 26.59078,
    "longitude": 88.58909
  },
  {
    "name": "behala",
    "cc2": "28",
    "latitude": 22.50147,
    "longitude": 88.27884
  },
  {
    "name": "begunkudar",
    "cc2": "28",
    "latitude": 23.35383,
    "longitude": 86.05886
  },
  {
    "name": "bayarmari",
    "cc2": "28",
    "latitude": 22.45813,
    "longitude": 88.82973
  },
  {
    "name": "bauria",
    "cc2": "28",
    "latitude": 22.49385,
    "longitude": 88.16803
  },
  {
    "name": "basudha",
    "cc2": "28",
    "latitude": 23.60186,
    "longitude": 87.52724
  },
  {
    "name": "basudebpur",
    "cc2": "28",
    "latitude": 21.82014,
    "longitude": 87.62916
  },
  {
    "name": "basirhat",
    "cc2": "28",
    "latitude": 22.66142,
    "longitude": 88.85477
  },
  {
    "name": "basanti",
    "cc2": "28",
    "latitude": 22.20323,
    "longitude": 88.70764
  },
  {
    "name": "barwan",
    "cc2": "28",
    "latitude": 23.92898,
    "longitude": 87.93887
  },
  {
    "name": "baruipur",
    "cc2": "28",
    "latitude": 22.36544,
    "longitude": 88.4325
  },
  {
    "name": "barnia",
    "cc2": "28",
    "latitude": 23.72448,
    "longitude": 88.42134
  },
  {
    "name": "barlanga",
    "cc2": "28",
    "latitude": 23.43995,
    "longitude": 85.84068
  },
  {
    "name": "barjora",
    "cc2": "28",
    "latitude": 23.42754,
    "longitude": 87.29037
  },
  {
    "name": "bargachia",
    "cc2": "28",
    "latitude": 22.65328,
    "longitude": 88.12602
  },
  {
    "name": "barddhaman",
    "cc2": "28",
    "latitude": 23.25572,
    "longitude": 87.85691
  },
  {
    "name": "barasat",
    "cc2": "28",
    "latitude": 22.72154,
    "longitude": 88.48198
  },
  {
    "name": "dakshin barasat",
    "cc2": "28",
    "latitude": 22.22516,
    "longitude": 88.45086
  },
  {
    "name": "baranagar",
    "cc2": "28",
    "latitude": 22.64132,
    "longitude": 88.37727
  },
  {
    "name": "barakpur",
    "cc2": "28",
    "latitude": 22.76602,
    "longitude": 88.36336
  },
  {
    "name": "bara jorda",
    "cc2": "28",
    "latitude": 23.17155,
    "longitude": 86.83389
  },
  {
    "name": "baradiha",
    "cc2": "28",
    "latitude": 22.35,
    "longitude": 87.36667
  },
  {
    "name": "barabhum",
    "cc2": "28",
    "latitude": 23.02946,
    "longitude": 86.3613
  },
  {
    "name": "barabhita",
    "cc2": "28",
    "latitude": 26.71667,
    "longitude": 88.31667
  },
  {
    "name": "bara belun",
    "cc2": "28",
    "latitude": 23.40451,
    "longitude": 87.97803
  },
  {
    "name": "bara bazar",
    "cc2": "28",
    "latitude": 22.56667,
    "longitude": 88.35
  },
  {
    "name": "barabani",
    "cc2": "28",
    "latitude": 23.7447,
    "longitude": 87.02017
  },
  {
    "name": "banta hajam",
    "cc2": "28",
    "latitude": 23.29814,
    "longitude": 85.80827
  },
  {
    "name": "bansihari",
    "cc2": "28",
    "latitude": 25.39375,
    "longitude": 88.41763
  },
  {
    "name": "bansbaria",
    "cc2": "28",
    "latitude": 22.95387,
    "longitude": 88.40098
  },
  {
    "name": "banpur",
    "cc2": "28",
    "latitude": 23.44887,
    "longitude": 88.76369
  },
  {
    "name": "bankura",
    "cc2": "28",
    "latitude": 23.23241,
    "longitude": 87.0716
  },
  {
    "name": "bankadaha",
    "cc2": "28",
    "latitude": 22.97927,
    "longitude": 87.35787
  },
  {
    "name": "bangaon",
    "cc2": "28",
    "latitude": 23.04553,
    "longitude": 88.83084
  },
  {
    "name": "bandwan",
    "cc2": "28",
    "latitude": 22.78333,
    "longitude": 86.5
  },
  {
    "name": "banduan",
    "cc2": "28",
    "latitude": 22.87784,
    "longitude": 86.50366
  },
  {
    "name": "bandor",
    "cc2": "28",
    "latitude": 22.6707,
    "longitude": 87.7825
  },
  {
    "name": "banali",
    "cc2": "28",
    "latitude": 23.67656,
    "longitude": 87.07774
  },
  {
    "name": "bamundiha",
    "cc2": "28",
    "latitude": 23.11765,
    "longitude": 86.36607
  },
  {
    "name": "baman hat",
    "cc2": "28",
    "latitude": 26.08012,
    "longitude": 89.58472
  },
  {
    "name": "bamangola",
    "cc2": "28",
    "latitude": 25.18333,
    "longitude": 88.26667
  },
  {
    "name": "balurghat",
    "cc2": "28",
    "latitude": 25.22099,
    "longitude": 88.77732
  },
  {
    "name": "balughata",
    "cc2": "28",
    "latitude": 22.0731,
    "longitude": 88.03185
  },
  {
    "name": "ballygunge",
    "cc2": "28",
    "latitude": 22.52904,
    "longitude": 88.36801
  },
  {
    "name": "bali",
    "cc2": "28",
    "latitude": 22.64859,
    "longitude": 88.34115
  },
  {
    "name": "balitha",
    "cc2": "28",
    "latitude": 22.99174,
    "longitude": 87.5691
  },
  {
    "name": "balijhuri",
    "cc2": "28",
    "latitude": 22.48333,
    "longitude": 87.33333
  },
  {
    "name": "bali chak",
    "cc2": "28",
    "latitude": 22.36482,
    "longitude": 87.55304
  },
  {
    "name": "balari",
    "cc2": "28",
    "latitude": 22.06667,
    "longitude": 88.15
  },
  {
    "name": "balarampur",
    "cc2": "28",
    "latitude": 26.24877,
    "longitude": 89.58711
  },
  {
    "name": "balarampur",
    "cc2": "28",
    "latitude": 23.09714,
    "longitude": 86.22292
  },
  {
    "name": "bakreswar",
    "cc2": "28",
    "latitude": 23.8832,
    "longitude": 87.37265
  },
  {
    "name": "budge budge",
    "cc2": "28",
    "latitude": 22.48275,
    "longitude": 88.18176
  },
  {
    "name": "baidyapur",
    "cc2": "28",
    "latitude": 23.1669,
    "longitude": 88.25141
  },
  {
    "name": "baidyabati",
    "cc2": "28",
    "latitude": 22.78498,
    "longitude": 88.32586
  },
  {
    "name": "baharampur",
    "cc2": "28",
    "latitude": 24.10473,
    "longitude": 88.25155
  },
  {
    "name": "bagula",
    "cc2": "28",
    "latitude": 23.33664,
    "longitude": 88.64109
  },
  {
    "name": "bagnan",
    "cc2": "28",
    "latitude": 22.46922,
    "longitude": 87.96147
  },
  {
    "name": "baghmundi",
    "cc2": "28",
    "latitude": 23.18982,
    "longitude": 86.05547
  },
  {
    "name": "bagdogra",
    "cc2": "28",
    "latitude": 26.69929,
    "longitude": 88.31177
  },
  {
    "name": "baghdoba",
    "cc2": "28",
    "latitude": 22.13647,
    "longitude": 87.89829
  },
  {
    "name": "bagh bazar",
    "cc2": "28",
    "latitude": 22.6,
    "longitude": 88.36667
  },
  {
    "name": "bagdaha",
    "cc2": "28",
    "latitude": 23.21212,
    "longitude": 88.88926
  },
  {
    "name": "bagda",
    "cc2": "28",
    "latitude": 23.19706,
    "longitude": 86.68703
  },
  {
    "name": "baduria",
    "cc2": "28",
    "latitude": 22.74431,
    "longitude": 88.78655
  },
  {
    "name": "badkulla",
    "cc2": "28",
    "latitude": 23.29901,
    "longitude": 88.5336
  },
  {
    "name": "badimpur",
    "cc2": "28",
    "latitude": 25.26738,
    "longitude": 88.49372
  },
  {
    "name": "badanganj",
    "cc2": "28",
    "latitude": 22.9023,
    "longitude": 87.54214
  },
  {
    "name": "azimganj",
    "cc2": "28",
    "latitude": 24.22733,
    "longitude": 88.25806
  },
  {
    "name": "ausgram",
    "cc2": "28",
    "latitude": 23.51762,
    "longitude": 87.66612
  },
  {
    "name": "asansol",
    "cc2": "28",
    "latitude": 23.68333,
    "longitude": 86.98333
  },
  {
    "name": "argoal",
    "cc2": "28",
    "latitude": 21.96939,
    "longitude": 87.63398
  },
  {
    "name": "arambagh",
    "cc2": "28",
    "latitude": 22.88333,
    "longitude": 87.78333
  },
  {
    "name": "araidanga",
    "cc2": "28",
    "latitude": 25.12285,
    "longitude": 87.98371
  },
  {
    "name": "andharkotha",
    "cc2": "28",
    "latitude": 24.04594,
    "longitude": 88.6956
  },
  {
    "name": "andal",
    "cc2": "28",
    "latitude": 23.58013,
    "longitude": 87.1832
  },
  {
    "name": "amtala",
    "cc2": "28",
    "latitude": 23.92297,
    "longitude": 88.45161
  },
  {
    "name": "amta",
    "cc2": "28",
    "latitude": 22.58344,
    "longitude": 88.01039
  },
  {
    "name": "amlataria",
    "cc2": "28",
    "latitude": 22.31667,
    "longitude": 87.33333
  },
  {
    "name": "amlagora",
    "cc2": "28",
    "latitude": 22.84616,
    "longitude": 87.33559
  },
  {
    "name": "ambikanagar",
    "cc2": "28",
    "latitude": 22.9442,
    "longitude": 86.76938
  },
  {
    "name": "alipur duar",
    "cc2": "28",
    "latitude": 26.4835,
    "longitude": 89.52286
  },
  {
    "name": "alipur",
    "cc2": "28",
    "latitude": 22.53195,
    "longitude": 88.32318
  },
  {
    "name": "ahmadpur",
    "cc2": "28",
    "latitude": 23.83009,
    "longitude": 87.68661
  },
  {
    "name": "agarpara",
    "cc2": "28",
    "latitude": 22.68333,
    "longitude": 88.36667
  },
  {
    "name": "agaibani",
    "cc2": "28",
    "latitude": 22.3102,
    "longitude": 86.94321
  },
  {
    "name": "adra",
    "cc2": "28",
    "latitude": 23.49668,
    "longitude": 86.68363
  },
  {
    "name": "radhanagar",
    "cc2": "28",
    "latitude": 21.69488,
    "longitude": 88.22668
  },
  {
    "name": "magra hat",
    "cc2": "28",
    "latitude": 21.68303,
    "longitude": 88.06994
  },
  {
    "name": "chemagari hat",
    "cc2": "28",
    "latitude": 21.68444,
    "longitude": 88.11944
  },
  {
    "name": "bichania",
    "cc2": "28",
    "latitude": 21.72771,
    "longitude": 87.80692
  },
  {
    "name": "bankipur",
    "cc2": "28",
    "latitude": 21.76139,
    "longitude": 87.86389
  },
  {
    "name": "dariapur",
    "cc2": "28",
    "latitude": 21.79072,
    "longitude": 87.8635
  },
  {
    "name": "contai",
    "cc2": "28",
    "latitude": 21.77985,
    "longitude": 87.74892
  },
  {
    "name": "medinagar",
    "cc2": "28",
    "latitude": 21.80688,
    "longitude": 87.90938
  },
  {
    "name": "janka",
    "cc2": "28",
    "latitude": 21.8532,
    "longitude": 87.91471
  },
  {
    "name": "khajuri",
    "cc2": "28",
    "latitude": 21.86722,
    "longitude": 87.96361
  },
  {
    "name": "talpati",
    "cc2": "28",
    "latitude": 21.89389,
    "longitude": 87.96278
  },
  {
    "name": "chakrabera garh",
    "cc2": "28",
    "latitude": 21.9744,
    "longitude": 88.00321
  },
  {
    "name": "sibkalinagar",
    "cc2": "28",
    "latitude": 21.93028,
    "longitude": 88.18222
  },
  {
    "name": "belpukur",
    "cc2": "28",
    "latitude": 22.00444,
    "longitude": 88.235
  },
  {
    "name": "ramratanpur",
    "cc2": "28",
    "latitude": 21.93807,
    "longitude": 88.22686
  },
  {
    "name": "purandarpur",
    "cc2": "28",
    "latitude": 21.87556,
    "longitude": 88.22361
  },
  {
    "name": "phulbari",
    "cc2": "28",
    "latitude": 21.86678,
    "longitude": 88.13285
  },
  {
    "name": "mandirtala",
    "cc2": "28",
    "latitude": 21.80222,
    "longitude": 88.10056
  },
  {
    "name": "budhakhali",
    "cc2": "28",
    "latitude": 21.82306,
    "longitude": 88.20806
  },
  {
    "name": "durgapur",
    "cc2": "28",
    "latitude": 21.79278,
    "longitude": 88.22722
  },
  {
    "name": "collectorganj",
    "cc2": "28",
    "latitude": 21.81576,
    "longitude": 88.16736
  },
  {
    "name": "goyamara",
    "cc2": "28",
    "latitude": 21.78003,
    "longitude": 88.08456
  },
  {
    "name": "gobindapur",
    "cc2": "28",
    "latitude": 21.78486,
    "longitude": 88.16442
  },
  {
    "name": "haldia",
    "cc2": "28",
    "latitude": 22.06046,
    "longitude": 88.10975
  },
  {
    "name": "tilkuria",
    "cc2": "28",
    "latitude": 22.99639,
    "longitude": 88.03639
  },
  {
    "name": "srikrishnapur",
    "cc2": "28",
    "latitude": 22.97062,
    "longitude": 88.02913
  },
  {
    "name": "shahbazar",
    "cc2": "28",
    "latitude": 22.94896,
    "longitude": 88.03346
  },
  {
    "name": "srirampur",
    "cc2": "28",
    "latitude": 22.94849,
    "longitude": 88.01954
  },
  {
    "name": "gangesnagar",
    "cc2": "28",
    "latitude": 22.93042,
    "longitude": 88.02003
  },
  {
    "name": "rujipur",
    "cc2": "28",
    "latitude": 22.97778,
    "longitude": 88.06722
  },
  {
    "name": "saniaspur",
    "cc2": "28",
    "latitude": 22.9625,
    "longitude": 88.0925
  },
  {
    "name": "kakrakuli",
    "cc2": "28",
    "latitude": 22.94667,
    "longitude": 88.0725
  },
  {
    "name": "majnan",
    "cc2": "28",
    "latitude": 22.98611,
    "longitude": 88.14861
  },
  {
    "name": "baikunthapur",
    "cc2": "28",
    "latitude": 22.98083,
    "longitude": 88.20583
  },
  {
    "name": "kanajol",
    "cc2": "28",
    "latitude": 22.96083,
    "longitude": 88.13389
  },
  {
    "name": "hanral",
    "cc2": "28",
    "latitude": 22.96949,
    "longitude": 88.15303
  },
  {
    "name": "hanral",
    "cc2": "28",
    "latitude": 22.97194,
    "longitude": 88.18361
  },
  {
    "name": "jampur",
    "cc2": "28",
    "latitude": 22.94389,
    "longitude": 88.19278
  },
  {
    "name": "makhalpur",
    "cc2": "28",
    "latitude": 22.9332,
    "longitude": 88.16279
  },
  {
    "name": "warbasini",
    "cc2": "28",
    "latitude": 22.99574,
    "longitude": 88.22258
  },
  {
    "name": "kagji",
    "cc2": "28",
    "latitude": 22.98361,
    "longitude": 88.22778
  },
  {
    "name": "malipara",
    "cc2": "28",
    "latitude": 22.9584,
    "longitude": 88.24196
  },
  {
    "name": "haripur",
    "cc2": "28",
    "latitude": 22.93611,
    "longitude": 88.23194
  },
  {
    "name": "sudarsan",
    "cc2": "28",
    "latitude": 22.97476,
    "longitude": 88.27676
  },
  {
    "name": "kesabpur",
    "cc2": "28",
    "latitude": 22.96833,
    "longitude": 88.26278
  },
  {
    "name": "onchan",
    "cc2": "28",
    "latitude": 22.94709,
    "longitude": 88.31063
  },
  {
    "name": "paunan",
    "cc2": "28",
    "latitude": 22.94586,
    "longitude": 88.28391
  },
  {
    "name": "meria",
    "cc2": "28",
    "latitude": 22.97463,
    "longitude": 88.32674
  },
  {
    "name": "raihat",
    "cc2": "28",
    "latitude": 22.93856,
    "longitude": 88.34312
  },
  {
    "name": "baikunthapur",
    "cc2": "28",
    "latitude": 23.0025,
    "longitude": 88.40833
  },
  {
    "name": "muratpur",
    "cc2": "28",
    "latitude": 22.98864,
    "longitude": 88.44251
  },
  {
    "name": "kusria",
    "cc2": "28",
    "latitude": 22.9703,
    "longitude": 88.48154
  },
  {
    "name": "kanpur",
    "cc2": "28",
    "latitude": 22.94806,
    "longitude": 88.49833
  },
  {
    "name": "dhanbela",
    "cc2": "28",
    "latitude": 22.92194,
    "longitude": 88.47583
  },
  {
    "name": "ramchandrapur",
    "cc2": "28",
    "latitude": 22.89639,
    "longitude": 88.47528
  },
  {
    "name": "kantalpara",
    "cc2": "28",
    "latitude": 22.88889,
    "longitude": 88.43833
  },
  {
    "name": "sasipur",
    "cc2": "28",
    "latitude": 22.86782,
    "longitude": 88.47028
  },
  {
    "name": "dogachia",
    "cc2": "28",
    "latitude": 22.88611,
    "longitude": 88.31056
  },
  {
    "name": "khalsini",
    "cc2": "28",
    "latitude": 22.86639,
    "longitude": 88.35444
  },
  {
    "name": "beta",
    "cc2": "28",
    "latitude": 22.92074,
    "longitude": 88.23425
  },
  {
    "name": "harit",
    "cc2": "28",
    "latitude": 22.92486,
    "longitude": 88.25488
  },
  {
    "name": "kansaripara",
    "cc2": "28",
    "latitude": 22.92917,
    "longitude": 88.27722
  },
  {
    "name": "babnan",
    "cc2": "28",
    "latitude": 22.90472,
    "longitude": 88.21111
  },
  {
    "name": "arsapota",
    "cc2": "28",
    "latitude": 22.91177,
    "longitude": 88.30161
  },
  {
    "name": "badinan",
    "cc2": "28",
    "latitude": 22.89709,
    "longitude": 88.24365
  },
  {
    "name": "dubi bheri",
    "cc2": "28",
    "latitude": 22.88591,
    "longitude": 88.28164
  },
  {
    "name": "komdhara",
    "cc2": "28",
    "latitude": 22.88028,
    "longitude": 88.22861
  },
  {
    "name": "bainchipota",
    "cc2": "28",
    "latitude": 22.8622,
    "longitude": 88.2686
  },
  {
    "name": "bagnan",
    "cc2": "28",
    "latitude": 22.93338,
    "longitude": 88.13856
  },
  {
    "name": "alipur",
    "cc2": "28",
    "latitude": 22.91153,
    "longitude": 88.17162
  },
  {
    "name": "ghatampur",
    "cc2": "28",
    "latitude": 22.90333,
    "longitude": 88.15944
  },
  {
    "name": "bajitpur",
    "cc2": "28",
    "latitude": 22.88896,
    "longitude": 88.13488
  },
  {
    "name": "jejur",
    "cc2": "28",
    "latitude": 22.8813,
    "longitude": 88.1228
  },
  {
    "name": "gaja",
    "cc2": "28",
    "latitude": 22.86883,
    "longitude": 88.15402
  },
  {
    "name": "jamaibati",
    "cc2": "28",
    "latitude": 22.85167,
    "longitude": 88.15583
  },
  {
    "name": "parambo",
    "cc2": "28",
    "latitude": 22.92199,
    "longitude": 88.04531
  },
  {
    "name": "bhandarhati",
    "cc2": "28",
    "latitude": 22.92817,
    "longitude": 88.10149
  },
  {
    "name": "shamsheipur",
    "cc2": "28",
    "latitude": 22.90111,
    "longitude": 88.07472
  },
  {
    "name": "alipur",
    "cc2": "28",
    "latitude": 22.89694,
    "longitude": 88.10139
  },
  {
    "name": "aknapur",
    "cc2": "28",
    "latitude": 22.90069,
    "longitude": 88.05076
  },
  {
    "name": "balgarh",
    "cc2": "28",
    "latitude": 22.87635,
    "longitude": 88.04015
  },
  {
    "name": "sonatikri",
    "cc2": "28",
    "latitude": 22.86889,
    "longitude": 88.06028
  },
  {
    "name": "baladbandh",
    "cc2": "28",
    "latitude": 22.86861,
    "longitude": 88.10972
  },
  {
    "name": "gopdanga",
    "cc2": "28",
    "latitude": 22.85691,
    "longitude": 88.03948
  },
  {
    "name": "bahirkhanda",
    "cc2": "28",
    "latitude": 22.85694,
    "longitude": 88.06861
  },
  {
    "name": "chak madan",
    "cc2": "28",
    "latitude": 22.92778,
    "longitude": 88.00306
  },
  {
    "name": "chautara",
    "cc2": "28",
    "latitude": 22.91392,
    "longitude": 88.01784
  },
  {
    "name": "purbba ramnagar",
    "cc2": "28",
    "latitude": 22.85474,
    "longitude": 88.02388
  },
  {
    "name": "chhonapur",
    "cc2": "28",
    "latitude": 22.82333,
    "longitude": 88.01528
  },
  {
    "name": "gangarambatl",
    "cc2": "28",
    "latitude": 22.81,
    "longitude": 88.01694
  },
  {
    "name": "kuliara",
    "cc2": "28",
    "latitude": 22.79,
    "longitude": 87.9975
  },
  {
    "name": "rajbalhai",
    "cc2": "28",
    "latitude": 22.76795,
    "longitude": 88.00589
  },
  {
    "name": "gopinagar",
    "cc2": "28",
    "latitude": 22.8403,
    "longitude": 88.1221
  },
  {
    "name": "mora",
    "cc2": "28",
    "latitude": 22.82328,
    "longitude": 88.05003
  },
  {
    "name": "narayanpur",
    "cc2": "28",
    "latitude": 22.82833,
    "longitude": 88.07778
  },
  {
    "name": "haripal",
    "cc2": "28",
    "latitude": 22.81883,
    "longitude": 88.11039
  },
  {
    "name": "gopinathpur",
    "cc2": "28",
    "latitude": 22.81172,
    "longitude": 88.06486
  },
  {
    "name": "dipa",
    "cc2": "28",
    "latitude": 22.80403,
    "longitude": 88.06731
  },
  {
    "name": "dwarhata",
    "cc2": "28",
    "latitude": 22.79141,
    "longitude": 88.06328
  },
  {
    "name": "nilarpur",
    "cc2": "28",
    "latitude": 22.78341,
    "longitude": 88.1232
  },
  {
    "name": "tora",
    "cc2": "28",
    "latitude": 22.77639,
    "longitude": 88.05667
  },
  {
    "name": "hujili",
    "cc2": "28",
    "latitude": 22.77222,
    "longitude": 88.09778
  },
  {
    "name": "bandipur",
    "cc2": "28",
    "latitude": 22.84639,
    "longitude": 88.18056
  },
  {
    "name": "beraberi",
    "cc2": "28",
    "latitude": 22.84667,
    "longitude": 88.20444
  },
  {
    "name": "mele",
    "cc2": "28",
    "latitude": 22.8271,
    "longitude": 88.1352
  },
  {
    "name": "bargachia",
    "cc2": "28",
    "latitude": 22.82778,
    "longitude": 88.17667
  },
  {
    "name": "parora",
    "cc2": "28",
    "latitude": 22.79929,
    "longitude": 88.14424
  },
  {
    "name": "dhanyahana",
    "cc2": "28",
    "latitude": 22.79694,
    "longitude": 88.17222
  },
  {
    "name": "basubati",
    "cc2": "28",
    "latitude": 22.7875,
    "longitude": 88.19889
  },
  {
    "name": "babu bheri",
    "cc2": "28",
    "latitude": 22.84944,
    "longitude": 88.23861
  },
  {
    "name": "gopalnagar",
    "cc2": "28",
    "latitude": 22.83089,
    "longitude": 88.22493
  },
  {
    "name": "ratanpur",
    "cc2": "28",
    "latitude": 22.83028,
    "longitude": 88.25694
  },
  {
    "name": "nandaha",
    "cc2": "28",
    "latitude": 22.83123,
    "longitude": 88.28944
  },
  {
    "name": "dhopapukur",
    "cc2": "28",
    "latitude": 22.8175,
    "longitude": 88.31139
  },
  {
    "name": "haripur",
    "cc2": "28",
    "latitude": 22.78586,
    "longitude": 88.27322
  },
  {
    "name": "ramnagar",
    "cc2": "28",
    "latitude": 22.77778,
    "longitude": 88.24639
  },
  {
    "name": "mankundi",
    "cc2": "28",
    "latitude": 22.83926,
    "longitude": 88.36073
  },
  {
    "name": "garulia",
    "cc2": "28",
    "latitude": 22.82111,
    "longitude": 88.37444
  },
  {
    "name": "champdani",
    "cc2": "28",
    "latitude": 22.79778,
    "longitude": 88.36583
  },
  {
    "name": "sankarpur",
    "cc2": "28",
    "latitude": 22.84839,
    "longitude": 88.45126
  },
  {
    "name": "keutia",
    "cc2": "28",
    "latitude": 22.83861,
    "longitude": 88.42222
  },
  {
    "name": "padmalabhpur",
    "cc2": "28",
    "latitude": 22.83722,
    "longitude": 88.47361
  },
  {
    "name": "srirampur",
    "cc2": "28",
    "latitude": 22.81675,
    "longitude": 88.47387
  },
  {
    "name": "kusdanga",
    "cc2": "28",
    "latitude": 22.81556,
    "longitude": 88.4575
  },
  {
    "name": "danga",
    "cc2": "28",
    "latitude": 22.78881,
    "longitude": 88.47096
  },
  {
    "name": "hatdanga",
    "cc2": "28",
    "latitude": 22.79111,
    "longitude": 88.49889
  },
  {
    "name": "nilgani",
    "cc2": "28",
    "latitude": 22.76093,
    "longitude": 88.43771
  },
  {
    "name": "khilkapur",
    "cc2": "28",
    "latitude": 22.75722,
    "longitude": 88.45556
  },
  {
    "name": "iswaripur",
    "cc2": "28",
    "latitude": 22.73306,
    "longitude": 88.40889
  },
  {
    "name": "balagarh",
    "cc2": "28",
    "latitude": 22.72833,
    "longitude": 88.435
  },
  {
    "name": "saddarat",
    "cc2": "28",
    "latitude": 22.71806,
    "longitude": 88.41972
  },
  {
    "name": "bodai",
    "cc2": "28",
    "latitude": 22.70326,
    "longitude": 88.43583
  },
  {
    "name": "muragacha",
    "cc2": "28",
    "latitude": 22.69139,
    "longitude": 88.42
  },
  {
    "name": "kotrung",
    "cc2": "28",
    "latitude": 22.68488,
    "longitude": 88.35134
  },
  {
    "name": "baruipara",
    "cc2": "28",
    "latitude": 22.765,
    "longitude": 88.23972
  },
  {
    "name": "bara",
    "cc2": "28",
    "latitude": 22.76332,
    "longitude": 88.26745
  },
  {
    "name": "jhenkari",
    "cc2": "28",
    "latitude": 22.7525,
    "longitude": 88.29944
  },
  {
    "name": "begampur",
    "cc2": "28",
    "latitude": 22.7307,
    "longitude": 88.25764
  },
  {
    "name": "panchgara",
    "cc2": "28",
    "latitude": 22.74139,
    "longitude": 88.26778
  },
  {
    "name": "janai",
    "cc2": "28",
    "latitude": 22.71294,
    "longitude": 88.25232
  },
  {
    "name": "balihati",
    "cc2": "28",
    "latitude": 22.73387,
    "longitude": 88.31218
  },
  {
    "name": "payragacha",
    "cc2": "28",
    "latitude": 22.70361,
    "longitude": 88.26667
  },
  {
    "name": "khorel",
    "cc2": "28",
    "latitude": 22.69466,
    "longitude": 88.30271
  },
  {
    "name": "patul",
    "cc2": "28",
    "latitude": 22.75783,
    "longitude": 88.16083
  },
  {
    "name": "phurphura",
    "cc2": "28",
    "latitude": 22.74769,
    "longitude": 88.13147
  },
  {
    "name": "mashat",
    "cc2": "28",
    "latitude": 22.73935,
    "longitude": 88.19482
  },
  {
    "name": "bandpur",
    "cc2": "28",
    "latitude": 22.735,
    "longitude": 88.17528
  },
  {
    "name": "ayan",
    "cc2": "28",
    "latitude": 22.72639,
    "longitude": 88.14194
  },
  {
    "name": "harlpur",
    "cc2": "28",
    "latitude": 22.70417,
    "longitude": 88.16778
  },
  {
    "name": "kumirimora",
    "cc2": "28",
    "latitude": 22.69582,
    "longitude": 88.2261
  },
  {
    "name": "bhagabatipur",
    "cc2": "28",
    "latitude": 22.69417,
    "longitude": 88.18722
  },
  {
    "name": "mahmudpur",
    "cc2": "28",
    "latitude": 22.69028,
    "longitude": 88.14611
  },
  {
    "name": "basantapur",
    "cc2": "28",
    "latitude": 22.75417,
    "longitude": 88.09944
  },
  {
    "name": "gobindapur",
    "cc2": "28",
    "latitude": 22.72667,
    "longitude": 88.0975
  },
  {
    "name": "satgara",
    "cc2": "28",
    "latitude": 22.71083,
    "longitude": 88.05639
  },
  {
    "name": "gopalnagar",
    "cc2": "28",
    "latitude": 22.69392,
    "longitude": 88.05754
  },
  {
    "name": "jhinga",
    "cc2": "28",
    "latitude": 22.69858,
    "longitude": 88.10762
  },
  {
    "name": "ranimpur",
    "cc2": "28",
    "latitude": 22.7475,
    "longitude": 88.01278
  },
  {
    "name": "dogachi",
    "cc2": "28",
    "latitude": 22.73417,
    "longitude": 88.02417
  },
  {
    "name": "rasidpur",
    "cc2": "28",
    "latitude": 22.72844,
    "longitude": 88.00512
  },
  {
    "name": "paspur",
    "cc2": "28",
    "latitude": 22.70528,
    "longitude": 88.005
  },
  {
    "name": "rajpur",
    "cc2": "28",
    "latitude": 22.6898,
    "longitude": 88.01115
  },
  {
    "name": "mansuka",
    "cc2": "28",
    "latitude": 22.67333,
    "longitude": 88.00861
  },
  {
    "name": "manikera",
    "cc2": "28",
    "latitude": 22.65778,
    "longitude": 88.03152
  },
  {
    "name": "basantapur",
    "cc2": "28",
    "latitude": 22.64745,
    "longitude": 88.04209
  },
  {
    "name": "chaltakhali",
    "cc2": "28",
    "latitude": 22.63222,
    "longitude": 88.01972
  },
  {
    "name": "kurt",
    "cc2": "28",
    "latitude": 22.60583,
    "longitude": 88.02056
  },
  {
    "name": "purash",
    "cc2": "28",
    "latitude": 22.67667,
    "longitude": 88.04972
  },
  {
    "name": "munshirbat",
    "cc2": "28",
    "latitude": 22.65214,
    "longitude": 88.08484
  },
  {
    "name": "bakul",
    "cc2": "28",
    "latitude": 22.65333,
    "longitude": 88.12722
  },
  {
    "name": "debandi",
    "cc2": "28",
    "latitude": 22.62722,
    "longitude": 88.05333
  },
  {
    "name": "sialoanga",
    "cc2": "28",
    "latitude": 22.62611,
    "longitude": 88.12778
  },
  {
    "name": "maju",
    "cc2": "28",
    "latitude": 22.61447,
    "longitude": 88.0935
  },
  {
    "name": "chongghurali",
    "cc2": "28",
    "latitude": 22.60972,
    "longitude": 88.09139
  },
  {
    "name": "harinarayanpur",
    "cc2": "28",
    "latitude": 22.60028,
    "longitude": 88.1125
  },
  {
    "name": "kanaidanga",
    "cc2": "28",
    "latitude": 22.67861,
    "longitude": 88.17556
  },
  {
    "name": "bhadua",
    "cc2": "28",
    "latitude": 22.67793,
    "longitude": 88.19929
  },
  {
    "name": "parbatipur",
    "cc2": "28",
    "latitude": 22.6625,
    "longitude": 88.22222
  },
  {
    "name": "rajapur",
    "cc2": "28",
    "latitude": 22.6475,
    "longitude": 88.18778
  },
  {
    "name": "rudrapur",
    "cc2": "28",
    "latitude": 22.63028,
    "longitude": 88.17528
  },
  {
    "name": "bhandardaha",
    "cc2": "28",
    "latitude": 22.61476,
    "longitude": 88.1919
  },
  {
    "name": "baniara",
    "cc2": "28",
    "latitude": 22.60639,
    "longitude": 88.21028
  },
  {
    "name": "dumjor",
    "cc2": "28",
    "latitude": 22.61993,
    "longitude": 88.24566
  },
  {
    "name": "chanditala",
    "cc2": "28",
    "latitude": 22.69316,
    "longitude": 88.25786
  },
  {
    "name": "monber",
    "cc2": "28",
    "latitude": 22.67639,
    "longitude": 88.28556
  },
  {
    "name": "krishnapur",
    "cc2": "28",
    "latitude": 22.67028,
    "longitude": 88.26944
  },
  {
    "name": "baluhati",
    "cc2": "28",
    "latitude": 22.65612,
    "longitude": 88.25727
  },
  {
    "name": "jagdispur",
    "cc2": "28",
    "latitude": 22.65622,
    "longitude": 88.27897
  },
  {
    "name": "lakshmanpur",
    "cc2": "28",
    "latitude": 22.63444,
    "longitude": 88.27194
  },
  {
    "name": "bankra",
    "cc2": "28",
    "latitude": 22.60291,
    "longitude": 88.27751
  },
  {
    "name": "dapharpur",
    "cc2": "28",
    "latitude": 22.64583,
    "longitude": 88.23889
  },
  {
    "name": "dasi",
    "cc2": "28",
    "latitude": 22.625,
    "longitude": 88.26028
  },
  {
    "name": "nibria",
    "cc2": "28",
    "latitude": 22.60874,
    "longitude": 88.24413
  },
  {
    "name": "chakapara",
    "cc2": "28",
    "latitude": 22.63222,
    "longitude": 88.34861
  },
  {
    "name": "barasat",
    "cc2": "28",
    "latitude": 22.68417,
    "longitude": 88.44111
  },
  {
    "name": "dohari",
    "cc2": "28",
    "latitude": 22.68118,
    "longitude": 88.4624
  },
  {
    "name": "napara",
    "cc2": "28",
    "latitude": 22.67278,
    "longitude": 88.46944
  },
  {
    "name": "banspul",
    "cc2": "28",
    "latitude": 22.67083,
    "longitude": 88.48833
  },
  {
    "name": "rohand",
    "cc2": "28",
    "latitude": 22.6575,
    "longitude": 88.4875
  },
  {
    "name": "kedihati",
    "cc2": "28",
    "latitude": 22.65083,
    "longitude": 88.46083
  },
  {
    "name": "jojera",
    "cc2": "28",
    "latitude": 22.64333,
    "longitude": 88.47194
  },
  {
    "name": "salua",
    "cc2": "28",
    "latitude": 22.63861,
    "longitude": 88.44583
  },
  {
    "name": "thakurdwari",
    "cc2": "28",
    "latitude": 22.57066,
    "longitude": 88.45987
  },
  {
    "name": "panchuria",
    "cc2": "28",
    "latitude": 22.55256,
    "longitude": 88.49009
  },
  {
    "name": "bamanghata",
    "cc2": "28",
    "latitude": 22.51603,
    "longitude": 88.46607
  },
  {
    "name": "mahiari",
    "cc2": "28",
    "latitude": 22.58826,
    "longitude": 88.23544
  },
  {
    "name": "masila",
    "cc2": "28",
    "latitude": 22.58083,
    "longitude": 88.23278
  },
  {
    "name": "jujarsaha",
    "cc2": "28",
    "latitude": 22.59778,
    "longitude": 88.13139
  },
  {
    "name": "chamarpara",
    "cc2": "28",
    "latitude": 22.5825,
    "longitude": 88.131
  },
  {
    "name": "dhulagari",
    "cc2": "28",
    "latitude": 22.58213,
    "longitude": 88.171
  },
  {
    "name": "joynagar",
    "cc2": "28",
    "latitude": 22.57194,
    "longitude": 88.15694
  },
  {
    "name": "nabaghara",
    "cc2": "28",
    "latitude": 22.56611,
    "longitude": 88.19583
  },
  {
    "name": "gobaria",
    "cc2": "28",
    "latitude": 22.55889,
    "longitude": 88.1375
  },
  {
    "name": "panchla",
    "cc2": "28",
    "latitude": 22.53665,
    "longitude": 88.13785
  },
  {
    "name": "saranga",
    "cc2": "28",
    "latitude": 22.52541,
    "longitude": 88.21759
  },
  {
    "name": "nalpur",
    "cc2": "28",
    "latitude": 22.53227,
    "longitude": 88.17639
  },
  {
    "name": "sahapur",
    "cc2": "28",
    "latitude": 22.52444,
    "longitude": 88.16694
  },
  {
    "name": "raghudebbati",
    "cc2": "28",
    "latitude": 22.52556,
    "longitude": 88.19583
  },
  {
    "name": "gauripur",
    "cc2": "28",
    "latitude": 22.5925,
    "longitude": 88.07306
  },
  {
    "name": "gobindapur",
    "cc2": "28",
    "latitude": 22.59306,
    "longitude": 88.09139
  },
  {
    "name": "islampur",
    "cc2": "28",
    "latitude": 22.57417,
    "longitude": 88.05806
  },
  {
    "name": "telbani",
    "cc2": "28",
    "latitude": 22.56889,
    "longitude": 88.11583
  },
  {
    "name": "majukhetra",
    "cc2": "28",
    "latitude": 22.55861,
    "longitude": 88.05222
  },
  {
    "name": "laskarpar",
    "cc2": "28",
    "latitude": 22.55389,
    "longitude": 88.1275
  },
  {
    "name": "janjali chak",
    "cc2": "28",
    "latitude": 22.54,
    "longitude": 88.06028
  },
  {
    "name": "ban harispur",
    "cc2": "28",
    "latitude": 22.5425,
    "longitude": 88.09944
  },
  {
    "name": "kantaberia",
    "cc2": "28",
    "latitude": 22.52889,
    "longitude": 88.04806
  },
  {
    "name": "basudehpur",
    "cc2": "28",
    "latitude": 22.52444,
    "longitude": 88.07889
  },
  {
    "name": "chandpur",
    "cc2": "28",
    "latitude": 22.52333,
    "longitude": 88.11972
  },
  {
    "name": "ghazipur",
    "cc2": "28",
    "latitude": 22.54683,
    "longitude": 88.00403
  },
  {
    "name": "jagarampur",
    "cc2": "28",
    "latitude": 22.51167,
    "longitude": 88.03194
  },
  {
    "name": "kamini",
    "cc2": "28",
    "latitude": 22.49941,
    "longitude": 88.01679
  },
  {
    "name": "karatber",
    "cc2": "28",
    "latitude": 22.49898,
    "longitude": 88.06838
  },
  {
    "name": "mahishrekh",
    "cc2": "28",
    "latitude": 22.47917,
    "longitude": 88.02222
  },
  {
    "name": "kulgachi",
    "cc2": "28",
    "latitude": 22.4674,
    "longitude": 88.01722
  },
  {
    "name": "baggacha",
    "cc2": "28",
    "latitude": 22.45767,
    "longitude": 88.07189
  },
  {
    "name": "khalisani",
    "cc2": "28",
    "latitude": 22.51667,
    "longitude": 88.08278
  },
  {
    "name": "brindabanpur",
    "cc2": "28",
    "latitude": 22.50944,
    "longitude": 88.06139
  },
  {
    "name": "jagannathpur",
    "cc2": "28",
    "latitude": 22.49833,
    "longitude": 88.09306
  },
  {
    "name": "banitanala",
    "cc2": "28",
    "latitude": 22.4825,
    "longitude": 88.09667
  },
  {
    "name": "sijbaria",
    "cc2": "28",
    "latitude": 22.48833,
    "longitude": 88.11417
  },
  {
    "name": "gangarampur",
    "cc2": "28",
    "latitude": 22.46528,
    "longitude": 88.07833
  },
  {
    "name": "sibpur",
    "cc2": "28",
    "latitude": 22.45639,
    "longitude": 88.04833
  },
  {
    "name": "bahira",
    "cc2": "28",
    "latitude": 22.44889,
    "longitude": 88.08889
  },
  {
    "name": "alipukur",
    "cc2": "28",
    "latitude": 22.44558,
    "longitude": 88.10555
  },
  {
    "name": "kalinagar",
    "cc2": "28",
    "latitude": 22.44038,
    "longitude": 88.10757
  },
  {
    "name": "nangi",
    "cc2": "28",
    "latitude": 22.50833,
    "longitude": 88.21528
  },
  {
    "name": "sarangabad",
    "cc2": "28",
    "latitude": 22.48778,
    "longitude": 88.21056
  },
  {
    "name": "pujali",
    "cc2": "28",
    "latitude": 22.46787,
    "longitude": 88.14524
  },
  {
    "name": "banraypur",
    "cc2": "28",
    "latitude": 22.46546,
    "longitude": 88.2131
  },
  {
    "name": "ghanasyambati",
    "cc2": "28",
    "latitude": 22.44694,
    "longitude": 88.20167
  },
  {
    "name": "hasnacha",
    "cc2": "28",
    "latitude": 22.43544,
    "longitude": 88.1531
  },
  {
    "name": "jagannathpur",
    "cc2": "28",
    "latitude": 22.44083,
    "longitude": 88.17083
  },
  {
    "name": "chata",
    "cc2": "28",
    "latitude": 22.49083,
    "longitude": 88.24417
  },
  {
    "name": "ramkantapur",
    "cc2": "28",
    "latitude": 22.45722,
    "longitude": 88.33389
  },
  {
    "name": "zeyadah kot",
    "cc2": "28",
    "latitude": 22.44451,
    "longitude": 88.33447
  },
  {
    "name": "baynala",
    "cc2": "28",
    "latitude": 22.48353,
    "longitude": 88.49974
  },
  {
    "name": "kusuinba",
    "cc2": "28",
    "latitude": 22.44945,
    "longitude": 88.40419
  },
  {
    "name": "radhangar",
    "cc2": "28",
    "latitude": 22.4575,
    "longitude": 88.45861
  },
  {
    "name": "ghasiara",
    "cc2": "28",
    "latitude": 22.44333,
    "longitude": 88.44417
  },
  {
    "name": "arapanja",
    "cc2": "28",
    "latitude": 22.43288,
    "longitude": 88.46896
  },
  {
    "name": "maheshtala",
    "cc2": "28",
    "latitude": 22.50862,
    "longitude": 88.25322
  },
  {
    "name": "petua",
    "cc2": "28",
    "latitude": 22.41556,
    "longitude": 88.44667
  },
  {
    "name": "mandshar",
    "cc2": "28",
    "latitude": 22.41583,
    "longitude": 88.47444
  },
  {
    "name": "gohindapur",
    "cc2": "28",
    "latitude": 22.3893,
    "longitude": 88.40927
  },
  {
    "name": "ghoshpur",
    "cc2": "28",
    "latitude": 22.38933,
    "longitude": 88.4803
  },
  {
    "name": "dhamnagar",
    "cc2": "28",
    "latitude": 22.36799,
    "longitude": 88.41059
  },
  {
    "name": "madarhat",
    "cc2": "28",
    "latitude": 22.37101,
    "longitude": 88.44031
  },
  {
    "name": "begampur",
    "cc2": "28",
    "latitude": 22.37556,
    "longitude": 88.47879
  },
  {
    "name": "ramkali",
    "cc2": "28",
    "latitude": 22.4322,
    "longitude": 88.32854
  },
  {
    "name": "raghabpur",
    "cc2": "28",
    "latitude": 22.41806,
    "longitude": 88.3425
  },
  {
    "name": "panakua",
    "cc2": "28",
    "latitude": 22.3904,
    "longitude": 88.35522
  },
  {
    "name": "kalipur",
    "cc2": "28",
    "latitude": 22.38323,
    "longitude": 88.37669
  },
  {
    "name": "nangalbaria",
    "cc2": "28",
    "latitude": 22.37949,
    "longitude": 88.40216
  },
  {
    "name": "keoradanga",
    "cc2": "28",
    "latitude": 22.37361,
    "longitude": 88.32222
  },
  {
    "name": "taona",
    "cc2": "28",
    "latitude": 22.37055,
    "longitude": 88.33795
  },
  {
    "name": "andharmanik",
    "cc2": "28",
    "latitude": 22.36745,
    "longitude": 88.35745
  },
  {
    "name": "raspunji",
    "cc2": "28",
    "latitude": 22.43623,
    "longitude": 88.26936
  },
  {
    "name": "nahazari",
    "cc2": "28",
    "latitude": 22.43105,
    "longitude": 88.23923
  },
  {
    "name": "narasinhapur",
    "cc2": "28",
    "latitude": 22.42802,
    "longitude": 88.21859
  },
  {
    "name": "bhasa",
    "cc2": "28",
    "latitude": 22.40833,
    "longitude": 88.27387
  },
  {
    "name": "amgachia",
    "cc2": "28",
    "latitude": 22.40938,
    "longitude": 88.307
  },
  {
    "name": "nadabhanga",
    "cc2": "28",
    "latitude": 22.3975,
    "longitude": 88.23667
  },
  {
    "name": "ramnagar",
    "cc2": "28",
    "latitude": 22.39244,
    "longitude": 88.31483
  },
  {
    "name": "ramchandranagar",
    "cc2": "28",
    "latitude": 22.37194,
    "longitude": 88.22694
  },
  {
    "name": "kasibati",
    "cc2": "28",
    "latitude": 22.37444,
    "longitude": 88.24444
  },
  {
    "name": "amtala",
    "cc2": "28",
    "latitude": 22.37046,
    "longitude": 88.27864
  },
  {
    "name": "alampur",
    "cc2": "28",
    "latitude": 22.4225,
    "longitude": 88.16278
  },
  {
    "name": "bawali",
    "cc2": "28",
    "latitude": 22.42563,
    "longitude": 88.19336
  },
  {
    "name": "raipur",
    "cc2": "28",
    "latitude": 22.40693,
    "longitude": 88.14974
  },
  {
    "name": "aima",
    "cc2": "28",
    "latitude": 22.40667,
    "longitude": 88.18028
  },
  {
    "name": "bahirkunji",
    "cc2": "28",
    "latitude": 22.38501,
    "longitude": 88.12802
  },
  {
    "name": "dhanchibarla",
    "cc2": "28",
    "latitude": 22.39028,
    "longitude": 88.15861
  },
  {
    "name": "bakhra",
    "cc2": "28",
    "latitude": 22.39629,
    "longitude": 88.20822
  },
  {
    "name": "poli",
    "cc2": "28",
    "latitude": 22.37611,
    "longitude": 88.14972
  },
  {
    "name": "deali",
    "cc2": "28",
    "latitude": 22.37255,
    "longitude": 88.16836
  },
  {
    "name": "patharbaria",
    "cc2": "28",
    "latitude": 22.37355,
    "longitude": 88.19184
  },
  {
    "name": "chaulkhola",
    "cc2": "28",
    "latitude": 22.37028,
    "longitude": 88.20917
  },
  {
    "name": "simulia",
    "cc2": "28",
    "latitude": 22.35778,
    "longitude": 88.19222
  },
  {
    "name": "khasmahal",
    "cc2": "28",
    "latitude": 22.42775,
    "longitude": 88.06507
  },
  {
    "name": "kenjekhalia",
    "cc2": "28",
    "latitude": 22.43222,
    "longitude": 88.11944
  },
  {
    "name": "syamruk",
    "cc2": "28",
    "latitude": 22.41238,
    "longitude": 88.05158
  },
  {
    "name": "bisia",
    "cc2": "28",
    "latitude": 22.42361,
    "longitude": 88.0925
  },
  {
    "name": "dhulasimia",
    "cc2": "28",
    "latitude": 22.4131,
    "longitude": 88.09448
  },
  {
    "name": "hiraganj",
    "cc2": "28",
    "latitude": 22.41591,
    "longitude": 88.13156
  },
  {
    "name": "bauria",
    "cc2": "28",
    "latitude": 22.39417,
    "longitude": 88.05667
  },
  {
    "name": "gazipur",
    "cc2": "28",
    "latitude": 22.38918,
    "longitude": 88.08822
  },
  {
    "name": "sankabanga",
    "cc2": "28",
    "latitude": 22.39722,
    "longitude": 88.10917
  },
  {
    "name": "brul",
    "cc2": "28",
    "latitude": 22.37972,
    "longitude": 88.11583
  },
  {
    "name": "gaja",
    "cc2": "28",
    "latitude": 22.37394,
    "longitude": 88.13053
  },
  {
    "name": "garhchumbak",
    "cc2": "28",
    "latitude": 22.35972,
    "longitude": 88.05278
  },
  {
    "name": "madhabpur",
    "cc2": "28",
    "latitude": 22.35944,
    "longitude": 88.06472
  },
  {
    "name": "pakuria",
    "cc2": "28",
    "latitude": 22.36056,
    "longitude": 88.08389
  },
  {
    "name": "burul",
    "cc2": "28",
    "latitude": 22.36041,
    "longitude": 88.11447
  },
  {
    "name": "gujrat",
    "cc2": "28",
    "latitude": 22.40443,
    "longitude": 88.01558
  },
  {
    "name": "kulanandapur",
    "cc2": "28",
    "latitude": 22.38972,
    "longitude": 88.0025
  },
  {
    "name": "rajibnagar",
    "cc2": "28",
    "latitude": 22.38222,
    "longitude": 88.03917
  },
  {
    "name": "balikuria",
    "cc2": "28",
    "latitude": 22.35917,
    "longitude": 88.00028
  },
  {
    "name": "ganespur",
    "cc2": "28",
    "latitude": 22.35159,
    "longitude": 88.02415
  },
  {
    "name": "radhanagar",
    "cc2": "28",
    "latitude": 22.33639,
    "longitude": 88.03694
  },
  {
    "name": "naskarpur",
    "cc2": "28",
    "latitude": 22.31589,
    "longitude": 88.0212
  },
  {
    "name": "rameswarpur",
    "cc2": "28",
    "latitude": 22.28944,
    "longitude": 88.04222
  },
  {
    "name": "sitalpur",
    "cc2": "28",
    "latitude": 22.28141,
    "longitude": 88.02569
  },
  {
    "name": "puturia",
    "cc2": "28",
    "latitude": 22.33806,
    "longitude": 88.08167
  },
  {
    "name": "mahadebpur",
    "cc2": "28",
    "latitude": 22.34528,
    "longitude": 88.11333
  },
  {
    "name": "baikunthpur",
    "cc2": "28",
    "latitude": 22.32784,
    "longitude": 88.1236
  },
  {
    "name": "baragachi",
    "cc2": "28",
    "latitude": 22.31917,
    "longitude": 88.08778
  },
  {
    "name": "gajankul",
    "cc2": "28",
    "latitude": 22.31469,
    "longitude": 88.04511
  },
  {
    "name": "iswaripur",
    "cc2": "28",
    "latitude": 22.30418,
    "longitude": 88.12836
  },
  {
    "name": "alipur",
    "cc2": "28",
    "latitude": 22.2975,
    "longitude": 88.07833
  },