[
  {
    "name": "velugam",
    "cc2": "52",
    "latitude": 20.14469,
    "longitude": 72.98167
  },
  {
    "name": "vasona",
    "cc2": "52",
    "latitude": 20.20566,
    "longitude": 73.03755
  },
  {
    "name": "vansda",
    "cc2": "52",
    "latitude": 20.12093,
    "longitude": 73.16025
  },
  {
    "name": "umbarkoi",
    "cc2": "52",
    "latitude": 20.24503,
    "longitude": 73.05978
  },
  {
    "name": "sindavni",
    "cc2": "52",
    "latitude": 20.09126,
    "longitude": 73.1559
  },
  {
    "name": "silvassa",
    "cc2": "52",
    "latitude": 20.27386,
    "longitude": 72.99673
  },
  {
    "name": "sili",
    "cc2": "52",
    "latitude": 20.30426,
    "longitude": 73.04243
  },
  {
    "name": "sigsar",
    "cc2": "52",
    "latitude": 20.80836,
    "longitude": 70.61397
  },
  {
    "name": "sarkharia",
    "cc2": "52",
    "latitude": 20.74151,
    "longitude": 70.75509
  },
  {
    "name": "saili",
    "cc2": "52",
    "latitude": 20.24467,
    "longitude": 73.03145
  },
  {
    "name": "rudana",
    "cc2": "52",
    "latitude": 20.09791,
    "longitude": 73.08991
  },
  {
    "name": "randha nana",
    "cc2": "52",
    "latitude": 20.2993,
    "longitude": 73.14892
  },
  {
    "name": "randha moti",
    "cc2": "52",
    "latitude": 20.31012,
    "longitude": 73.13613
  },
  {
    "name": "rakholi",
    "cc2": "52",
    "latitude": 20.21667,
    "longitude": 73.03333
  },
  {
    "name": "pati",
    "cc2": "52",
    "latitude": 20.18337,
    "longitude": 73.04889
  },
  {
    "name": "pariali",
    "cc2": "52",
    "latitude": 20.37774,
    "longitude": 72.83719
  },
  {
    "name": "naroli",
    "cc2": "52",
    "latitude": 20.27354,
    "longitude": 72.94167
  },
  {
    "name": "mashat",
    "cc2": "52",
    "latitude": 20.24514,
    "longitude": 73.00841
  },
  {
    "name": "marwad",
    "cc2": "52",
    "latitude": 20.43764,
    "longitude": 72.83224
  },
  {
    "name": "mandavni",
    "cc2": "52",
    "latitude": 20.11288,
    "longitude": 73.14988
  },
  {
    "name": "malala",
    "cc2": "52",
    "latitude": 20.70959,
    "longitude": 70.94916
  },
  {
    "name": "magarvara",
    "cc2": "52",
    "latitude": 20.38662,
    "longitude": 72.84836
  },
  {
    "name": "luari",
    "cc2": "52",
    "latitude": 20.18751,
    "longitude": 72.97308
  },
  {
    "name": "kothar",
    "cc2": "52",
    "latitude": 20.16578,
    "longitude": 73.1215
  },
  {
    "name": "kherdi",
    "cc2": "52",
    "latitude": 20.11062,
    "longitude": 73.02595
  },
  {
    "name": "kherarbari",
    "cc2": "52",
    "latitude": 20.13333,
    "longitude": 73.13333
  },
  {
    "name": "kharadpada",
    "cc2": "52",
    "latitude": 20.25048,
    "longitude": 72.9563
  },
  {
    "name": "khali kachigam",
    "cc2": "52",
    "latitude": 20.38333,
    "longitude": 72.86667
  },
  {
    "name": "khadoli",
    "cc2": "52",
    "latitude": 20.15026,
    "longitude": 73.03172
  },
  {
    "name": "karchond",
    "cc2": "52",
    "latitude": 20.15468,
    "longitude": 73.15972
  },
  {
    "name": "karad",
    "cc2": "52",
    "latitude": 20.22182,
    "longitude": 73.04232
  },
  {
    "name": "gogola",
    "cc2": "52",
    "latitude": 20.72607,
    "longitude": 70.98777
  },
  {
    "name": "ghantwar",
    "cc2": "52",
    "latitude": 20.92811,
    "longitude": 70.75558
  },
  {
    "name": "galonda",
    "cc2": "52",
    "latitude": 20.28618,
    "longitude": 73.04833
  },
  {
    "name": "dolara",
    "cc2": "52",
    "latitude": 20.07548,
    "longitude": 73.0394
  },
  {
    "name": "diu",
    "cc2": "52",
    "latitude": 20.71405,
    "longitude": 70.98224
  },
  {
    "name": "dholar",
    "cc2": "52",
    "latitude": 20.38333,
    "longitude": 72.83333
  },
  {
    "name": "dangrawari",
    "cc2": "52",
    "latitude": 20.72126,
    "longitude": 70.93278
  },
  {
    "name": "daman",
    "cc2": "52",
    "latitude": 20.41431,
    "longitude": 72.83236
  },
  {
    "name": "dagasi",
    "cc2": "52",
    "latitude": 20.72366,
    "longitude": 70.91051
  },
  {
    "name": "dadra",
    "cc2": "52",
    "latitude": 20.32504,
    "longitude": 72.96618
  },
  {
    "name": "dabhel",
    "cc2": "52",
    "latitude": 20.40953,
    "longitude": 72.88339
  },
  {
    "name": "chikhli",
    "cc2": "52",
    "latitude": 20.18363,
    "longitude": 73.01761
  },
  {
    "name": "bunxivara",
    "cc2": "52",
    "latitude": 20.71667,
    "longitude": 70.9
  },
  {
    "name": "bildari",
    "cc2": "52",
    "latitude": 20.16667,
    "longitude": 73.2
  },
  {
    "name": "bhimpur",
    "cc2": "52",
    "latitude": 20.45,
    "longitude": 72.88333
  },
  {
    "name": "bedpa",
    "cc2": "52",
    "latitude": 20.0962,
    "longitude": 73.20036
  },
  {
    "name": "amli",
    "cc2": "52",
    "latitude": 20.28333,
    "longitude": 73.01667
  },
  {
    "name": "amboli",
    "cc2": "52",
    "latitude": 20.14357,
    "longitude": 73.02997
  },
  {
    "name": "ambabari",
    "cc2": "52",
    "latitude": 20.16667,
    "longitude": 73.15
  },
  {
    "name": "amal",
    "cc2": "52",
    "latitude": 20.26752,
    "longitude": 72.97938
  },
  {
    "name": "mindi",
    "cc2": "52",
    "latitude": 34.01679,
    "longitude": 74.20224
  },
  {
    "name": "kotda",
    "cc2": "52",
    "latitude": 20.70722,
    "longitude": 70.865
  },
  {
    "name": "sulhani",
    "cc2": "52",
    "latitude": 30.87656,
    "longitude": 74.86599
  },
  {
    "name": "barur",
    "cc2": "52",
    "latitude": 33.83895,
    "longitude": 74.19816
  },
  {
    "name": "kantan",
    "cc2": "52",
    "latitude": 33.82719,
    "longitude": 74.20972
  },
  {
    "name": "tanki complex",
    "cc2": "52",
    "latitude": 33.81298,
    "longitude": 74.15604
  },
  {
    "name": "fudam",
    "cc2": "52",
    "latitude": 20.71,
    "longitude": 70.96211
  },
  {
    "name": "dunetha",
    "cc2": "52",
    "latitude": 20.42942,
    "longitude": 72.85095
  },
  {
    "name": "samarvarni",
    "cc2": "52",
    "latitude": 20.25634,
    "longitude": 73.00802
  },
  {
    "name": "kadaiya",
    "cc2": "52",
    "latitude": 20.4645,
    "longitude": 72.85431
  }
]