[
  {
    "name": "zuvvaladinne",
    "cc2": "02",
    "latitude": 14.80796,
    "longitude": 80.07045
  },
  {
    "name": "zulakallu",
    "cc2": "02",
    "latitude": 16.44415,
    "longitude": 79.78743
  },
  {
    "name": "zangareddigudem",
    "cc2": "02",
    "latitude": 17.12288,
    "longitude": 81.29525
  },
  {
    "name": "zaladanki",
    "cc2": "02",
    "latitude": 14.88431,
    "longitude": 79.91251
  },
  {
    "name": "yerur",
    "cc2": "02",
    "latitude": 14.17677,
    "longitude": 80.04152
  },
  {
    "name": "yelatturdibba",
    "cc2": "02",
    "latitude": 15.78086,
    "longitude": 80.87351
  },
  {
    "name": "yarada",
    "cc2": "02",
    "latitude": 17.65872,
    "longitude": 83.27419
  },
  {
    "name": "yanam",
    "cc2": "02",
    "latitude": 16.73308,
    "longitude": 82.21364
  },
  {
    "name": "yadiki",
    "cc2": "02",
    "latitude": 15.04941,
    "longitude": 77.87306
  },
  {
    "name": "wynchpet",
    "cc2": "02",
    "latitude": 16.52372,
    "longitude": 80.61692
  },
  {
    "name": "waltair",
    "cc2": "02",
    "latitude": 17.71685,
    "longitude": 83.31924
  },
  {
    "name": "vuyyuru",
    "cc2": "02",
    "latitude": 16.36307,
    "longitude": 80.84406
  },
  {
    "name": "vizianagaram",
    "cc2": "02",
    "latitude": 18.11692,
    "longitude": 83.41148
  },
  {
    "name": "vissannapeta",
    "cc2": "02",
    "latitude": 16.94125,
    "longitude": 80.78576
  },
  {
    "name": "visakhapatnam",
    "cc2": "02",
    "latitude": 17.68009,
    "longitude": 83.20161
  },
  {
    "name": "viravalli",
    "cc2": "02",
    "latitude": 16.61211,
    "longitude": 80.91818
  },
  {
    "name": "virapalle",
    "cc2": "02",
    "latitude": 14.15802,
    "longitude": 78.85761
  },
  {
    "name": "virampalli",
    "cc2": "02",
    "latitude": 14.28535,
    "longitude": 79.81283
  },
  {
    "name": "viraghattam",
    "cc2": "02",
    "latitude": 18.68644,
    "longitude": 83.60919
  },
  {
    "name": "vinukonda",
    "cc2": "02",
    "latitude": 16.0531,
    "longitude": 79.73964
  },
  {
    "name": "vinnadivaram",
    "cc2": "02",
    "latitude": 16.01797,
    "longitude": 79.56051
  },
  {
    "name": "vinjamur",
    "cc2": "02",
    "latitude": 14.83364,
    "longitude": 79.57985
  },
  {
    "name": "vindur",
    "cc2": "02",
    "latitude": 14.189,
    "longitude": 79.82577
  },
  {
    "name": "vijayawada",
    "cc2": "02",
    "latitude": 16.50745,
    "longitude": 80.6466
  },
  {
    "name": "vijayarayi",
    "cc2": "02",
    "latitude": 16.80941,
    "longitude": 81.0384
  },
  {
    "name": "vijilapuram",
    "cc2": "02",
    "latitude": 12.83425,
    "longitude": 78.46369
  },
  {
    "name": "vidapanakallu",
    "cc2": "02",
    "latitude": 15.05731,
    "longitude": 77.18251
  },
  {
    "name": "vetapalem",
    "cc2": "02",
    "latitude": 15.78502,
    "longitude": 80.30663
  },
  {
    "name": "vepagunta",
    "cc2": "02",
    "latitude": 17.77844,
    "longitude": 83.21577
  },
  {
    "name": "venkatapuram",
    "cc2": "02",
    "latitude": 17.51063,
    "longitude": 82.62857
  },
  {
    "name": "venkatagirikota",
    "cc2": "02",
    "latitude": 13.0018,
    "longitude": 78.48478
  },
  {
    "name": "venkatagiri",
    "cc2": "02",
    "latitude": 13.96005,
    "longitude": 79.58032
  },
  {
    "name": "venkatagiri",
    "cc2": "02",
    "latitude": 13.19444,
    "longitude": 78.90081
  },
  {
    "name": "venkatachelam chattram",
    "cc2": "02",
    "latitude": 14.32674,
    "longitude": 79.92498
  },
  {
    "name": "venadu",
    "cc2": "02",
    "latitude": 13.64101,
    "longitude": 80.13014
  },
  {
    "name": "vemulachedu",
    "cc2": "02",
    "latitude": 14.12565,
    "longitude": 79.67207
  },
  {
    "name": "vempalle",
    "cc2": "02",
    "latitude": 14.36729,
    "longitude": 78.4587
  },
  {
    "name": "velugodu",
    "cc2": "02",
    "latitude": 15.71932,
    "longitude": 78.57296
  },
  {
    "name": "veludurti",
    "cc2": "02",
    "latitude": 16.34929,
    "longitude": 79.36669
  },
  {
    "name": "vellaturu",
    "cc2": "02",
    "latitude": 14.45071,
    "longitude": 78.65972
  },
  {
    "name": "vellanti",
    "cc2": "02",
    "latitude": 14.4807,
    "longitude": 79.82234
  },
  {
    "name": "veldurti",
    "cc2": "02",
    "latitude": 15.54993,
    "longitude": 77.93112
  },
  {
    "name": "velampalle",
    "cc2": "02",
    "latitude": 15.63938,
    "longitude": 80.01343
  },
  {
    "name": "vedullacheruvu",
    "cc2": "02",
    "latitude": 15.31393,
    "longitude": 79.23185
  },
  {
    "name": "vedichela",
    "cc2": "02",
    "latitude": 14.09243,
    "longitude": 79.76272
  },
  {
    "name": "vayalpad",
    "cc2": "02",
    "latitude": 13.63732,
    "longitude": 78.62991
  },
  {
    "name": "vatturupallepalem",
    "cc2": "02",
    "latitude": 14.85099,
    "longitude": 80.08434
  },
  {
    "name": "variguntapadu",
    "cc2": "02",
    "latitude": 14.99029,
    "longitude": 79.42043
  },
  {
    "name": "varakuru",
    "cc2": "02",
    "latitude": 15.68476,
    "longitude": 78.17797
  },
  {
    "name": "varadayyapalaiyam",
    "cc2": "02",
    "latitude": 13.59858,
    "longitude": 79.93276
  },
  {
    "name": "vanipenta",
    "cc2": "02",
    "latitude": 14.79055,
    "longitude": 78.78047
  },
  {
    "name": "valassala",
    "cc2": "02",
    "latitude": 15.38333,
    "longitude": 77.98333
  },
  {
    "name": "valasarapalli",
    "cc2": "02",
    "latitude": 14.45585,
    "longitude": 79.76675
  },
  {
    "name": "valasala",
    "cc2": "02",
    "latitude": 15.38863,
    "longitude": 77.97093
  },
  {
    "name": "valaparla",
    "cc2": "02",
    "latitude": 15.92406,
    "longitude": 80.04919
  },
  {
    "name": "valamuru",
    "cc2": "02",
    "latitude": 17.62566,
    "longitude": 81.63834
  },
  {
    "name": "vakalapudi",
    "cc2": "02",
    "latitude": 17.01667,
    "longitude": 82.28333
  },
  {
    "name": "wajrakarur",
    "cc2": "02",
    "latitude": 15.02719,
    "longitude": 77.38657
  },
  {
    "name": "vadlapudi",
    "cc2": "02",
    "latitude": 14.31119,
    "longitude": 79.8043
  },
  {
    "name": "vaddepa",
    "cc2": "02",
    "latitude": 17.74536,
    "longitude": 82.61786
  },
  {
    "name": "vaddadi",
    "cc2": "02",
    "latitude": 17.84737,
    "longitude": 82.87293
  },
  {
    "name": "vadarevu",
    "cc2": "02",
    "latitude": 15.79728,
    "longitude": 80.41176
  },
  {
    "name": "vadamala",
    "cc2": "02",
    "latitude": 13.54886,
    "longitude": 79.52423
  },
  {
    "name": "uyyalavada",
    "cc2": "02",
    "latitude": 15.63142,
    "longitude": 78.07537
  },
  {
    "name": "uyyalavada",
    "cc2": "02",
    "latitude": 15.10168,
    "longitude": 78.39608
  },
  {
    "name": "vutukuru",
    "cc2": "02",
    "latitude": 14.57777,
    "longitude": 80.14227
  },
  {
    "name": "utukuru",
    "cc2": "02",
    "latitude": 14.25,
    "longitude": 79.75
  },
  {
    "name": "vutukuru",
    "cc2": "02",
    "latitude": 14.23827,
    "longitude": 79.7395
  },
  {
    "name": "uttukuru",
    "cc2": "02",
    "latitude": 14.56667,
    "longitude": 80.15
  },
  {
    "name": "uttaravilli",
    "cc2": "02",
    "latitude": 18.45847,
    "longitude": 83.47696
  },
  {
    "name": "uchapalem",
    "cc2": "02",
    "latitude": 14.36285,
    "longitude": 79.67062
  },
  {
    "name": "ustikoilpenta",
    "cc2": "02",
    "latitude": 13.83463,
    "longitude": 79.03316
  },
  {
    "name": "uravakonda",
    "cc2": "02",
    "latitude": 14.94348,
    "longitude": 77.25494
  },
  {
    "name": "upputuru",
    "cc2": "02",
    "latitude": 14.42357,
    "longitude": 79.792
  },
  {
    "name": "uppugunduru",
    "cc2": "02",
    "latitude": 15.67009,
    "longitude": 80.16879
  },
  {
    "name": "uppalapadu",
    "cc2": "02",
    "latitude": 15.88725,
    "longitude": 79.91156
  },
  {
    "name": "uppalapadu",
    "cc2": "02",
    "latitude": 15.58267,
    "longitude": 79.7567
  },
  {
    "name": "uppalapadu",
    "cc2": "02",
    "latitude": 15.17039,
    "longitude": 78.044
  },
  {
    "name": "uppalaguptam",
    "cc2": "02",
    "latitude": 16.55326,
    "longitude": 82.09749
  },
  {
    "name": "uppada",
    "cc2": "02",
    "latitude": 17.08333,
    "longitude": 82.33333
  },
  {
    "name": "undi",
    "cc2": "02",
    "latitude": 16.58542,
    "longitude": 81.46211
  },
  {
    "name": "undavalli",
    "cc2": "02",
    "latitude": 16.49566,
    "longitude": 80.58574
  },
  {
    "name": "ullapalem",
    "cc2": "02",
    "latitude": 15.23697,
    "longitude": 80.0712
  },
  {
    "name": "ulindakonda",
    "cc2": "02",
    "latitude": 15.64509,
    "longitude": 77.97152
  },
  {
    "name": "ulavapad",
    "cc2": "02",
    "latitude": 15.1665,
    "longitude": 79.99599
  },
  {
    "name": "udayagiri",
    "cc2": "02",
    "latitude": 14.87538,
    "longitude": 79.30861
  },
  {
    "name": "turpupundla",
    "cc2": "02",
    "latitude": 14.19075,
    "longitude": 79.7845
  },
  {
    "name": "turimerla",
    "cc2": "02",
    "latitude": 14.27568,
    "longitude": 79.73911
  },
  {
    "name": "tunkapalem",
    "cc2": "02",
    "latitude": 14.31136,
    "longitude": 79.83028
  },
  {
    "name": "tuni",
    "cc2": "02",
    "latitude": 17.35905,
    "longitude": 82.54607
  },
  {
    "name": "tumuluru",
    "cc2": "02",
    "latitude": 16.26999,
    "longitude": 80.75136
  },
  {
    "name": "tummurukota",
    "cc2": "02",
    "latitude": 16.55804,
    "longitude": 79.45814
  },
  {
    "name": "tummalatalupur",
    "cc2": "02",
    "latitude": 14.2957,
    "longitude": 79.69682
  },
  {
    "name": "tummalapenta",
    "cc2": "02",
    "latitude": 14.89974,
    "longitude": 80.0687
  },
  {
    "name": "tumbagarh",
    "cc2": "02",
    "latitude": 19.02228,
    "longitude": 84.45606
  },
  {
    "name": "tuggali",
    "cc2": "02",
    "latitude": 15.31379,
    "longitude": 77.54503
  },
  {
    "name": "tsundupalle",
    "cc2": "02",
    "latitude": 13.98092,
    "longitude": 78.9152
  },
  {
    "name": "tsandavolu",
    "cc2": "02",
    "latitude": 16.00752,
    "longitude": 80.61218
  },
  {
    "name": "tsadumu",
    "cc2": "02",
    "latitude": 13.66385,
    "longitude": 78.0998
  },
  {
    "name": "tsadum",
    "cc2": "02",
    "latitude": 13.5479,
    "longitude": 78.90752
  },
  {
    "name": "tripurantakam",
    "cc2": "02",
    "latitude": 15.99962,
    "longitude": 79.45674
  },
  {
    "name": "totapalliguduru",
    "cc2": "02",
    "latitude": 14.38915,
    "longitude": 80.08322
  },
  {
    "name": "totakurapalem",
    "cc2": "02",
    "latitude": 17.68908,
    "longitude": 82.80712
  },
  {
    "name": "tonduru",
    "cc2": "02",
    "latitude": 14.57544,
    "longitude": 78.28102
  },
  {
    "name": "tondangi",
    "cc2": "02",
    "latitude": 17.24751,
    "longitude": 82.47819
  },
  {
    "name": "tokapalle",
    "cc2": "02",
    "latitude": 15.88392,
    "longitude": 79.28578
  },
  {
    "name": "tokalapudi",
    "cc2": "02",
    "latitude": 14.16116,
    "longitude": 79.68357
  },
  {
    "name": "togarakunta",
    "cc2": "02",
    "latitude": 14.4895,
    "longitude": 77.46007
  },
  {
    "name": "toderu",
    "cc2": "02",
    "latitude": 14.41177,
    "longitude": 79.76568
  },
  {
    "name": "tirupati",
    "cc2": "02",
    "latitude": 13.63551,
    "longitude": 79.41989
  },
  {
    "name": "tirumala",
    "cc2": "02",
    "latitude": 13.68333,
    "longitude": 79.35
  },
  {
    "name": "tippireddipalli",
    "cc2": "02",
    "latitude": 14.17059,
    "longitude": 79.70242
  },
  {
    "name": "tippavarapadu",
    "cc2": "02",
    "latitude": 14.16174,
    "longitude": 79.77841
  },
  {
    "name": "tipanuru",
    "cc2": "02",
    "latitude": 14.09145,
    "longitude": 79.8555
  },
  {
    "name": "timmasamudram",
    "cc2": "02",
    "latitude": 13.63993,
    "longitude": 79.7315
  },
  {
    "name": "timmareddipalle",
    "cc2": "02",
    "latitude": 15.47831,
    "longitude": 79.36833
  },
  {
    "name": "timmapuram",
    "cc2": "02",
    "latitude": 17.38333,
    "longitude": 82.03333
  },
  {
    "name": "timmanayudupeta",
    "cc2": "02",
    "latitude": 14.70828,
    "longitude": 79.21711
  },
  {
    "name": "timmanayanipeta",
    "cc2": "02",
    "latitude": 15.0203,
    "longitude": 78.15946
  },
  {
    "name": "tilaru",
    "cc2": "02",
    "latitude": 18.47869,
    "longitude": 84.0775
  },
  {
    "name": "tikkavadipalem",
    "cc2": "02",
    "latitude": 17.73333,
    "longitude": 83.28333
  },
  {
    "name": "thulipalem",
    "cc2": "02",
    "latitude": 14.75256,
    "longitude": 80.10719
  },
  {
    "name": "tettu",
    "cc2": "02",
    "latitude": 15.05153,
    "longitude": 80.00375
  },
  {
    "name": "thenali",
    "cc2": "02",
    "latitude": 16.24253,
    "longitude": 80.63982
  },
  {
    "name": "temburu",
    "cc2": "02",
    "latitude": 18.63066,
    "longitude": 84.12898
  },
  {
    "name": "tekkali",
    "cc2": "02",
    "latitude": 18.6057,
    "longitude": 84.23546
  },
  {
    "name": "tayyuru",
    "cc2": "02",
    "latitude": 13.29954,
    "longitude": 79.30802
  },
  {
    "name": "tatiparti",
    "cc2": "02",
    "latitude": 14.51611,
    "longitude": 79.76661
  },
  {
    "name": "taticherla",
    "cc2": "02",
    "latitude": 15.38343,
    "longitude": 79.04536
  },
  {
    "name": "tarlupadu",
    "cc2": "02",
    "latitude": 15.65708,
    "longitude": 79.22379
  },
  {
    "name": "tarlakota",
    "cc2": "02",
    "latitude": 18.8031,
    "longitude": 84.40278
  },
  {
    "name": "tarigonda",
    "cc2": "02",
    "latitude": 13.69318,
    "longitude": 78.62834
  },
  {
    "name": "tanuku",
    "cc2": "02",
    "latitude": 16.75438,
    "longitude": 81.68143
  },
  {
    "name": "tanisahippeta",
    "cc2": "02",
    "latitude": 18.33333,
    "longitude": 84.11667
  },
  {
    "name": "tanguturu",
    "cc2": "02",
    "latitude": 15.33921,
    "longitude": 80.04006
  },
  {
    "name": "tangeda",
    "cc2": "02",
    "latitude": 16.66736,
    "longitude": 79.81714
  },
  {
    "name": "tanguturu",
    "cc2": "02",
    "latitude": 14.29537,
    "longitude": 79.22216
  },
  {
    "name": "tanakallu",
    "cc2": "02",
    "latitude": 13.92002,
    "longitude": 78.19493
  },
  {
    "name": "tammenapatam",
    "cc2": "02",
    "latitude": 14.23272,
    "longitude": 80.1023
  },
  {
    "name": "tamballapalle",
    "cc2": "02",
    "latitude": 13.82204,
    "longitude": 78.45174
  },
  {
    "name": "talupula",
    "cc2": "02",
    "latitude": 14.24148,
    "longitude": 78.25848
  },
  {
    "name": "tallapalem",
    "cc2": "02",
    "latitude": 17.63342,
    "longitude": 82.89038
  },
  {
    "name": "talamanchipatnam",
    "cc2": "02",
    "latitude": 14.94492,
    "longitude": 78.31144
  },
  {
    "name": "talagadadivi",
    "cc2": "02",
    "latitude": 15.91725,
    "longitude": 80.93067
  },
  {
    "name": "tadpatri",
    "cc2": "02",
    "latitude": 14.90832,
    "longitude": 78.01031
  },
  {
    "name": "tadivaripalle",
    "cc2": "02",
    "latitude": 15.59336,
    "longitude": 79.27886
  },
  {
    "name": "tadimarri",
    "cc2": "02",
    "latitude": 14.56222,
    "longitude": 77.85895
  },
  {
    "name": "tadikonda",
    "cc2": "02",
    "latitude": 16.41837,
    "longitude": 80.45485
  },
  {
    "name": "tadikalapudi",
    "cc2": "02",
    "latitude": 16.89974,
    "longitude": 81.17536
  },
  {
    "name": "tadepallegudem",
    "cc2": "02",
    "latitude": 16.81467,
    "longitude": 81.52717
  },
  {
    "name": "tadepalle",
    "cc2": "02",
    "latitude": 16.48333,
    "longitude": 80.6
  },
  {
    "name": "tadepalle",
    "cc2": "02",
    "latitude": 16.48458,
    "longitude": 80.60678
  },
  {
    "name": "tada",
    "cc2": "02",
    "latitude": 13.58593,
    "longitude": 80.0315
  },
  {
    "name": "suryalanka",
    "cc2": "02",
    "latitude": 15.84752,
    "longitude": 80.52724
  },
  {
    "name": "suriapalem",
    "cc2": "02",
    "latitude": 16.54914,
    "longitude": 80.56248
  },
  {
    "name": "surareddipalem",
    "cc2": "02",
    "latitude": 15.41211,
    "longitude": 80.04943
  },
  {
    "name": "suntadasupalli",
    "cc2": "02",
    "latitude": 14.21968,
    "longitude": 79.82489
  },
  {
    "name": "sunkarimetta",
    "cc2": "02",
    "latitude": 18.27294,
    "longitude": 82.96581
  },
  {
    "name": "sundi penta",
    "cc2": "02",
    "latitude": 16.07625,
    "longitude": 78.907
  },
  {
    "name": "suluru",
    "cc2": "02",
    "latitude": 13.7,
    "longitude": 80.01667
  },
  {
    "name": "srungavarapukota",
    "cc2": "02",
    "latitude": 18.11084,
    "longitude": 83.13996
  },
  {
    "name": "srisailain",
    "cc2": "02",
    "latitude": 16.07217,
    "longitude": 78.86816
  },
  {
    "name": "srikurmam",
    "cc2": "02",
    "latitude": 18.27085,
    "longitude": 84.00442
  },
  {
    "name": "srikakulam",
    "cc2": "02",
    "latitude": 18.2989,
    "longitude": 83.89751
  },
  {
    "name": "srikakulam",
    "cc2": "02",
    "latitude": 16.19645,
    "longitude": 80.84671
  },
  {
    "name": "srigiripadu",
    "cc2": "02",
    "latitude": 16.30549,
    "longitude": 79.32777
  },
  {
    "name": "sompeta",
    "cc2": "02",
    "latitude": 18.94419,
    "longitude": 84.58449
  },
  {
    "name": "somidevipalle",
    "cc2": "02",
    "latitude": 15.45718,
    "longitude": 79.03842
  },
  {
    "name": "somavaram",
    "cc2": "02",
    "latitude": 17.22708,
    "longitude": 82.11812
  },
  {
    "name": "somala",
    "cc2": "02",
    "latitude": 13.47476,
    "longitude": 78.81007
  },
  {
    "name": "sivarampuram",
    "cc2": "02",
    "latitude": 18.53545,
    "longitude": 83.24321
  },
  {
    "name": "sivajipalem",
    "cc2": "02",
    "latitude": 17.73333,
    "longitude": 83.33333
  },
  {
    "name": "sitarampuram",
    "cc2": "02",
    "latitude": 15.01587,
    "longitude": 79.13674
  },
  {
    "name": "sitaramapuram",
    "cc2": "02",
    "latitude": 14.71963,
    "longitude": 78.66667
  },
  {
    "name": "sitanagaram",
    "cc2": "02",
    "latitude": 18.65584,
    "longitude": 83.3771
  },
  {
    "name": "sitanagaram",
    "cc2": "02",
    "latitude": 17.18333,
    "longitude": 81.7
  },
  {
    "name": "sitanagaram",
    "cc2": "02",
    "latitude": 16.49332,
    "longitude": 80.61096
  },
  {
    "name": "sitammapeta",
    "cc2": "02",
    "latitude": 17.73333,
    "longitude": 83.31667
  },
  {
    "name": "sirvel",
    "cc2": "02",
    "latitude": 15.32102,
    "longitude": 78.53439
  },
  {
    "name": "singarayakonda",
    "cc2": "02",
    "latitude": 15.23046,
    "longitude": 80.02794
  },
  {
    "name": "singanamala",
    "cc2": "02",
    "latitude": 14.80031,
    "longitude": 77.71876
  },
  {
    "name": "simhagadda",
    "cc2": "02",
    "latitude": 18.59252,
    "longitude": 83.02453
  },
  {
    "name": "simhadripuram",
    "cc2": "02",
    "latitude": 14.62991,
    "longitude": 78.12797
  },
  {
    "name": "simhachalam",
    "cc2": "02",
    "latitude": 17.76675,
    "longitude": 83.24986
  },
  {
    "name": "sileru",
    "cc2": "02",
    "latitude": 18.04802,
    "longitude": 82.03444
  },
  {
    "name": "sigadam",
    "cc2": "02",
    "latitude": 18.37869,
    "longitude": 83.68175
  },
  {
    "name": "siddhavattam",
    "cc2": "02",
    "latitude": 14.46795,
    "longitude": 78.96948
  },
  {
    "name": "siddeswaram",
    "cc2": "02",
    "latitude": 16.03365,
    "longitude": 78.32926
  },
  {
    "name": "setturu",
    "cc2": "02",
    "latitude": 14.44801,
    "longitude": 76.98224
  },
  {
    "name": "settigunta",
    "cc2": "02",
    "latitude": 13.85398,
    "longitude": 79.39776
  },
  {
    "name": "satyavedu",
    "cc2": "02",
    "latitude": 13.43661,
    "longitude": 79.95774
  },
  {
    "name": "sattenapalle",
    "cc2": "02",
    "latitude": 16.39381,
    "longitude": 80.15221
  },
  {
    "name": "sattavada",
    "cc2": "02",
    "latitude": 17.7064,
    "longitude": 81.68839
  },
  {
    "name": "sarvakota",
    "cc2": "02",
    "latitude": 18.59214,
    "longitude": 84.05307
  },
  {
    "name": "santajuturu",
    "cc2": "02",
    "latitude": 15.62619,
    "longitude": 78.53379
  },
  {
    "name": "sankarayalapeta",
    "cc2": "02",
    "latitude": 13.22367,
    "longitude": 78.61258
  },
  {
    "name": "sanjemula",
    "cc2": "02",
    "latitude": 15.14741,
    "longitude": 78.29926
  },
  {
    "name": "sangam",
    "cc2": "02",
    "latitude": 14.58508,
    "longitude": 79.7462
  },
  {
    "name": "sandrapodu",
    "cc2": "02",
    "latitude": 15.32189,
    "longitude": 78.77955
  },
  {
    "name": "sanagalaguduru",
    "cc2": "02",
    "latitude": 14.81381,
    "longitude": 78.0403
  },
  {
    "name": "samalkot",
    "cc2": "02",
    "latitude": 17.05675,
    "longitude": 82.17639
  },
  {
    "name": "salur",
    "cc2": "02",
    "latitude": 18.51716,
    "longitude": 83.20548
  },
  {
    "name": "saidapuram",
    "cc2": "02",
    "latitude": 14.1774,
    "longitude": 79.74277
  },
  {
    "name": "sabbavaram",
    "cc2": "02",
    "latitude": 17.79202,
    "longitude": 83.12691
  },
  {
    "name": "rudravaram",
    "cc2": "02",
    "latitude": 15.24257,
    "longitude": 78.60432
  },
  {
    "name": "rudakota",
    "cc2": "02",
    "latitude": 18.29351,
    "longitude": 82.45949
  },
  {
    "name": "rollapenta",
    "cc2": "02",
    "latitude": 15.88419,
    "longitude": 78.82422
  },
  {
    "name": "rolla",
    "cc2": "02",
    "latitude": 13.84152,
    "longitude": 77.10095
  },
  {
    "name": "roddam",
    "cc2": "02",
    "latitude": 14.094,
    "longitude": 77.42787
  },
  {
    "name": "rettapalli",
    "cc2": "02",
    "latitude": 14.08807,
    "longitude": 79.87916
  },
  {
    "name": "repalle",
    "cc2": "02",
    "latitude": 16.0184,
    "longitude": 80.82958
  },
  {
    "name": "rentachintala",
    "cc2": "02",
    "latitude": 16.55236,
    "longitude": 79.55325
  },
  {
    "name": "renigunta",
    "cc2": "02",
    "latitude": 13.65143,
    "longitude": 79.51256
  },
  {
    "name": "remidicherla",
    "cc2": "02",
    "latitude": 16.28102,
    "longitude": 79.65007
  },
  {
    "name": "relangi",
    "cc2": "02",
    "latitude": 16.71667,
    "longitude": 81.66667
  },
  {
    "name": "regadipalle",
    "cc2": "02",
    "latitude": 14.81217,
    "longitude": 78.14669
  },
  {
    "name": "regadiguduru",
    "cc2": "02",
    "latitude": 15.71325,
    "longitude": 78.47832
  },
  {
    "name": "reddivaripalle",
    "cc2": "02",
    "latitude": 14.26749,
    "longitude": 78.19881
  },
  {
    "name": "reddipalli",
    "cc2": "02",
    "latitude": 14.08972,
    "longitude": 79.22901
  },
  {
    "name": "razole",
    "cc2": "02",
    "latitude": 16.47608,
    "longitude": 81.83912
  },
  {
    "name": "razam",
    "cc2": "02",
    "latitude": 18.44909,
    "longitude": 83.65957
  },
  {
    "name": "rayavaram",
    "cc2": "02",
    "latitude": 15.71695,
    "longitude": 79.31242
  },
  {
    "name": "rayanapadu",
    "cc2": "02",
    "latitude": 16.57367,
    "longitude": 80.56864
  },
  {
    "name": "rayalapeta",
    "cc2": "02",
    "latitude": 13.32986,
    "longitude": 78.72509
  },
  {
    "name": "rayalacheruvu",
    "cc2": "02",
    "latitude": 15.05254,
    "longitude": 77.81756
  },
  {
    "name": "rayadrug",
    "cc2": "02",
    "latitude": 14.69971,
    "longitude": 76.85241
  },
  {
    "name": "rayachoti",
    "cc2": "02",
    "latitude": 14.05723,
    "longitude": 78.75056
  },
  {
    "name": "ravutulapudi",
    "cc2": "02",
    "latitude": 17.37643,
    "longitude": 82.37134
  },
  {
    "name": "ratti",
    "cc2": "02",
    "latitude": 18.81815,
    "longitude": 84.54425
  },
  {
    "name": "rasapudipalem",
    "cc2": "02",
    "latitude": 17.73308,
    "longitude": 83.31622
  },
  {
    "name": "rapur",
    "cc2": "02",
    "latitude": 14.20216,
    "longitude": 79.53521
  },
  {
    "name": "rangapuram",
    "cc2": "02",
    "latitude": 15.40923,
    "longitude": 78.07459
  },
  {
    "name": "ramayapatnam",
    "cc2": "02",
    "latitude": 15.04677,
    "longitude": 80.04431
  },
  {
    "name": "ramavaram",
    "cc2": "02",
    "latitude": 17.67976,
    "longitude": 81.95694
  },
  {
    "name": "ramasamudram",
    "cc2": "02",
    "latitude": 13.36664,
    "longitude": 78.42438
  },
  {
    "name": "ramapuram",
    "cc2": "02",
    "latitude": 15.28749,
    "longitude": 77.86722
  },
  {
    "name": "ramapuram",
    "cc2": "02",
    "latitude": 13.10091,
    "longitude": 79.1841
  },
  {
    "name": "ramanakkapeta",
    "cc2": "02",
    "latitude": 16.88545,
    "longitude": 80.87344
  },
  {
    "name": "ramallakota",
    "cc2": "02",
    "latitude": 15.57105,
    "longitude": 78.00165
  },
  {
    "name": "ramakuppam",
    "cc2": "02",
    "latitude": 12.90013,
    "longitude": 78.4857
  },
  {
    "name": "ramagiri",
    "cc2": "02",
    "latitude": 14.3055,
    "longitude": 77.497
  },
  {
    "name": "ramachandrapuram",
    "cc2": "02",
    "latitude": 16.83636,
    "longitude": 82.02871
  },
  {
    "name": "ramabhadrapuram",
    "cc2": "02",
    "latitude": 18.49682,
    "longitude": 83.27849
  },
  {
    "name": "rajupalem",
    "cc2": "02",
    "latitude": 14.21872,
    "longitude": 79.70217
  },
  {
    "name": "razupalem",
    "cc2": "02",
    "latitude": 14.1138,
    "longitude": 79.73219
  },
  {
    "name": "rajapur",
    "cc2": "02",
    "latitude": 19.04317,
    "longitude": 84.66852
  },
  {
    "name": "rajanagaram",
    "cc2": "02",
    "latitude": 17.08333,
    "longitude": 81.9
  },
  {
    "name": "razampeta",
    "cc2": "02",
    "latitude": 14.19544,
    "longitude": 79.15896
  },
  {
    "name": "rajamahendravaram",
    "cc2": "02",
    "latitude": 17.00517,
    "longitude": 81.77784
  },
  {
    "name": "rahimanpuram",
    "cc2": "02",
    "latitude": 15.4041,
    "longitude": 78.05136
  },
  {
    "name": "racherla",
    "cc2": "02",
    "latitude": 15.46298,
    "longitude": 78.96587
  },
  {
    "name": "rachaveli",
    "cc2": "02",
    "latitude": 14.94723,
    "longitude": 78.5067
  },
  {
    "name": "pyapali",
    "cc2": "02",
    "latitude": 15.23318,
    "longitude": 77.74232
  },
  {
    "name": "puttur",
    "cc2": "02",
    "latitude": 13.44189,
    "longitude": 79.55314
  },
  {
    "name": "putluru",
    "cc2": "02",
    "latitude": 14.80984,
    "longitude": 77.96572
  },
  {
    "name": "putalapattu",
    "cc2": "02",
    "latitude": 13.34624,
    "longitude": 79.09351
  },
  {
    "name": "punganuru",
    "cc2": "02",
    "latitude": 13.36672,
    "longitude": 78.57186
  },
  {
    "name": "pundi",
    "cc2": "02",
    "latitude": 18.66093,
    "longitude": 84.3631
  },
  {
    "name": "pullampet",
    "cc2": "02",
    "latitude": 14.1242,
    "longitude": 79.20831
  },
  {
    "name": "pullalacheruvu",
    "cc2": "02",
    "latitude": 16.15853,
    "longitude": 79.4312
  },
  {
    "name": "pulivendla",
    "cc2": "02",
    "latitude": 14.42139,
    "longitude": 78.22502
  },
  {
    "name": "pulinjerikuppam",
    "cc2": "02",
    "latitude": 13.60851,
    "longitude": 80.24421
  },
  {
    "name": "pudimadaka",
    "cc2": "02",
    "latitude": 17.49825,
    "longitude": 83.00498
  },
  {
    "name": "proddatur",
    "cc2": "02",
    "latitude": 14.7502,
    "longitude": 78.54813
  },
  {
    "name": "priya",
    "cc2": "02",
    "latitude": 18.42347,
    "longitude": 84.141
  },
  {
    "name": "pratur",
    "cc2": "02",
    "latitude": 16.46644,
    "longitude": 80.63734
  },
  {
    "name": "prattipadu",
    "cc2": "02",
    "latitude": 17.22982,
    "longitude": 82.19378
  },
  {
    "name": "prattipadu",
    "cc2": "02",
    "latitude": 16.18196,
    "longitude": 80.33444
  },
  {
    "name": "pratakota",
    "cc2": "02",
    "latitude": 15.95,
    "longitude": 78.38333
  },
  {
    "name": "prakkilanka",
    "cc2": "02",
    "latitude": 17.13333,
    "longitude": 81.66667
  },
  {
    "name": "prabhagiripatnam",
    "cc2": "02",
    "latitude": 14.45736,
    "longitude": 79.74819
  },
  {
    "name": "prabhagiripatnam",
    "cc2": "02",
    "latitude": 14.45,
    "longitude": 79.23333
  },
  {
    "name": "potakamuru",
    "cc2": "02",
    "latitude": 15.74205,
    "longitude": 79.7716
  },
  {
    "name": "porumamilla",
    "cc2": "02",
    "latitude": 15.00901,
    "longitude": 78.98918
  },
  {
    "name": "ponnuru",
    "cc2": "02",
    "latitude": 16.06547,
    "longitude": 80.55203
  },
  {
    "name": "ponnaluru",
    "cc2": "02",
    "latitude": 15.2725,
    "longitude": 79.79921
  },
  {
    "name": "ponduru",
    "cc2": "02",
    "latitude": 15.41653,
    "longitude": 79.92643
  },
  {
    "name": "polukallu",
    "cc2": "02",
    "latitude": 15.82839,
    "longitude": 77.74313
  },
  {
    "name": "polluru",
    "cc2": "02",
    "latitude": 17.86257,
    "longitude": 81.65181
  },
  {
    "name": "polavaram",
    "cc2": "02",
    "latitude": 17.24754,
    "longitude": 81.64372
  },
  {
    "name": "polatala",
    "cc2": "02",
    "latitude": 14.3727,
    "longitude": 78.68026
  },
  {
    "name": "polaki",
    "cc2": "02",
    "latitude": 18.37215,
    "longitude": 84.10272
  },
  {
    "name": "polakampad",
    "cc2": "02",
    "latitude": 16.48729,
    "longitude": 80.59978
  },
  {
    "name": "poladpur",
    "cc2": "02",
    "latitude": 17.98333,
    "longitude": 83.46667
  },
  {
    "name": "pokuru",
    "cc2": "02",
    "latitude": 15.17262,
    "longitude": 79.82246
  },
  {
    "name": "pokkandala",
    "cc2": "02",
    "latitude": 14.23176,
    "longitude": 79.74844
  },
  {
    "name": "podili",
    "cc2": "02",
    "latitude": 15.60639,
    "longitude": 79.61489
  },
  {
    "name": "podalakur",
    "cc2": "02",
    "latitude": 14.38481,
    "longitude": 79.73366
  },
  {
    "name": "pithapuram",
    "cc2": "02",
    "latitude": 17.1168,
    "longitude": 82.25284
  },
  {
    "name": "pippara",
    "cc2": "02",
    "latitude": 16.71667,
    "longitude": 81.55
  },
  {
    "name": "pillutla",
    "cc2": "02",
    "latitude": 16.539,
    "longitude": 79.90435
  },
  {
    "name": "pileru",
    "cc2": "02",
    "latitude": 13.65584,
    "longitude": 78.93854
  },
  {
    "name": "piduguralla",
    "cc2": "02",
    "latitude": 16.47926,
    "longitude": 79.88632
  },
  {
    "name": "phirangipuram",
    "cc2": "02",
    "latitude": 16.29078,
    "longitude": 80.26233
  },
  {
    "name": "petmanhalli",
    "cc2": "02",
    "latitude": 17.76878,
    "longitude": 77.50564
  },
  {
    "name": "peruru",
    "cc2": "02",
    "latitude": 14.35031,
    "longitude": 77.34969
  },
  {
    "name": "penumur",
    "cc2": "02",
    "latitude": 13.37025,
    "longitude": 79.19631
  },
  {
    "name": "penumaka",
    "cc2": "02",
    "latitude": 16.48402,
    "longitude": 80.57719
  },
  {
    "name": "penukonda",
    "cc2": "02",
    "latitude": 14.08286,
    "longitude": 77.59473
  },
  {
    "name": "penuguduru",
    "cc2": "02",
    "latitude": 16.91667,
    "longitude": 82.2
  },
  {
    "name": "penugonda",
    "cc2": "02",
    "latitude": 16.65363,
    "longitude": 81.7455
  },
  {
    "name": "penuganchiprolu",
    "cc2": "02",
    "latitude": 16.90324,
    "longitude": 80.24625
  },
  {
    "name": "pentakota",
    "cc2": "02",
    "latitude": 17.30094,
    "longitude": 82.61124
  },
  {
    "name": "pennalurupet",
    "cc2": "02",
    "latitude": 13.3084,
    "longitude": 79.85515
  },
  {
    "name": "pendurti",
    "cc2": "02",
    "latitude": 17.82781,
    "longitude": 83.20215
  },
  {
    "name": "penchupadu",
    "cc2": "02",
    "latitude": 13.47466,
    "longitude": 78.45688
  },
  {
    "name": "penagaluru",
    "cc2": "02",
    "latitude": 14.30611,
    "longitude": 79.2623
  },
  {
    "name": "pellakuru",
    "cc2": "02",
    "latitude": 13.83025,
    "longitude": 79.81032
  },
  {
    "name": "pedduru",
    "cc2": "02",
    "latitude": 12.80704,
    "longitude": 78.56672
  },
  {
    "name": "pedda waltair",
    "cc2": "02",
    "latitude": 17.73378,
    "longitude": 83.33225
  },
  {
    "name": "peddavullagallu",
    "cc2": "02",
    "latitude": 15.80428,
    "longitude": 79.76083
  },
  {
    "name": "peddavalasa",
    "cc2": "02",
    "latitude": 17.78211,
    "longitude": 82.27075
  },
  {
    "name": "peddatippasamudram",
    "cc2": "02",
    "latitude": 13.71295,
    "longitude": 78.20755
  },
  {
    "name": "pedda sana",
    "cc2": "02",
    "latitude": 18.58054,
    "longitude": 84.18089
  },
  {
    "name": "peddapuram",
    "cc2": "02",
    "latitude": 17.07701,
    "longitude": 82.13836
  },
  {
    "name": "peddapudi",
    "cc2": "02",
    "latitude": 16.96667,
    "longitude": 82.16667
  },
  {
    "name": "peddapavani",
    "cc2": "02",
    "latitude": 15.00858,
    "longitude": 79.81153
  },
  {
    "name": "peddapatnam",
    "cc2": "02",
    "latitude": 16.28562,
    "longitude": 81.27298
  },
  {
    "name": "peddapasupula",
    "cc2": "02",
    "latitude": 14.88072,
    "longitude": 78.44638
  },
  {
    "name": "peddapariya",
    "cc2": "02",
    "latitude": 14.02963,
    "longitude": 79.87292
  },
  {
    "name": "pedda palipeta",
    "cc2": "02",
    "latitude": 18.35,
    "longitude": 84.13333
  },
  {
    "name": "peddapadu",
    "cc2": "02",
    "latitude": 16.6392,
    "longitude": 81.03691
  },
  {
    "name": "peddamudiyam",
    "cc2": "02",
    "latitude": 15.01154,
    "longitude": 78.45144
  },
  {
    "name": "peddamallepalle",
    "cc2": "02",
    "latitude": 14.72699,
    "longitude": 78.05658
  },
  {
    "name": "pedda machchilisam",
    "cc2": "02",
    "latitude": 18.33271,
    "longitude": 84.12149
  },
  {
    "name": "peddakurapadu",
    "cc2": "02",
    "latitude": 16.47101,
    "longitude": 80.25675
  },
  {
    "name": "pedda irlapadu",
    "cc2": "02",
    "latitude": 15.20122,
    "longitude": 79.58773
  },
  {
    "name": "pedda ganjam",
    "cc2": "02",
    "latitude": 15.64428,
    "longitude": 80.22992
  },
  {
    "name": "pedda dokulapadu",
    "cc2": "02",
    "latitude": 18.72046,
    "longitude": 84.45929
  },
  {
    "name": "peddacheruvu",
    "cc2": "02",
    "latitude": 15.97038,
    "longitude": 78.83821
  },
  {
    "name": "peddachappalle",
    "cc2": "02",
    "latitude": 14.55296,
    "longitude": 78.62724
  },
  {
    "name": "peddachama",
    "cc2": "02",
    "latitude": 15.9358,
    "longitude": 78.92954
  },
  {
    "name": "peddaballe",
    "cc2": "02",
    "latitude": 13.98624,
    "longitude": 78.39306
  },
  {
    "name": "pedda arikatla",
    "cc2": "02",
    "latitude": 15.52249,
    "longitude": 79.52689
  },
  {
    "name": "peddaravidu",
    "cc2": "02",
    "latitude": 15.81306,
    "longitude": 79.2208
  },
  {
    "name": "peddaalavalapadu",
    "cc2": "02",
    "latitude": 15.32806,
    "longitude": 79.62475
  },
  {
    "name": "pedda ahobilam",
    "cc2": "02",
    "latitude": 15.12449,
    "longitude": 78.73502
  },
  {
    "name": "pedana",
    "cc2": "02",
    "latitude": 16.25582,
    "longitude": 81.14378
  },
  {
    "name": "payikapuram",
    "cc2": "02",
    "latitude": 16.54818,
    "longitude": 80.6492
  },
  {
    "name": "payalakunta",
    "cc2": "02",
    "latitude": 14.87716,
    "longitude": 79.01881
  },
  {
    "name": "pattikonda",
    "cc2": "02",
    "latitude": 15.39501,
    "longitude": 77.5043
  },
  {
    "name": "pattikonda",
    "cc2": "02",
    "latitude": 13.18322,
    "longitude": 78.63918
  },
  {
    "name": "pattangi",
    "cc2": "02",
    "latitude": 18.92028,
    "longitude": 84.48999
  },
  {
    "name": "patrapur",
    "cc2": "02",
    "latitude": 19.13198,
    "longitude": 84.57036
  },
  {
    "name": "patnam",
    "cc2": "02",
    "latitude": 14.23453,
    "longitude": 78.09523
  },
  {
    "name": "pata polavaram",
    "cc2": "02",
    "latitude": 17.39798,
    "longitude": 82.81857
  },
  {
    "name": "patapatnam",
    "cc2": "02",
    "latitude": 18.74888,
    "longitude": 84.08891
  },
  {
    "name": "patamatalanka",
    "cc2": "02",
    "latitude": 16.49283,
    "longitude": 80.65403
  },
  {
    "name": "patamata",
    "cc2": "02",
    "latitude": 16.49327,
    "longitude": 80.66123
  },
  {
    "name": "patakottacheruvu",
    "cc2": "02",
    "latitude": 15.1592,
    "longitude": 77.51104
  },
  {
    "name": "patagunta",
    "cc2": "02",
    "latitude": 13.43619,
    "longitude": 79.28224
  },
  {
    "name": "pasupugallu",
    "cc2": "02",
    "latitude": 15.80529,
    "longitude": 79.80087
  },
  {
    "name": "pasaluru",
    "cc2": "02",
    "latitude": 14.64743,
    "longitude": 77.67107
  },
  {
    "name": "parvatipuram",
    "cc2": "02",
    "latitude": 18.78392,
    "longitude": 83.42569
  },
  {
    "name": "parumanchala",
    "cc2": "02",
    "latitude": 15.79754,
    "longitude": 78.40187
  },
  {
    "name": "paruchuru",
    "cc2": "02",
    "latitude": 15.97091,
    "longitude": 80.27493
  },
  {
    "name": "partiala",
    "cc2": "02",
    "latitude": 16.65872,
    "longitude": 80.40901
  },
  {
    "name": "parnapalle",
    "cc2": "02",
    "latitude": 14.56883,
    "longitude": 77.97155
  },
  {
    "name": "parlapalli",
    "cc2": "02",
    "latitude": 14.35075,
    "longitude": 79.75591
  },
  {
    "name": "parigi",
    "cc2": "02",
    "latitude": 13.89255,
    "longitude": 77.45965
  },
  {
    "name": "paravada",
    "cc2": "02",
    "latitude": 17.62828,
    "longitude": 83.07925
  },
  {
    "name": "paradarami",
    "cc2": "02",
    "latitude": 13.06789,
    "longitude": 78.97387
  },
  {
    "name": "paniem",
    "cc2": "02",
    "latitude": 15.51777,
    "longitude": 78.3485
  },
  {
    "name": "panapakkam",
    "cc2": "02",
    "latitude": 13.49671,
    "longitude": 79.20936
  },
  {
    "name": "pamuru",
    "cc2": "02",
    "latitude": 15.09633,
    "longitude": 79.41174
  },
  {
    "name": "pamudurti",
    "cc2": "02",
    "latitude": 14.26967,
    "longitude": 77.97266
  },
  {
    "name": "pamidi",
    "cc2": "02",
    "latitude": 14.94623,
    "longitude": 77.59266
  },
  {
    "name": "pamarru",
    "cc2": "02",
    "latitude": 16.32544,
    "longitude": 80.9599
  },
  {
    "name": "paluru",
    "cc2": "02",
    "latitude": 14.12654,
    "longitude": 79.7164
  },
  {
    "name": "palugurallapalle",
    "cc2": "02",
    "latitude": 14.87003,
    "longitude": 78.93179
  },
  {
    "name": "palmaner",
    "cc2": "02",
    "latitude": 13.2,
    "longitude": 78.74725
  },
  {
    "name": "pallipeta",
    "cc2": "02",
    "latitude": 18.35356,
    "longitude": 84.10967
  },
  {
    "name": "pallevada",
    "cc2": "02",
    "latitude": 16.5779,
    "longitude": 81.29463
  },
  {
    "name": "pallapatla",
    "cc2": "02",
    "latitude": 15.98625,
    "longitude": 80.75827
  },
  {
    "name": "palkonda",
    "cc2": "02",
    "latitude": 18.60374,
    "longitude": 83.75568
  },
  {
    "name": "palicharlapadu",
    "cc2": "02",
    "latitude": 14.35748,
    "longitude": 79.8209
  },
  {
    "name": "palicherla",
    "cc2": "02",
    "latitude": 14.10657,
    "longitude": 79.80993
  },
  {
    "name": "palasamudram",
    "cc2": "02",
    "latitude": 13.95896,
    "longitude": 77.67514
  },
  {
    "name": "palasa",
    "cc2": "02",
    "latitude": 18.77257,
    "longitude": 84.41012
  },
  {
    "name": "palakollu",
    "cc2": "02",
    "latitude": 16.5167,
    "longitude": 81.73
  },
  {
    "name": "palagiri",
    "cc2": "02",
    "latitude": 14.45766,
    "longitude": 78.44536
  },
  {
    "name": "pakala",
    "cc2": "02",
    "latitude": 13.44903,
    "longitude": 79.11493
  },
  {
    "name": "pagidyala",
    "cc2": "02",
    "latitude": 15.93648,
    "longitude": 78.34238
  },
  {
    "name": "padmanabham",
    "cc2": "02",
    "latitude": 17.98931,
    "longitude": 83.3319
  },
  {
    "name": "paderu",
    "cc2": "02",
    "latitude": 18.07776,
    "longitude": 82.66037
  },
  {
    "name": "pachipenta",
    "cc2": "02",
    "latitude": 18.47962,
    "longitude": 83.11332
  },
  {
    "name": "owk",
    "cc2": "02",
    "latitude": 15.20882,
    "longitude": 78.11676
  },
  {
    "name": "vontimitta",
    "cc2": "02",
    "latitude": 14.39575,
    "longitude": 79.02673
  },
  {
    "name": "ongole",
    "cc2": "02",
    "latitude": 15.50357,
    "longitude": 80.04454
  },
  {
    "name": "olluru",
    "cc2": "02",
    "latitude": 13.51713,
    "longitude": 79.71933
  },
  {
    "name": "obulam",
    "cc2": "02",
    "latitude": 14.51425,
    "longitude": 79.19705
  },
  {
    "name": "nuzvid",
    "cc2": "02",
    "latitude": 16.78854,
    "longitude": 80.84593
  },
  {
    "name": "nuvalrevu",
    "cc2": "02",
    "latitude": 18.67793,
    "longitude": 84.43818
  },
  {
    "name": "nutimadugu",
    "cc2": "02",
    "latitude": 14.49186,
    "longitude": 77.32558
  },
  {
    "name": "natalapadu",
    "cc2": "02",
    "latitude": 15.93661,
    "longitude": 80.22972
  },
  {
    "name": "nossam",
    "cc2": "02",
    "latitude": 14.9886,
    "longitude": 78.39154
  },
  {
    "name": "nizampatnam",
    "cc2": "02",
    "latitude": 15.90489,
    "longitude": 80.66858
  },
  {
    "name": "nindali",
    "cc2": "02",
    "latitude": 14.10745,
    "longitude": 79.69771
  },
  {
    "name": "nimbagallu",
    "cc2": "02",
    "latitude": 14.88814,
    "longitude": 77.20843
  },
  {
    "name": "nidumolu",
    "cc2": "02",
    "latitude": 16.26667,
    "longitude": 81.03333
  },
  {
    "name": "nidubrolu",
    "cc2": "02",
    "latitude": 16.06667,
    "longitude": 80.56667
  },
  {
    "name": "nidadavole",
    "cc2": "02",
    "latitude": 16.90572,
    "longitude": 81.67222
  },
  {
    "name": "nerijamupalle",
    "cc2": "02",
    "latitude": 14.54291,
    "longitude": 78.01407
  },
  {
    "name": "nereducherla",
    "cc2": "02",
    "latitude": 15.20558,
    "longitude": 77.90766
  },
  {
    "name": "nerabylu",
    "cc2": "02",
    "latitude": 13.74962,
    "longitude": 79.16326
  },
  {
    "name": "nemalladinne",
    "cc2": "02",
    "latitude": 14.96327,
    "longitude": 78.48594
  },
  {
    "name": "nellurapalem",
    "cc2": "02",
    "latitude": 14.64745,
    "longitude": 79.61394
  },
  {
    "name": "nellore",
    "cc2": "02",
    "latitude": 14.44992,
    "longitude": 79.98697
  },
  {
    "name": "nellimarla",
    "cc2": "02",
    "latitude": 18.15619,
    "longitude": 83.44727
  },
  {
    "name": "nellaturu",
    "cc2": "02",
    "latitude": 14.15136,
    "longitude": 79.82448
  },
  {
    "name": "nekarikallu",
    "cc2": "02",
    "latitude": 16.37167,
    "longitude": 79.94235
  },
  {
    "name": "nayudupet",
    "cc2": "02",
    "latitude": 13.90742,
    "longitude": 79.89465
  },
  {
    "name": "nayakkaneri",
    "cc2": "02",
    "latitude": 12.9421,
    "longitude": 78.60347
  },
  {
    "name": "navutala",
    "cc2": "02",
    "latitude": 18.70093,
    "longitude": 84.03183
  },
  {
    "name": "navuru",
    "cc2": "02",
    "latitude": 14.48227,
    "longitude": 79.67472
  },
  {
    "name": "naupada",
    "cc2": "02",
    "latitude": 18.56193,
    "longitude": 84.29887
  },
  {
    "name": "narsipatnam",
    "cc2": "02",
    "latitude": 17.66709,
    "longitude": 82.61245
  },
  {
    "name": "narnuru",
    "cc2": "02",
    "latitude": 15.71533,
    "longitude": 78.08324
  },
  {
    "name": "narayanavanam",
    "cc2": "02",
    "latitude": 13.42565,
    "longitude": 79.58881
  },
  {
    "name": "narasingarayanpet",
    "cc2": "02",
    "latitude": 13.17579,
    "longitude": 79.20861
  },
  {
    "name": "narasingapuram",
    "cc2": "02",
    "latitude": 13.60759,
    "longitude": 79.31652
  },
  {
    "name": "narasimharaopalem",
    "cc2": "02",
    "latitude": 17.01835,
    "longitude": 80.82553
  },
  {
    "name": "narasaraopet",
    "cc2": "02",
    "latitude": 16.23488,
    "longitude": 80.04927
  },
  {
    "name": "narasapur",
    "cc2": "02",
    "latitude": 16.43425,
    "longitude": 81.69845
  },
  {
    "name": "narasannapeta",
    "cc2": "02",
    "latitude": 18.41428,
    "longitude": 84.04463
  },
  {
    "name": "narapala",
    "cc2": "02",
    "latitude": 14.71087,
    "longitude": 77.80835
  },
  {
    "name": "naranjigundlapalle",
    "cc2": "02",
    "latitude": 14.70632,
    "longitude": 77.05461
  },
  {
    "name": "naraharipeta",
    "cc2": "02",
    "latitude": 13.09113,
    "longitude": 79.13369
  },
  {
    "name": "nandyal",
    "cc2": "02",
    "latitude": 15.47799,
    "longitude": 78.4836
  },
  {
    "name": "nandivaya",
    "cc2": "02",
    "latitude": 14.43242,
    "longitude": 79.7332
  },
  {
    "name": "nandavaram",
    "cc2": "02",
    "latitude": 15.42375,
    "longitude": 78.3189
  },
  {
    "name": "nandipadu",
    "cc2": "02",
    "latitude": 15.03721,
    "longitude": 78.15671
  },
  {
    "name": "nandipadu",
    "cc2": "02",
    "latitude": 14.8039,
    "longitude": 79.34249
  },
  {
    "name": "nandikotkur",
    "cc2": "02",
    "latitude": 15.85668,
    "longitude": 78.26569
  },
  {
    "name": "nandigama",
    "cc2": "02",
    "latitude": 16.7717,
    "longitude": 80.28596
  },
  {
    "name": "nandigam",
    "cc2": "02",
    "latitude": 18.65418,
    "longitude": 84.30469
  },
  {
    "name": "nandavaram",
    "cc2": "02",
    "latitude": 15.85328,
    "longitude": 77.48478
  },
  {
    "name": "nandavaram",
    "cc2": "02",
    "latitude": 14.70003,
    "longitude": 79.46426
  },
  {
    "name": "nandanavanam",
    "cc2": "02",
    "latitude": 15.47054,
    "longitude": 79.27434
  },
  {
    "name": "nandalur",
    "cc2": "02",
    "latitude": 14.26747,
    "longitude": 79.11884
  },
  {
    "name": "nallajerla",
    "cc2": "02",
    "latitude": 16.94752,
    "longitude": 81.40601
  },
  {
    "name": "nallapalem",
    "cc2": "02",
    "latitude": 14.51019,
    "longitude": 79.75365
  },
  {
    "name": "nakkodipalem",
    "cc2": "02",
    "latitude": 17.73333,
    "longitude": 83.31667
  },
  {
    "name": "nagulavaram",
    "cc2": "02",
    "latitude": 15.97689,
    "longitude": 79.88924
  },
  {
    "name": "nagireddipalli",
    "cc2": "02",
    "latitude": 14.27005,
    "longitude": 79.10131
  },
  {
    "name": "nagayalanka",
    "cc2": "02",
    "latitude": 15.94847,
    "longitude": 80.9164
  },
  {
    "name": "nagasamudram",
    "cc2": "02",
    "latitude": 14.30716,
    "longitude": 77.65742
  },
  {
    "name": "nagari",
    "cc2": "02",
    "latitude": 13.32139,
    "longitude": 79.58557
  },
  {
    "name": "nagalapuram",
    "cc2": "02",
    "latitude": 13.38836,
    "longitude": 79.79623
  },
  {
    "name": "nachugunta",
    "cc2": "02",
    "latitude": 15.78616,
    "longitude": 80.88794
  },
  {
    "name": "mutyalapadu",
    "cc2": "02",
    "latitude": 15.03973,
    "longitude": 78.59877
  },
  {
    "name": "mutyalapadu",
    "cc2": "02",
    "latitude": 14.1104,
    "longitude": 79.89195
  },
  {
    "name": "mutyalammapadu",
    "cc2": "02",
    "latitude": 16.5247,
    "longitude": 80.63733
  },
  {
    "name": "mutukula",
    "cc2": "02",
    "latitude": 16.16251,
    "longitude": 79.53109
  },
  {
    "name": "muttukuru",
    "cc2": "02",
    "latitude": 14.29022,
    "longitude": 80.0949
  },
  {
    "name": "muttukuru",
    "cc2": "02",
    "latitude": 13.28534,
    "longitude": 78.62713
  },
  {
    "name": "mutssukota",
    "cc2": "02",
    "latitude": 14.84943,
    "longitude": 77.87519
  },
  {
    "name": "mustabada",
    "cc2": "02",
    "latitude": 16.55446,
    "longitude": 80.72544
  },
  {
    "name": "musalimadugu",
    "cc2": "02",
    "latitude": 15.97128,
    "longitude": 78.43596
  },
  {
    "name": "mungonda",
    "cc2": "02",
    "latitude": 16.6,
    "longitude": 81.91667
  },
  {
    "name": "mungamuru",
    "cc2": "02",
    "latitude": 14.80764,
    "longitude": 80.0185
  },
  {
    "name": "mundlapadu",
    "cc2": "02",
    "latitude": 15.33041,
    "longitude": 78.89937
  },
  {
    "name": "mummidivaram",
    "cc2": "02",
    "latitude": 16.64403,
    "longitude": 82.10742
  },
  {
    "name": "mukhalingam",
    "cc2": "02",
    "latitude": 18.5965,
    "longitude": 83.9634
  },
  {
    "name": "muhammadabad",
    "cc2": "02",
    "latitude": 13.97066,
    "longitude": 78.00716
  },
  {
    "name": "mudumpadu",
    "cc2": "02",
    "latitude": 13.92862,
    "longitude": 79.00559
  },
  {
    "name": "mudivedu",
    "cc2": "02",
    "latitude": 13.70856,
    "longitude": 78.50664
  },
  {
    "name": "mudinepalle",
    "cc2": "02",
    "latitude": 16.4,
    "longitude": 81.11667
  },
  {
    "name": "mudigubba",
    "cc2": "02",
    "latitude": 14.34575,
    "longitude": 77.9919
  },
  {
    "name": "mudigodu",
    "cc2": "02",
    "latitude": 14.33407,
    "longitude": 79.72396
  },
  {
    "name": "muddumudi",
    "cc2": "02",
    "latitude": 14.28004,
    "longitude": 79.86547
  },
  {
    "name": "muddavaram",
    "cc2": "02",
    "latitude": 15.49965,
    "longitude": 78.09718
  },
  {
    "name": "muddanuru",
    "cc2": "02",
    "latitude": 14.68718,
    "longitude": 78.39309
  },
  {
    "name": "motumala",
    "cc2": "02",
    "latitude": 15.48509,
    "longitude": 80.18847
  },
  {
    "name": "mopuru",
    "cc2": "02",
    "latitude": 14.44134,
    "longitude": 79.82117
  },
  {
    "name": "mopuru",
    "cc2": "02",
    "latitude": 14.06982,
    "longitude": 79.59574
  },
  {
    "name": "mopadu",
    "cc2": "02",
    "latitude": 15.0932,
    "longitude": 79.4907
  },
  {
    "name": "mondemkhallu",
    "cc2": "02",
    "latitude": 18.9213,
    "longitude": 83.6935
  },
  {
    "name": "momidi",
    "cc2": "02",
    "latitude": 14.19635,
    "longitude": 80.04623
  },
  {
    "name": "molagavalli",
    "cc2": "02",
    "latitude": 15.35721,
    "longitude": 77.33098
  },
  {
    "name": "mohammadnagar",
    "cc2": "02",
    "latitude": 16.50179,
    "longitude": 80.65046
  },
  {
    "name": "mogalturru",
    "cc2": "02",
    "latitude": 16.41233,
    "longitude": 81.60773
  },
  {
    "name": "mogalrajapuram",
    "cc2": "02",
    "latitude": 16.50843,
    "longitude": 80.64414
  },
  {
    "name": "mogalluru",
    "cc2": "02",
    "latitude": 14.39768,
    "longitude": 79.66554
  },
  {
    "name": "mogallu",
    "cc2": "02",
    "latitude": 16.6,
    "longitude": 81.56667
  },
  {
    "name": "mogallapalem",
    "cc2": "02",
    "latitude": 14.42511,
    "longitude": 79.83322
  },
  {
    "name": "mittatukuru",
    "cc2": "02",
    "latitude": 14.24845,
    "longitude": 79.80268
  },
  {
    "name": "mijuru",
    "cc2": "02",
    "latitude": 13.76604,
    "longitude": 80.08154
  },
  {
    "name": "miduturu",
    "cc2": "02",
    "latitude": 15.76999,
    "longitude": 78.2895
  },
  {
    "name": "mentada",
    "cc2": "02",
    "latitude": 18.31014,
    "longitude": 83.2612
  },
  {
    "name": "meliyaputtu",
    "cc2": "02",
    "latitude": 18.77678,
    "longitude": 84.15608
  },
  {
    "name": "medikurti",
    "cc2": "02",
    "latitude": 13.70865,
    "longitude": 78.77243
  },
  {
    "name": "medarametla",
    "cc2": "02",
    "latitude": 15.72475,
    "longitude": 80.01966
  },
  {
    "name": "medapadu",
    "cc2": "02",
    "latitude": 17.00445,
    "longitude": 82.10011
  },
  {
    "name": "mayaluru",
    "cc2": "02",
    "latitude": 15.10564,
    "longitude": 78.35987
  },
  {
    "name": "matsavaram",
    "cc2": "02",
    "latitude": 16.51793,
    "longitude": 80.65055
  },
  {
    "name": "masanutippa",
    "cc2": "02",
    "latitude": 16.65899,
    "longitude": 82.31369
  },
  {
    "name": "maruturu",
    "cc2": "02",
    "latitude": 15.98665,
    "longitude": 80.10585
  },
  {
    "name": "maruteru",
    "cc2": "02",
    "latitude": 16.62369,
    "longitude": 81.73945
  },
  {
    "name": "maruru",
    "cc2": "02",
    "latitude": 14.4932,
    "longitude": 77.62627
  },
  {
    "name": "marupuru",
    "cc2": "02",
    "latitude": 14.40213,
    "longitude": 79.80158
  },
  {
    "name": "marlapenta",
    "cc2": "02",
    "latitude": 15.80941,
    "longitude": 79.01164
  },
  {
    "name": "markapur",
    "cc2": "02",
    "latitude": 15.73534,
    "longitude": 79.26848
  },
  {
    "name": "mardaguda",
    "cc2": "02",
    "latitude": 18.23994,
    "longitude": 82.99878
  },
  {
    "name": "maradam",
    "cc2": "02",
    "latitude": 18.40207,
    "longitude": 83.34342
  },
  {
    "name": "manubolu",
    "cc2": "02",
    "latitude": 14.19949,
    "longitude": 79.87268
  },
  {
    "name": "mangalapuru",
    "cc2": "02",
    "latitude": 14.12096,
    "longitude": 79.79426
  },
  {
    "name": "mangalampeta",
    "cc2": "02",
    "latitude": 13.57734,
    "longitude": 79.09338
  },
  {
    "name": "mangalagunta",
    "cc2": "02",
    "latitude": 14.31653,
    "longitude": 79.86236
  },
  {
    "name": "mangalagiri",
    "cc2": "02",
    "latitude": 16.43083,
    "longitude": 80.56815
  },
  {
    "name": "mandasa",
    "cc2": "02",
    "latitude": 18.8683,
    "longitude": 84.46296
  },
  {
    "name": "mandapeta",
    "cc2": "02",
    "latitude": 16.86254,
    "longitude": 81.92921
  },
  {
    "name": "mamidipalle",
    "cc2": "02",
    "latitude": 18.61048,
    "longitude": 83.17797
  },
  {
    "name": "mamanduru",
    "cc2": "02",
    "latitude": 13.7454,
    "longitude": 79.46231
  },
  {
    "name": "mallam",
    "cc2": "02",
    "latitude": 13.95495,
    "longitude": 80.11578
  },
  {
    "name": "malichedu",
    "cc2": "02",
    "latitude": 14.31119,
    "longitude": 79.72681
  },
  {
    "name": "malakapuram",
    "cc2": "02",
    "latitude": 17.68525,
    "longitude": 83.24367
  },
  {
    "name": "makkuva",
    "cc2": "02",
    "latitude": 18.66177,
    "longitude": 83.26723
  },
  {
    "name": "maipadu",
    "cc2": "02",
    "latitude": 14.50726,
    "longitude": 80.16448
  },
  {
    "name": "mailavaram",
    "cc2": "02",
    "latitude": 16.75785,
    "longitude": 80.64142
  },
  {
    "name": "mahal",
    "cc2": "02",
    "latitude": 13.77598,
    "longitude": 78.78974
  },
  {
    "name": "magaturu",
    "cc2": "02",
    "latitude": 15.70383,
    "longitude": 79.08553
  },
  {
    "name": "madugula",
    "cc2": "02",
    "latitude": 17.91589,
    "longitude": 82.81578
  },
  {
    "name": "madhavaram",
    "cc2": "02",
    "latitude": 15.93642,
    "longitude": 77.35695
  },
  {
    "name": "madhavaram",
    "cc2": "02",
    "latitude": 14.41881,
    "longitude": 79.12484
  },
  {
    "name": "madduluru",
    "cc2": "02",
    "latitude": 15.46056,
    "longitude": 79.86665
  },
  {
    "name": "maddipenta",
    "cc2": "02",
    "latitude": 15.72635,
    "longitude": 78.79794
  },
  {
    "name": "maddimadugu",
    "cc2": "02",
    "latitude": 14.34546,
    "longitude": 78.77829
  },
  {
    "name": "maddilapalem",
    "cc2": "02",
    "latitude": 17.73723,
    "longitude": 83.31826
  },
  {
    "name": "maddikera",
    "cc2": "02",
    "latitude": 15.24958,
    "longitude": 77.41592
  },
  {
    "name": "madanapalle",
    "cc2": "02",
    "latitude": 13.5503,
    "longitude": 78.50288
  },
  {
    "name": "madamanuru",
    "cc2": "02",
    "latitude": 14.23692,
    "longitude": 79.84301
  },
  {
    "name": "madakasira",
    "cc2": "02",
    "latitude": 13.94095,
    "longitude": 77.27063
  },
  {
    "name": "machilipatnam",
    "cc2": "02",
    "latitude": 16.18747,
    "longitude": 81.13888
  },
  {
    "name": "macherla",
    "cc2": "02",
    "latitude": 16.47635,
    "longitude": 79.43533
  },
  {
    "name": "lotugadda",
    "cc2": "02",
    "latitude": 17.96404,
    "longitude": 82.39417
  },
  {
    "name": "lingala",
    "cc2": "02",
    "latitude": 14.4992,
    "longitude": 78.11468
  },
  {
    "name": "lepakshi",
    "cc2": "02",
    "latitude": 13.80306,
    "longitude": 77.60863
  },
  {
    "name": "lavanuru",
    "cc2": "02",
    "latitude": 14.70535,
    "longitude": 78.15223
  },
  {
    "name": "lankavanidibba",
    "cc2": "02",
    "latitude": 15.79227,
    "longitude": 80.84218
  },
  {
    "name": "lammasingi",
    "cc2": "02",
    "latitude": 17.81696,
    "longitude": 82.49264
  },
  {
    "name": "lakshmipuro",
    "cc2": "02",
    "latitude": 18.3955,
    "longitude": 82.44187
  },
  {
    "name": "lakkireddipalle",
    "cc2": "02",
    "latitude": 14.18318,
    "longitude": 78.69846
  },
  {
    "name": "lakkavarapukota",
    "cc2": "02",
    "latitude": 18.0239,
    "longitude": 83.15679
  },
  {
    "name": "kutravada",
    "cc2": "02",
    "latitude": 17.66695,
    "longitude": 81.71265
  },
  {
    "name": "kuruva nagalapuram",
    "cc2": "02",
    "latitude": 15.75466,
    "longitude": 77.90415
  },
  {
    "name": "kurupam",
    "cc2": "02",
    "latitude": 18.86626,
    "longitude": 83.55195
  },
  {
    "name": "kurnool",
    "cc2": "02",
    "latitude": 15.82887,
    "longitude": 78.03602
  },
  {
    "name": "kurichedu",
    "cc2": "02",
    "latitude": 15.90325,
    "longitude": 79.57689
  },
  {
    "name": "kurabalakota",
    "cc2": "02",
    "latitude": 13.65227,
    "longitude": 78.48184
  },
  {
    "name": "kuppili",
    "cc2": "02",
    "latitude": 18.17673,
    "longitude": 83.8078
  },
  {
    "name": "kuppam",
    "cc2": "02",
    "latitude": 13.6218,
    "longitude": 80.13705
  },
  {
    "name": "kuppam",
    "cc2": "02",
    "latitude": 12.74931,
    "longitude": 78.34189
  },
  {
    "name": "kuppagallu",
    "cc2": "02",
    "latitude": 15.73008,
    "longitude": 77.23732
  },
  {
    "name": "kundurpi",
    "cc2": "02",
    "latitude": 14.29181,
    "longitude": 77.03456
  },
  {
    "name": "kunchanapalle",
    "cc2": "02",
    "latitude": 16.46233,
    "longitude": 80.61758
  },
  {
    "name": "kumbhagiri",
    "cc2": "02",
    "latitude": 14.58887,
    "longitude": 79.06606
  },
  {
    "name": "kuderu",
    "cc2": "02",
    "latitude": 14.73082,
    "longitude": 77.4275
  },
  {
    "name": "krosuru",
    "cc2": "02",
    "latitude": 16.54286,
    "longitude": 80.1384
  },
  {
    "name": "krishnayapalem",
    "cc2": "02",
    "latitude": 16.48805,
    "longitude": 80.55721
  },
  {
    "name": "kistnapatam",
    "cc2": "02",
    "latitude": 14.28874,
    "longitude": 80.12388
  },
  {
    "name": "krishnagiri",
    "cc2": "02",
    "latitude": 15.55583,
    "longitude": 77.82993
  },
  {
    "name": "krishnadevipeta",
    "cc2": "02",
    "latitude": 17.67254,
    "longitude": 82.3799
  },
  {
    "name": "koyyuru",
    "cc2": "02",
    "latitude": 17.6606,
    "longitude": 82.20981
  },
  {
    "name": "koyyalagudem",
    "cc2": "02",
    "latitude": 17.12879,
    "longitude": 81.42815
  },
  {
    "name": "kovvur",
    "cc2": "02",
    "latitude": 17.0162,
    "longitude": 81.72934
  },
  {
    "name": "kovurupalli",
    "cc2": "02",
    "latitude": 14.7772,
    "longitude": 79.99993
  },
  {
    "name": "kovur",
    "cc2": "02",
    "latitude": 14.5005,
    "longitude": 79.98518
  },
  {
    "name": "kotturu",
    "cc2": "02",
    "latitude": 18.77917,
    "longitude": 83.88357
  },
  {
    "name": "kottavalasa",
    "cc2": "02",
    "latitude": 17.89044,
    "longitude": 83.1907
  },
  {
    "name": "kottaravupeta",
    "cc2": "02",
    "latitude": 18.38489,
    "longitude": 84.14991
  },
  {
    "name": "kottapeta",
    "cc2": "02",
    "latitude": 16.71667,
    "longitude": 81.9
  },
  {
    "name": "kottapeta",
    "cc2": "02",
    "latitude": 14.1109,
    "longitude": 78.9543
  },
  {
    "name": "kottapatam",
    "cc2": "02",
    "latitude": 15.44616,
    "longitude": 80.16601
  },
  {
    "name": "kottapatam",
    "cc2": "02",
    "latitude": 14.12096,
    "longitude": 80.11771
  },
  {
    "name": "kottapalle",
    "cc2": "02",
    "latitude": 14.36734,
    "longitude": 78.35819
  },
  {
    "name": "kottapalem",
    "cc2": "02",
    "latitude": 15.88569,
    "longitude": 80.80274
  },
  {
    "name": "kottakota",
    "cc2": "02",
    "latitude": 17.75133,
    "longitude": 82.70039
  },
  {
    "name": "kottakota",
    "cc2": "02",
    "latitude": 13.6573,
    "longitude": 78.26253
  },
  {
    "name": "kotta agraharam",
    "cc2": "02",
    "latitude": 18.33333,
    "longitude": 84.11667
  },
  {
    "name": "kottapalle",
    "cc2": "02",
    "latitude": 17.90783,
    "longitude": 82.90159
  },
  {
    "name": "kotipalle",
    "cc2": "02",
    "latitude": 16.7,
    "longitude": 82.03333
  },
  {
    "name": "kotauratla",
    "cc2": "02",
    "latitude": 17.56575,
    "longitude": 82.68796
  },
  {
    "name": "kotananduru",
    "cc2": "02",
    "latitude": 17.48235,
    "longitude": 82.48915
  },
  {
    "name": "kotabommali",
    "cc2": "02",
    "latitude": 18.52016,
    "longitude": 84.16251
  },
  {
    "name": "kota",
    "cc2": "02",
    "latitude": 17.57951,
    "longitude": 81.89792
  },
  {
    "name": "kota",
    "cc2": "02",
    "latitude": 14.04028,
    "longitude": 80.04879
  },
  {
    "name": "kosigi",
    "cc2": "02",
    "latitude": 15.8551,
    "longitude": 77.24463
  },
  {
    "name": "kosapuram",
    "cc2": "02",
    "latitude": 13.89657,
    "longitude": 78.66229
  },
  {
    "name": "korukollu",
    "cc2": "02",
    "latitude": 16.5,
    "longitude": 81.25
  },
  {
    "name": "kortimadugu",
    "cc2": "02",
    "latitude": 14.29907,
    "longitude": 78.89451
  },
  {
    "name": "korosavada",
    "cc2": "02",
    "latitude": 18.72564,
    "longitude": 84.05733
  },
  {
    "name": "koradi",
    "cc2": "02",
    "latitude": 13.76971,
    "longitude": 80.14308
  },
  {
    "name": "konduru",
    "cc2": "02",
    "latitude": 16.67802,
    "longitude": 80.57297
  },
  {
    "name": "kondur",
    "cc2": "02",
    "latitude": 14.01402,
    "longitude": 80.13075
  },
  {
    "name": "kondlapalli",
    "cc2": "02",
    "latitude": 14.46058,
    "longitude": 79.70391
  },
  {
    "name": "kondavidu",
    "cc2": "02",
    "latitude": 16.2632,
    "longitude": 80.2623
  },
  {
    "name": "kondapuram",
    "cc2": "02",
    "latitude": 14.77582,
    "longitude": 78.19488
  },
  {
    "name": "kondapalle",
    "cc2": "02",
    "latitude": 16.61989,
    "longitude": 80.54244
  },
  {
    "name": "kondakomarla",
    "cc2": "02",
    "latitude": 14.06782,
    "longitude": 77.95613
  },
  {
    "name": "kondagunta",
    "cc2": "02",
    "latitude": 14.08213,
    "longitude": 79.79379
  },
  {
    "name": "konapeta",
    "cc2": "02",
    "latitude": 14.21004,
    "longitude": 78.65048
  },
  {
    "name": "konakanametla",
    "cc2": "02",
    "latitude": 15.65285,
    "longitude": 79.48907
  },
  {
    "name": "konada",
    "cc2": "02",
    "latitude": 18.01731,
    "longitude": 83.56285
  },
  {
    "name": "kommi",
    "cc2": "02",
    "latitude": 14.96756,
    "longitude": 79.76156
  },
  {
    "name": "kommalapudi",
    "cc2": "02",
    "latitude": 14.27553,
    "longitude": 79.88591
  },
  {
    "name": "kommalapadu",
    "cc2": "02",
    "latitude": 16.02871,
    "longitude": 79.94412
  },
  {
    "name": "komarolu",
    "cc2": "02",
    "latitude": 15.26667,
    "longitude": 79
  },
  {
    "name": "kolluru",
    "cc2": "02",
    "latitude": 16.18336,
    "longitude": 80.7966
  },
  {
    "name": "kolimigundla",
    "cc2": "02",
    "latitude": 15.07601,
    "longitude": 78.1073
  },
  {
    "name": "kolanukonda",
    "cc2": "02",
    "latitude": 16.45392,
    "longitude": 80.61046
  },
  {
    "name": "kolakaluru",
    "cc2": "02",
    "latitude": 16.30608,
    "longitude": 80.6181
  },
  {
    "name": "kokkanti",
    "cc2": "02",
    "latitude": 13.94027,
    "longitude": 78.27858
  },
  {
    "name": "koilkuntla",
    "cc2": "02",
    "latitude": 15.23068,
    "longitude": 78.31665
  },
  {
    "name": "koduru",
    "cc2": "02",
    "latitude": 18.27743,
    "longitude": 83.54646
  },
  {
    "name": "koduru",
    "cc2": "02",
    "latitude": 17.92276,
    "longitude": 83.03429
  },
  {
    "name": "koduru",
    "cc2": "02",
    "latitude": 14.87329,
    "longitude": 78.10534
  },
  {
    "name": "koduru",
    "cc2": "02",
    "latitude": 14.41305,
    "longitude": 80.14505
  },
  {
    "name": "kodur",
    "cc2": "02",
    "latitude": 13.95771,
    "longitude": 79.35132
  },
  {
    "name": "kodumur",
    "cc2": "02",
    "latitude": 15.68126,
    "longitude": 77.77198
  },
  {
    "name": "kodikonda",
    "cc2": "02",
    "latitude": 13.83269,
    "longitude": 77.77438
  },
  {
    "name": "kodavaluru",
    "cc2": "02",
    "latitude": 14.56689,
    "longitude": 80.00341
  },
  {
    "name": "khilogodo",
    "cc2": "02",
    "latitude": 18.31947,
    "longitude": 82.5363
  },
  {
    "name": "khajipeta",
    "cc2": "02",
    "latitude": 14.65091,
    "longitude": 78.77021
  },
  {
    "name": "kesanupalle",
    "cc2": "02",
    "latitude": 16.58354,
    "longitude": 79.74024
  },
  {
    "name": "kavutaram",
    "cc2": "02",
    "latitude": 16.33333,
    "longitude": 81.08333
  },
  {
    "name": "kavuru",
    "cc2": "02",
    "latitude": 16.1397,
    "longitude": 80.1225
  },
  {
    "name": "kaviti",
    "cc2": "02",
    "latitude": 19.01142,
    "longitude": 84.69038
  },
  {
    "name": "kavali",
    "cc2": "02",
    "latitude": 14.9163,
    "longitude": 79.99449
  },
  {
    "name": "kattubadipalli",
    "cc2": "02",
    "latitude": 14.30222,
    "longitude": 79.75627
  },
  {
    "name": "kattipudi",
    "cc2": "02",
    "latitude": 17.24183,
    "longitude": 82.33625
  },
  {
    "name": "katarukonda",
    "cc2": "02",
    "latitude": 15.42649,
    "longitude": 77.75531
  },
  {
    "name": "kasumuru",
    "cc2": "02",
    "latitude": 14.33951,
    "longitude": 79.85699
  },
  {
    "name": "kasipatnam",
    "cc2": "02",
    "latitude": 18.21552,
    "longitude": 83.11833
  },
  {
    "name": "kasibugga",
    "cc2": "02",
    "latitude": 18.75927,
    "longitude": 84.41613
  },
  {
    "name": "karvetnagar",
    "cc2": "02",
    "latitude": 13.42136,
    "longitude": 79.44838
  },
  {
    "name": "karivemula",
    "cc2": "02",
    "latitude": 15.59458,
    "longitude": 77.59957
  },
  {
    "name": "karempudi",
    "cc2": "02",
    "latitude": 16.42901,
    "longitude": 79.72063
  },
  {
    "name": "karedu",
    "cc2": "02",
    "latitude": 15.18739,
    "longitude": 80.05903
  },
  {
    "name": "karavadi",
    "cc2": "02",
    "latitude": 15.54623,
    "longitude": 80.11448
  },
  {
    "name": "karapa",
    "cc2": "02",
    "latitude": 16.9,
    "longitude": 82.16667
  },
  {
    "name": "karanchedu",
    "cc2": "02",
    "latitude": 15.88426,
    "longitude": 80.31632
  },
  {
    "name": "karameda",
    "cc2": "02",
    "latitude": 16.2,
    "longitude": 81.16667
  },
  {
    "name": "kapileswarapuram",
    "cc2": "02",
    "latitude": 16.32391,
    "longitude": 80.86711
  },
  {
    "name": "kanuparti",
    "cc2": "02",
    "latitude": 15.58236,
    "longitude": 80.21223
  },
  {
    "name": "kanuparti",
    "cc2": "02",
    "latitude": 14.42549,
    "longitude": 79.69525
  },
  {
    "name": "kannapuram",
    "cc2": "02",
    "latitude": 17.18197,
    "longitude": 81.41428
  },
  {
    "name": "kankipadu",
    "cc2": "02",
    "latitude": 16.4353,
    "longitude": 80.76715
  },
  {
    "name": "kanigiri",
    "cc2": "02",
    "latitude": 15.40555,
    "longitude": 79.50694
  },
  {
    "name": "kangundi",
    "cc2": "02",
    "latitude": 12.76945,
    "longitude": 78.43463
  },
  {
    "name": "kanekallu",
    "cc2": "02",
    "latitude": 14.80502,
    "longitude": 77.07835
  },
  {
    "name": "kanduru",
    "cc2": "02",
    "latitude": 13.55651,
    "longitude": 78.77351
  },
  {
    "name": "kandukuru",
    "cc2": "02",
    "latitude": 14.58754,
    "longitude": 77.64488
  },
  {
    "name": "kandukur",
    "cc2": "02",
    "latitude": 15.21542,
    "longitude": 79.9039
  },
  {
    "name": "kandukur",
    "cc2": "02",
    "latitude": 13.76436,
    "longitude": 78.1566
  },
  {
    "name": "kandamuru",
    "cc2": "02",
    "latitude": 14.46552,
    "longitude": 79.78982
  },
  {
    "name": "kanakammachattram",
    "cc2": "02",
    "latitude": 13.20683,
    "longitude": 79.75057
  },
  {
    "name": "kanaganapalle",
    "cc2": "02",
    "latitude": 14.44798,
    "longitude": 77.52601
  },
  {
    "name": "kambhampadu",
    "cc2": "02",
    "latitude": 16.98579,
    "longitude": 80.65233
  },
  {
    "name": "kambalapalle",
    "cc2": "02",
    "latitude": 15.84143,
    "longitude": 78.50547
  },
  {
    "name": "kamavarapukota",
    "cc2": "02",
    "latitude": 17.00981,
    "longitude": 81.19246
  },
  {
    "name": "kamalapuram",
    "cc2": "02",
    "latitude": 14.5983,
    "longitude": 78.66948
  },
  {
    "name": "kaluvaya",
    "cc2": "02",
    "latitude": 14.5117,
    "longitude": 79.41013
  },
  {
    "name": "kalluru",
    "cc2": "02",
    "latitude": 13.55819,
    "longitude": 78.99923
  },
  {
    "name": "kalingapatnam",
    "cc2": "02",
    "latitude": 18.3378,
    "longitude": 84.12403
  },
  {
    "name": "kalikiri",
    "cc2": "02",
    "latitude": 13.64233,
    "longitude": 78.80142
  },
  {
    "name": "kaligotla",
    "cc2": "02",
    "latitude": 17.90338,
    "longitude": 82.96639
  },
  {
    "name": "kaligiri",
    "cc2": "02",
    "latitude": 14.82844,
    "longitude": 79.69073
  },
  {
    "name": "kalicherla",
    "cc2": "02",
    "latitude": 13.8877,
    "longitude": 78.53778
  },
  {
    "name": "kalichedu",
    "cc2": "02",
    "latitude": 14.29988,
    "longitude": 79.73483
  },
  {
    "name": "kalva",
    "cc2": "02",
    "latitude": 15.62209,
    "longitude": 78.20008
  },
  {
    "name": "kalasapadu",
    "cc2": "02",
    "latitude": 15.10768,
    "longitude": 78.94149
  },
  {
    "name": "kalakada",
    "cc2": "02",
    "latitude": 13.827,
    "longitude": 78.78931
  },
  {
    "name": "kakitalapuru",
    "cc2": "02",
    "latitude": 14.21702,
    "longitude": 79.89985
  },
  {
    "name": "kakinada",
    "cc2": "02",
    "latitude": 16.96036,
    "longitude": 82.23809
  },
  {
    "name": "kaikaram",
    "cc2": "02",
    "latitude": 16.81084,
    "longitude": 81.36611
  },
  {
    "name": "kaikalur",
    "cc2": "02",
    "latitude": 16.55154,
    "longitude": 81.214
  },
  {
    "name": "kadiyam",
    "cc2": "02",
    "latitude": 16.91667,
    "longitude": 81.83333
  },
  {
    "name": "kadiri",
    "cc2": "02",
    "latitude": 14.11168,
    "longitude": 78.15982
  },
  {
    "name": "kadavakuduru",
    "cc2": "02",
    "latitude": 15.72614,
    "longitude": 80.25466
  },
  {
    "name": "kadapatra",
    "cc2": "02",
    "latitude": 13.7837,
    "longitude": 80.16493
  },
  {
    "name": "julakalava",
    "cc2": "02",
    "latitude": 14.83252,
    "longitude": 77.80153
  },
  {
    "name": "jonnagiri",
    "cc2": "02",
    "latitude": 15.23028,
    "longitude": 77.5714
  },
  {
    "name": "jogipalli",
    "cc2": "02",
    "latitude": 14.21952,
    "longitude": 79.72843
  },
  {
    "name": "jilugumilli",
    "cc2": "02",
    "latitude": 17.21138,
    "longitude": 81.13361
  },
  {
    "name": "jhadupudi",
    "cc2": "02",
    "latitude": 19.01595,
    "longitude": 84.60999
  },
  {
    "name": "jayantipur",
    "cc2": "02",
    "latitude": 19.08808,
    "longitude": 84.61242
  },
  {
    "name": "jayampu",
    "cc2": "02",
    "latitude": 14.02475,
    "longitude": 79.73071
  },
  {
    "name": "jararha",
    "cc2": "02",
    "latitude": 19.07747,
    "longitude": 84.50255
  },
  {
    "name": "jammalamadugu",
    "cc2": "02",
    "latitude": 14.84677,
    "longitude": 78.38314
  },
  {
    "name": "jami",
    "cc2": "02",
    "latitude": 18.05252,
    "longitude": 83.2621
  },
  {
    "name": "jalumuru",
    "cc2": "02",
    "latitude": 18.5112,
    "longitude": 84.03866
  },
  {
    "name": "jallivaripullalacheruvu",
    "cc2": "02",
    "latitude": 15.49871,
    "longitude": 78.92237
  },
  {
    "name": "jalaripeta",
    "cc2": "02",
    "latitude": 17.73333,
    "longitude": 83.35
  },
  {
    "name": "jalantra",
    "cc2": "02",
    "latitude": 18.95673,
    "longitude": 84.54683
  },
  {
    "name": "jaggayyapeta",
    "cc2": "02",
    "latitude": 16.8938,
    "longitude": 80.09807
  },
  {
    "name": "jaggampeta",
    "cc2": "02",
    "latitude": 17.17,
    "longitude": 82.06115
  },
  {
    "name": "jagannadharaju chattram",
    "cc2": "02",
    "latitude": 18.20257,
    "longitude": 83.69039
  },
  {
    "name": "jagannadhapuram",
    "cc2": "02",
    "latitude": 16.93333,
    "longitude": 82.23333
  },
  {
    "name": "jafalapuram",
    "cc2": "02",
    "latitude": 14.21516,
    "longitude": 79.708
  },
  {
    "name": "jaddangi",
    "cc2": "02",
    "latitude": 17.48144,
    "longitude": 82.15518
  },
  {
    "name": "itamukkala",
    "cc2": "02",
    "latitude": 15.37313,
    "longitude": 80.11301
  },
  {
    "name": "iskapalli",
    "cc2": "02",
    "latitude": 14.73631,
    "longitude": 80.09812
  },
  {
    "name": "iskagundam",
    "cc2": "02",
    "latitude": 15.59753,
    "longitude": 78.81255
  },
  {
    "name": "irakam",
    "cc2": "02",
    "latitude": 13.57169,
    "longitude": 80.14617
  },
  {
    "name": "ipuru",
    "cc2": "02",
    "latitude": 16.23038,
    "longitude": 79.7751
  },
  {
    "name": "inukurti",
    "cc2": "02",
    "latitude": 14.34025,
    "longitude": 79.71333
  },
  {
    "name": "inkollu",
    "cc2": "02",
    "latitude": 15.82778,
    "longitude": 80.19208
  },
  {
    "name": "indukurupeta",
    "cc2": "02",
    "latitude": 14.47257,
    "longitude": 80.10678
  },
  {
    "name": "inamanamelluru",
    "cc2": "02",
    "latitude": 15.60195,
    "longitude": 80.07358
  },
  {
    "name": "iiiuru kottapeta",
    "cc2": "02",
    "latitude": 15.27741,
    "longitude": 78.25736
  },
  {
    "name": "ichchapuram",
    "cc2": "02",
    "latitude": 19.11393,
    "longitude": 84.68721
  },
  {
    "name": "hosuru",
    "cc2": "02",
    "latitude": 15.37969,
    "longitude": 77.45976
  },
  {
    "name": "honnuru",
    "cc2": "02",
    "latitude": 14.90806,
    "longitude": 77.08572
  },
  {
    "name": "holalagondi",
    "cc2": "02",
    "latitude": 15.48784,
    "longitude": 77.04752
  },
  {
    "name": "hiramandalam",
    "cc2": "02",
    "latitude": 18.67085,
    "longitude": 83.95054
  },
  {
    "name": "hindupur",
    "cc2": "02",
    "latitude": 13.82807,
    "longitude": 77.49143
  },
  {
    "name": "hebbetti",
    "cc2": "02",
    "latitude": 15.55008,
    "longitude": 77.16113
  },
  {
    "name": "harivanam",
    "cc2": "02",
    "latitude": 15.63266,
    "longitude": 77.1032
  },
  {
    "name": "haripur",
    "cc2": "02",
    "latitude": 18.84619,
    "longitude": 84.50387
  },
  {
    "name": "halvi",
    "cc2": "02",
    "latitude": 15.88704,
    "longitude": 77.12119
  },
  {
    "name": "guvvalacheruvu",
    "cc2": "02",
    "latitude": 14.29529,
    "longitude": 78.75226
  },
  {
    "name": "gutturu",
    "cc2": "02",
    "latitude": 14.19015,
    "longitude": 77.63403
  },
  {
    "name": "guruzala",
    "cc2": "02",
    "latitude": 16.55734,
    "longitude": 79.63477
  },
  {
    "name": "guruvajipeta",
    "cc2": "02",
    "latitude": 15.22717,
    "longitude": 79.40021
  },
  {
    "name": "gurtedu",
    "cc2": "02",
    "latitude": 17.84721,
    "longitude": 81.94458
  },
  {
    "name": "gurramkonda",
    "cc2": "02",
    "latitude": 13.78135,
    "longitude": 78.58917
  },
  {
    "name": "guntur",
    "cc2": "02",
    "latitude": 16.29974,
    "longitude": 80.45729
  },
  {
    "name": "guntakal",
    "cc2": "02",
    "latitude": 15.17112,
    "longitude": 77.36244
  },
  {
    "name": "gundugolanu",
    "cc2": "02",
    "latitude": 16.78055,
    "longitude": 81.23085
  },
  {
    "name": "gundlakonda",
    "cc2": "02",
    "latitude": 15.47873,
    "longitude": 77.6512
  },
  {
    "name": "gundlabrahmeswaram",
    "cc2": "02",
    "latitude": 15.66667,
    "longitude": 78.75
  },
  {
    "name": "gunadala",
    "cc2": "02",
    "latitude": 16.5203,
    "longitude": 80.66416
  },
  {
    "name": "guduru",
    "cc2": "02",
    "latitude": 15.77506,
    "longitude": 77.80656
  },
  {
    "name": "gudur",
    "cc2": "02",
    "latitude": 14.15093,
    "longitude": 79.8521
  },
  {
    "name": "gudluru",
    "cc2": "02",
    "latitude": 15.07252,
    "longitude": 79.90127
  },
  {
    "name": "gudlavalleru",
    "cc2": "02",
    "latitude": 16.35,
    "longitude": 81.05
  },
  {
    "name": "gudivada",
    "cc2": "02",
    "latitude": 16.43547,
    "longitude": 80.99555
  },
  {
    "name": "gudipalli",
    "cc2": "02",
    "latitude": 12.79275,
    "longitude": 78.28002
  },
  {
    "name": "gudikallu",
    "cc2": "02",
    "latitude": 15.74411,
    "longitude": 77.47603
  },
  {
    "name": "gudem",
    "cc2": "02",
    "latitude": 17.86333,
    "longitude": 82.19589
  },
  {
    "name": "gudavalluru",
    "cc2": "02",
    "latitude": 14.99872,
    "longitude": 79.67726
  },
  {
    "name": "gudali",
    "cc2": "02",
    "latitude": 14.01673,
    "longitude": 80.0201
  },
  {
    "name": "griddaluru",
    "cc2": "02",
    "latitude": 14.2645,
    "longitude": 79.77539
  },
  {
    "name": "govundlapalem",
    "cc2": "02",
    "latitude": 14.64828,
    "longitude": 80.14111
  },
  {
    "name": "govindapuram",
    "cc2": "02",
    "latitude": 18.66775,
    "longitude": 84.37109
  },
  {
    "name": "govindapalem",
    "cc2": "02",
    "latitude": 17.45559,
    "longitude": 82.91773
  },
  {
    "name": "gotlagattu",
    "cc2": "02",
    "latitude": 15.5519,
    "longitude": 79.42012
  },
  {
    "name": "gorantla",
    "cc2": "02",
    "latitude": 13.98411,
    "longitude": 77.77224
  },
  {
    "name": "goppili",
    "cc2": "02",
    "latitude": 18.82289,
    "longitude": 84.35391
  },
  {
    "name": "gopavaram",
    "cc2": "02",
    "latitude": 16.81807,
    "longitude": 80.96928
  },
  {
    "name": "gopalapuram",
    "cc2": "02",
    "latitude": 17.1,
    "longitude": 81.51667
  },
  {
    "name": "gooty",
    "cc2": "02",
    "latitude": 15.11836,
    "longitude": 77.63776
  },
  {
    "name": "gonegandla",
    "cc2": "02",
    "latitude": 15.71371,
    "longitude": 77.59546
  },
  {
    "name": "gollapudi",
    "cc2": "02",
    "latitude": 16.54125,
    "longitude": 80.57839
  },
  {
    "name": "gollapalle",
    "cc2": "02",
    "latitude": 16.72626,
    "longitude": 80.90729
  },
  {
    "name": "gollapalle",
    "cc2": "02",
    "latitude": 14.9767,
    "longitude": 78.28013
  },
  {
    "name": "chinna gollapalem",
    "cc2": "02",
    "latitude": 16.36841,
    "longitude": 81.52545
  },
  {
    "name": "gollapalem",
    "cc2": "02",
    "latitude": 14.31135,
    "longitude": 79.79241
  },
  {
    "name": "gollapalem",
    "cc2": "02",
    "latitude": 14.10372,
    "longitude": 79.78951
  },
  {
    "name": "golla",
    "cc2": "02",
    "latitude": 14.59867,
    "longitude": 77.21101
  },
  {
    "name": "gokavaram",
    "cc2": "02",
    "latitude": 17.25823,
    "longitude": 81.84985
  },
  {
    "name": "gogulapalle",
    "cc2": "02",
    "latitude": 15.25749,
    "longitude": 79.31518
  },
  {
    "name": "gnanapuram",
    "cc2": "02",
    "latitude": 17.71667,
    "longitude": 83.28333
  },
  {
    "name": "giddalur",
    "cc2": "02",
    "latitude": 15.37439,
    "longitude": 78.92609
  },
  {
    "name": "ghattu",
    "cc2": "02",
    "latitude": 13.6602,
    "longitude": 78.33314
  },
  {
    "name": "ghantasala",
    "cc2": "02",
    "latitude": 16.15,
    "longitude": 80.26667
  },
  {
    "name": "gattimanikonda",
    "cc2": "02",
    "latitude": 15.53208,
    "longitude": 78.17948
  },
  {
    "name": "garnimitta",
    "cc2": "02",
    "latitude": 13.82,
    "longitude": 78.89592
  },
  {
    "name": "garladinne",
    "cc2": "02",
    "latitude": 15.31313,
    "longitude": 77.97555
  },
  {
    "name": "garladinne",
    "cc2": "02",
    "latitude": 14.82409,
    "longitude": 77.59852
  },
  {
    "name": "garimenapenta",
    "cc2": "02",
    "latitude": 14.38137,
    "longitude": 79.46389
  },
  {
    "name": "garbham",
    "cc2": "02",
    "latitude": 18.36652,
    "longitude": 83.45174
  },
  {
    "name": "gara",
    "cc2": "02",
    "latitude": 18.32261,
    "longitude": 84.0687
  },
  {
    "name": "gantikorlam",
    "cc2": "02",
    "latitude": 17.81128,
    "longitude": 82.80729
  },
  {
    "name": "gannavaram",
    "cc2": "02",
    "latitude": 16.6,
    "longitude": 81.9
  },
  {
    "name": "gannavaram",
    "cc2": "02",
    "latitude": 16.54092,
    "longitude": 80.80213
  },
  {
    "name": "ganjivaripalle",
    "cc2": "02",
    "latitude": 16.03787,
    "longitude": 79.20463
  },
  {
    "name": "gani",
    "cc2": "02",
    "latitude": 15.66505,
    "longitude": 78.3168
  },
  {
    "name": "ganguvada",
    "cc2": "02",
    "latitude": 18.66667,
    "longitude": 84.11667
  },
  {
    "name": "gangireddipalle",
    "cc2": "02",
    "latitude": 14.51771,
    "longitude": 78.4893
  },
  {
    "name": "gangayapalle",
    "cc2": "02",
    "latitude": 14.55583,
    "longitude": 78.71804
  },
  {
    "name": "gangarajumadugulu",
    "cc2": "02",
    "latitude": 18.01332,
    "longitude": 82.5352
  },
  {
    "name": "gangapatnam",
    "cc2": "02",
    "latitude": 14.52368,
    "longitude": 80.1521
  },
  {
    "name": "gangadevepalle",
    "cc2": "02",
    "latitude": 14.15143,
    "longitude": 79.73393
  },
  {
    "name": "ganapavaram",
    "cc2": "02",
    "latitude": 16.70007,
    "longitude": 81.46297
  },
  {
    "name": "gampalagudem",
    "cc2": "02",
    "latitude": 16.99819,
    "longitude": 80.52239
  },
  {
    "name": "galivedu",
    "cc2": "02",
    "latitude": 14.019,
    "longitude": 78.50318
  },
  {
    "name": "gajjelakonda",
    "cc2": "02",
    "latitude": 15.75224,
    "longitude": 79.39167
  },
  {
    "name": "gajapatinagaram",
    "cc2": "02",
    "latitude": 18.27936,
    "longitude": 83.33647
  },
  {
    "name": "gadigarevula",
    "cc2": "02",
    "latitude": 15.61936,
    "longitude": 78.43723
  },
  {
    "name": "gadidemadugu",
    "cc2": "02",
    "latitude": 15.77997,
    "longitude": 78.14523
  },
  {
    "name": "gadekallu",
    "cc2": "02",
    "latitude": 15.11681,
    "longitude": 77.24462
  },
  {
    "name": "fakirgudem",
    "cc2": "02",
    "latitude": 16.49524,
    "longitude": 80.64868
  },
  {
    "name": "etikoppaka",
    "cc2": "02",
    "latitude": 17.5,
    "longitude": 82.73333
  },
  {
    "name": "eruru",
    "cc2": "02",
    "latitude": 14.16667,
    "longitude": 80.05
  },
  {
    "name": "yerravaripallem",
    "cc2": "02",
    "latitude": 13.70517,
    "longitude": 79.13313
  },
  {
    "name": "erraguntlakota",
    "cc2": "02",
    "latitude": 13.96219,
    "longitude": 79.27682
  },
  {
    "name": "erraguntla",
    "cc2": "02",
    "latitude": 14.63853,
    "longitude": 78.53974
  },
  {
    "name": "erragudipadu",
    "cc2": "02",
    "latitude": 14.61665,
    "longitude": 78.60748
  },
  {
    "name": "erragondapalem",
    "cc2": "02",
    "latitude": 16.03972,
    "longitude": 79.30428
  },
  {
    "name": "errabalem",
    "cc2": "02",
    "latitude": 16.4631,
    "longitude": 80.56778
  },
  {
    "name": "erpedu",
    "cc2": "02",
    "latitude": 13.6923,
    "longitude": 79.59372
  },
  {
    "name": "emmiganur",
    "cc2": "02",
    "latitude": 15.77203,
    "longitude": 77.48345
  },
  {
    "name": "elwinpet",
    "cc2": "02",
    "latitude": 18.97728,
    "longitude": 83.66312
  },
  {
    "name": "eluru",
    "cc2": "02",
    "latitude": 16.71311,
    "longitude": 81.10437
  },
  {
    "name": "ellasiri",
    "cc2": "02",
    "latitude": 13.94144,
    "longitude": 80.02113
  },
  {
    "name": "ellanuru",
    "cc2": "02",
    "latitude": 14.69783,
    "longitude": 78.07516
  },
  {
    "name": "elesvaram",
    "cc2": "02",
    "latitude": 17.2878,
    "longitude": 82.10518
  },
  {
    "name": "elamanchili",
    "cc2": "02",
    "latitude": 17.54907,
    "longitude": 82.85749
  },
  {
    "name": "dwarapudi",
    "cc2": "02",
    "latitude": 16.95,
    "longitude": 81.93333
  },
  {
    "name": "duvvuru",
    "cc2": "02",
    "latitude": 14.84147,
    "longitude": 78.65307
  },
  {
    "name": "duvvam",
    "cc2": "02",
    "latitude": 18.26072,
    "longitude": 83.53696
  },
  {
    "name": "duttaluru",
    "cc2": "02",
    "latitude": 14.8504,
    "longitude": 79.40441
  },
  {
    "name": "durgi",
    "cc2": "02",
    "latitude": 16.42593,
    "longitude": 79.54041
  },
  {
    "name": "durgarajupatnam",
    "cc2": "02",
    "latitude": 13.98333,
    "longitude": 80.15
  },
  {
    "name": "dupadu",
    "cc2": "02",
    "latitude": 15.91684,
    "longitude": 79.36601
  },
  {
    "name": "duggirala",
    "cc2": "02",
    "latitude": 16.3287,
    "longitude": 80.62931
  },
  {
    "name": "dugarajupatnam",
    "cc2": "02",
    "latitude": 13.98126,
    "longitude": 80.15668
  },
  {
    "name": "duddukuru",
    "cc2": "02",
    "latitude": 15.74419,
    "longitude": 80.17186
  },
  {
    "name": "dubacherla",
    "cc2": "02",
    "latitude": 16.91165,
    "longitude": 81.35688
  },
  {
    "name": "draksharama",
    "cc2": "02",
    "latitude": 16.7915,
    "longitude": 82.05941
  },
  {
    "name": "dowlaiswaram",
    "cc2": "02",
    "latitude": 16.94714,
    "longitude": 81.78158
  },
  {
    "name": "dosapadu",
    "cc2": "02",
    "latitude": 16.46724,
    "longitude": 80.95056
  },
  {
    "name": "doranala",
    "cc2": "02",
    "latitude": 15.90751,
    "longitude": 79.09582
  },
  {
    "name": "dontali",
    "cc2": "02",
    "latitude": 14.38529,
    "longitude": 79.88927
  },
  {
    "name": "dondaparti",
    "cc2": "02",
    "latitude": 17.72743,
    "longitude": 83.29944
  },
  {
    "name": "donakonda",
    "cc2": "02",
    "latitude": 15.83405,
    "longitude": 79.48485
  },
  {
    "name": "diguvametta",
    "cc2": "02",
    "latitude": 15.39507,
    "longitude": 78.8293
  },
  {
    "name": "dhone",
    "cc2": "02",
    "latitude": 15.3952,
    "longitude": 77.8715
  },
  {
    "name": "dharmavaram",
    "cc2": "02",
    "latitude": 14.41435,
    "longitude": 77.72035
  },
  {
    "name": "dharmajigudem",
    "cc2": "02",
    "latitude": 16.89449,
    "longitude": 80.99625
  },
  {
    "name": "dharakonda",
    "cc2": "02",
    "latitude": 17.99751,
    "longitude": 82.12465
  },
  {
    "name": "devaravemuru",
    "cc2": "02",
    "latitude": 14.29296,
    "longitude": 79.76168
  },
  {
    "name": "devarapalle",
    "cc2": "02",
    "latitude": 17.03333,
    "longitude": 81.55
  },
  {
    "name": "devanakonda",
    "cc2": "02",
    "latitude": 15.53791,
    "longitude": 77.55034
  },
  {
    "name": "devadi",
    "cc2": "02",
    "latitude": 18.38079,
    "longitude": 84.01326
  },
  {
    "name": "devada",
    "cc2": "02",
    "latitude": 18.25629,
    "longitude": 83.55896
  },
  {
    "name": "degapudi",
    "cc2": "02",
    "latitude": 14.32673,
    "longitude": 79.71214
  },
  {
    "name": "darsi",
    "cc2": "02",
    "latitude": 15.76978,
    "longitude": 79.67939
  },
  {
    "name": "dargah",
    "cc2": "02",
    "latitude": 16.53028,
    "longitude": 80.59041
  },
  {
    "name": "dandinahirehalu",
    "cc2": "02",
    "latitude": 15.01319,
    "longitude": 76.83259
  },
  {
    "name": "danayanicheruvu",
    "cc2": "02",
    "latitude": 14.08197,
    "longitude": 78.35597
  },
  {
    "name": "damalcheruvu",
    "cc2": "02",
    "latitude": 13.47593,
    "longitude": 79.05218
  },
  {
    "name": "dachuru",
    "cc2": "02",
    "latitude": 14.38633,
    "longitude": 79.56483
  },
  {
    "name": "dachepalle",
    "cc2": "02",
    "latitude": 16.59491,
    "longitude": 79.73642
  },
  {
    "name": "cumbum",
    "cc2": "02",
    "latitude": 15.58171,
    "longitude": 79.11059
  },
  {
    "name": "kadapa",
    "cc2": "02",
    "latitude": 14.47995,
    "longitude": 78.82346
  },
  {
    "name": "coromandel",
    "cc2": "02",
    "latitude": 13.4533,
    "longitude": 80.30407
  },
  {
    "name": "coringa",
    "cc2": "02",
    "latitude": 16.8,
    "longitude": 82.23333
  },
  {
    "name": "chundi",
    "cc2": "02",
    "latitude": 15.16694,
    "longitude": 79.68447
  },
  {
    "name": "chodavaram",
    "cc2": "02",
    "latitude": 17.82884,
    "longitude": 82.93526
  },
  {
    "name": "rampachodavaram",
    "cc2": "02",
    "latitude": 17.44088,
    "longitude": 81.77558
  },
  {
    "name": "chitvel",
    "cc2": "02",
    "latitude": 14.17204,
    "longitude": 79.33051
  },
  {
    "name": "chittoor",
    "cc2": "02",
    "latitude": 13.21055,
    "longitude": 79.0956
  },
  {
    "name": "chittivalasa",
    "cc2": "02",
    "latitude": 17.93197,
    "longitude": 83.4268
  },
  {
    "name": "chittiguduru",
    "cc2": "02",
    "latitude": 16.21667,
    "longitude": 81.06667
  },
  {
    "name": "chittavapalli",
    "cc2": "02",
    "latitude": 14.39397,
    "longitude": 79.71763
  },
  {
    "name": "chirrayanam",
    "cc2": "02",
    "latitude": 16.51877,
    "longitude": 82.17316
  },
  {
    "name": "chiramana",
    "cc2": "02",
    "latitude": 14.68528,
    "longitude": 79.72959
  },
  {
    "name": "chirala",
    "cc2": "02",
    "latitude": 15.82385,
    "longitude": 80.35219
  },
  {
    "name": "chipurupalle",
    "cc2": "02",
    "latitude": 18.31142,
    "longitude": 83.56846
  },
  {
    "name": "chippigiri",
    "cc2": "02",
    "latitude": 15.22991,
    "longitude": 77.319
  },
  {
    "name": "chintapalle",
    "cc2": "02",
    "latitude": 17.87117,
    "longitude": 82.35108
  },
  {
    "name": "chintalapudi",
    "cc2": "02",
    "latitude": 17.06859,
    "longitude": 80.98356
  },
  {
    "name": "chintaladevi",
    "cc2": "02",
    "latitude": 14.9768,
    "longitude": 79.64703
  },
  {
    "name": "chintakunta",
    "cc2": "02",
    "latitude": 15.23858,
    "longitude": 77.15554
  },
  {
    "name": "chinapallipalem",
    "cc2": "02",
    "latitude": 14.42935,
    "longitude": 80.1515
  },
  {
    "name": "chinna palipeta",
    "cc2": "02",
    "latitude": 18.33333,
    "longitude": 84.11667
  },
  {
    "name": "chinnamandem",
    "cc2": "02",
    "latitude": 13.94178,
    "longitude": 78.67901
  },
  {
    "name": "chinnakraka",
    "cc2": "02",
    "latitude": 14.8518,
    "longitude": 79.84592
  },
  {
    "name": "chinna ganjam",
    "cc2": "02",
    "latitude": 15.69192,
    "longitude": 80.24117
  },
  {
    "name": "chimidithe",
    "cc2": "02",
    "latitude": 14.13387,
    "longitude": 79.75169
  },
  {
    "name": "chimata",
    "cc2": "02",
    "latitude": 15.49165,
    "longitude": 79.74469
  },
  {
    "name": "chimakurti",
    "cc2": "02",
    "latitude": 15.58339,
    "longitude": 79.87006
  },
  {
    "name": "chillakur",
    "cc2": "02",
    "latitude": 14.12818,
    "longitude": 79.86376
  },
  {
    "name": "chilamatturu",
    "cc2": "02",
    "latitude": 13.84034,
    "longitude": 77.70656
  },
  {
    "name": "chilamannuru",
    "cc2": "02",
    "latitude": 13.93025,
    "longitude": 79.6992
  },
  {
    "name": "chilakalurupet",
    "cc2": "02",
    "latitude": 16.08987,
    "longitude": 80.16705
  },
  {
    "name": "cherukuru",
    "cc2": "02",
    "latitude": 15.99448,
    "longitude": 80.37869
  },
  {
    "name": "cherlopalle",
    "cc2": "02",
    "latitude": 15.2765,
    "longitude": 79.56759
  },
  {
    "name": "cherlopalle",
    "cc2": "02",
    "latitude": 14.41701,
    "longitude": 77.05794
  },
  {
    "name": "cherlopalle",
    "cc2": "02",
    "latitude": 13.83522,
    "longitude": 78.63394
  },
  {
    "name": "chennur",
    "cc2": "02",
    "latitude": 14.15587,
    "longitude": 79.7986
  },
  {
    "name": "chennur",
    "cc2": "02",
    "latitude": 14.5644,
    "longitude": 78.80165
  },
  {
    "name": "chemudu",
    "cc2": "02",
    "latitude": 18.64157,
    "longitude": 83.22916
  },
  {
    "name": "chelima",
    "cc2": "02",
    "latitude": 15.4412,
    "longitude": 78.70216
  },
  {
    "name": "chejerla",
    "cc2": "02",
    "latitude": 14.51882,
    "longitude": 79.56677
  },
  {
    "name": "chebrolu",
    "cc2": "02",
    "latitude": 16.19715,
    "longitude": 80.5256
  },
  {
    "name": "chavutapalem",
    "cc2": "02",
    "latitude": 14.30796,
    "longitude": 79.89218
  },
  {
    "name": "chaudepalle",
    "cc2": "02",
    "latitude": 13.43429,
    "longitude": 78.69132
  },
  {
    "name": "muhammadapuram chattram",
    "cc2": "02",
    "latitude": 15.56094,
    "longitude": 79.32389
  },
  {
    "name": "chatagotla",
    "cc2": "02",
    "latitude": 14.38006,
    "longitude": 79.76865
  },
  {
    "name": "chapara",
    "cc2": "02",
    "latitude": 18.77038,
    "longitude": 84.18528
  },
  {
    "name": "chanugondla",
    "cc2": "02",
    "latitude": 15.36453,
    "longitude": 77.69689
  },
  {
    "name": "chandrasekharapuram",
    "cc2": "02",
    "latitude": 15.18089,
    "longitude": 79.27948
  },
  {
    "name": "chandragiri",
    "cc2": "02",
    "latitude": 13.58872,
    "longitude": 79.31625
  },
  {
    "name": "chandaluru",
    "cc2": "02",
    "latitude": 15.80259,
    "longitude": 79.59978
  },
  {
    "name": "challapalle",
    "cc2": "02",
    "latitude": 16.11756,
    "longitude": 80.93139
  },
  {
    "name": "chakicherla",
    "cc2": "02",
    "latitude": 15.11266,
    "longitude": 80.03659
  },
  {
    "name": "chaganam",
    "cc2": "02",
    "latitude": 14.20944,
    "longitude": 79.68458
  },
  {
    "name": "chagallu",
    "cc2": "02",
    "latitude": 16.99282,
    "longitude": 81.6649
  },
  {
    "name": "chagalamarri",
    "cc2": "02",
    "latitude": 14.96409,
    "longitude": 78.59034
  },
  {
    "name": "busikota",
    "cc2": "02",
    "latitude": 17.84554,
    "longitude": 82.57788
  },
  {
    "name": "burrakayalakota",
    "cc2": "02",
    "latitude": 13.72939,
    "longitude": 78.35306
  },
  {
    "name": "buravalli",
    "cc2": "02",
    "latitude": 18.34632,
    "longitude": 84.00973
  },
  {
    "name": "bukkapatnam",
    "cc2": "02",
    "latitude": 14.19947,
    "longitude": 77.80123
  },
  {
    "name": "budithapalem",
    "cc2": "02",
    "latitude": 15.34114,
    "longitude": 79.40109
  },
  {
    "name": "budarasingi",
    "cc2": "02",
    "latitude": 18.93818,
    "longitude": 84.45529
  },
  {
    "name": "buckinghampet",
    "cc2": "02",
    "latitude": 16.5108,
    "longitude": 80.62871
  },
  {
    "name": "buchireddipalem",
    "cc2": "02",
    "latitude": 14.54488,
    "longitude": 79.88298
  },
  {
    "name": "bonangi",
    "cc2": "02",
    "latitude": 18.14731,
    "longitude": 83.21925
  },
  {
    "name": "bobbili",
    "cc2": "02",
    "latitude": 18.57366,
    "longitude": 83.35925
  },
  {
    "name": "bobbarlanka",
    "cc2": "02",
    "latitude": 15.95,
    "longitude": 80.8845
  },
  {
    "name": "bitragunta",
    "cc2": "02",
    "latitude": 14.76675,
    "longitude": 79.98312
  },
  {
    "name": "biradavolu",
    "cc2": "02",
    "latitude": 14.34345,
    "longitude": 79.76802
  },
  {
    "name": "bikkavolu",
    "cc2": "02",
    "latitude": 16.95,
    "longitude": 82.05
  },
  {
    "name": "bhogapuram",
    "cc2": "02",
    "latitude": 18.03246,
    "longitude": 83.49795
  },
  {
    "name": "bhimunipatnam",
    "cc2": "02",
    "latitude": 17.89017,
    "longitude": 83.45203
  },
  {
    "name": "bhimavaram",
    "cc2": "02",
    "latitude": 16.54078,
    "longitude": 81.52322
  },
  {
    "name": "bhimadolu",
    "cc2": "02",
    "latitude": 16.81302,
    "longitude": 81.26245
  },
  {
    "name": "bhavanipuram",
    "cc2": "02",
    "latitude": 16.52437,
    "longitude": 80.59354
  },
  {
    "name": "bhattiprolu",
    "cc2": "02",
    "latitude": 16.1026,
    "longitude": 80.78074
  },
  {
    "name": "bhakarapeta",
    "cc2": "02",
    "latitude": 14.41461,
    "longitude": 78.95491
  },
  {
    "name": "bhakarapet",
    "cc2": "02",
    "latitude": 13.65364,
    "longitude": 79.1574
  },
  {
    "name": "bhairi",
    "cc2": "02",
    "latitude": 18.36545,
    "longitude": 83.98777
  },
  {
    "name": "betamcherla",
    "cc2": "02",
    "latitude": 15.45144,
    "longitude": 78.14797
  },
  {
    "name": "bestavarapeta",
    "cc2": "02",
    "latitude": 15.55046,
    "longitude": 79.10127
  },
  {
    "name": "beripeta",
    "cc2": "02",
    "latitude": 13.67677,
    "longitude": 80.18626
  },
  {
    "name": "beluguppa",
    "cc2": "02",
    "latitude": 14.71463,
    "longitude": 77.13632
  },
  {
    "name": "bavanapadu",
    "cc2": "02",
    "latitude": 18.57099,
    "longitude": 84.35249
  },
  {
    "name": "battulapallipadu",
    "cc2": "02",
    "latitude": 14.49093,
    "longitude": 79.79215
  },
  {
    "name": "battulapalle",
    "cc2": "02",
    "latitude": 14.51533,
    "longitude": 77.76666
  },
  {
    "name": "baruva",
    "cc2": "02",
    "latitude": 18.88263,
    "longitude": 84.58201
  },
  {
    "name": "bapatla",
    "cc2": "02",
    "latitude": 15.90422,
    "longitude": 80.46743
  },
  {
    "name": "bantumilli",
    "cc2": "02",
    "latitude": 16.37199,
    "longitude": 81.272
  },
  {
    "name": "bangarupet",
    "cc2": "02",
    "latitude": 13.96929,
    "longitude": 79.5994
  },
  {
    "name": "banganapalle",
    "cc2": "02",
    "latitude": 15.31771,
    "longitude": 78.22669
  },
  {
    "name": "bandi atmakuru",
    "cc2": "02",
    "latitude": 15.58136,
    "longitude": 78.52336
  },
  {
    "name": "bandarupalle",
    "cc2": "02",
    "latitude": 16.374,
    "longitude": 80.35849
  },
  {
    "name": "bandar fort",
    "cc2": "02",
    "latitude": 16.16667,
    "longitude": 81.16667
  },
  {
    "name": "bandamurlanka",
    "cc2": "02",
    "latitude": 16.45,
    "longitude": 81.96667
  },
  {
    "name": "ballipalle",
    "cc2": "02",
    "latitude": 15.24908,
    "longitude": 79.47008
  },
  {
    "name": "balijipeta",
    "cc2": "02",
    "latitude": 18.61338,
    "longitude": 83.52831
  },
  {
    "name": "balapanuru",
    "cc2": "02",
    "latitude": 14.53505,
    "longitude": 78.19578
  },
  {
    "name": "balapalapalle",
    "cc2": "02",
    "latitude": 15.45806,
    "longitude": 78.10864
  },
  {
    "name": "baireddipalle",
    "cc2": "02",
    "latitude": 13.09262,
    "longitude": 78.61196
  },
  {
    "name": "baipille",
    "cc2": "02",
    "latitude": 18.75,
    "longitude": 84.48333
  },
  {
    "name": "badvel",
    "cc2": "02",
    "latitude": 14.7451,
    "longitude": 79.06288
  },
  {
    "name": "ayirala",
    "cc2": "02",
    "latitude": 13.38577,
    "longitude": 78.98299
  },
  {
    "name": "avulamanda",
    "cc2": "02",
    "latitude": 15.9517,
    "longitude": 79.49944
  },
  {
    "name": "avanigadda",
    "cc2": "02",
    "latitude": 16.02148,
    "longitude": 80.91808
  },
  {
    "name": "avalakonda",
    "cc2": "02",
    "latitude": 13.19694,
    "longitude": 79.26399
  },
  {
    "name": "avagudem",
    "cc2": "02",
    "latitude": 18.36113,
    "longitude": 83.54488
  },
  {
    "name": "attili",
    "cc2": "02",
    "latitude": 16.7,
    "longitude": 81.6
  },
  {
    "name": "atmakuru",
    "cc2": "02",
    "latitude": 14.64521,
    "longitude": 77.35543
  },
  {
    "name": "atmakur",
    "cc2": "02",
    "latitude": 15.88109,
    "longitude": 78.58704
  },
  {
    "name": "atmakur",
    "cc2": "02",
    "latitude": 14.61586,
    "longitude": 79.62613
  },
  {
    "name": "aspari",
    "cc2": "02",
    "latitude": 15.47615,
    "longitude": 77.38746
  },
  {
    "name": "aruru",
    "cc2": "02",
    "latitude": 13.91209,
    "longitude": 80.05302
  },
  {
    "name": "ardavidu",
    "cc2": "02",
    "latitude": 15.67692,
    "longitude": 78.96074
  },
  {
    "name": "araku",
    "cc2": "02",
    "latitude": 18.33749,
    "longitude": 82.84485
  },
  {
    "name": "appikatla",
    "cc2": "02",
    "latitude": 15.97483,
    "longitude": 80.50991
  },
  {
    "name": "anumalkuduru",
    "cc2": "02",
    "latitude": 16.4847,
    "longitude": 80.66357
  },
  {
    "name": "antarvedipalem",
    "cc2": "02",
    "latitude": 16.41667,
    "longitude": 81.78333
  },
  {
    "name": "antarvedi",
    "cc2": "02",
    "latitude": 16.33251,
    "longitude": 81.7343
  },
  {
    "name": "annavaram",
    "cc2": "02",
    "latitude": 17.28318,
    "longitude": 82.4075
  },