[
  {
    "name": "zirad",
    "cc2": "16",
    "latitude": 18.75609,
    "longitude": 72.88851
  },
  {
    "name": "yusufwadgaon",
    "cc2": "16",
    "latitude": 18.63348,
    "longitude": 76.11275
  },
  {
    "name": "yermala",
    "cc2": "16",
    "latitude": 18.39127,
    "longitude": 75.87122
  },
  {
    "name": "yerli",
    "cc2": "16",
    "latitude": 20.92793,
    "longitude": 76.4767
  },
  {
    "name": "koregaon park",
    "cc2": "16",
    "latitude": 18.53333,
    "longitude": 73.9
  },
  {
    "name": "yerandwane",
    "cc2": "16",
    "latitude": 18.5058,
    "longitude": 73.82957
  },
  {
    "name": "yerandeshwar",
    "cc2": "16",
    "latitude": 19.85447,
    "longitude": 76.35428
  },
  {
    "name": "yeola",
    "cc2": "16",
    "latitude": 20.0424,
    "longitude": 74.48944
  },
  {
    "name": "yelvan",
    "cc2": "16",
    "latitude": 16.85366,
    "longitude": 73.82212
  },
  {
    "name": "yelgaon",
    "cc2": "16",
    "latitude": 17.12946,
    "longitude": 74.02676
  },
  {
    "name": "yeldari",
    "cc2": "16",
    "latitude": 16.98922,
    "longitude": 75.18788
  },
  {
    "name": "yelabara",
    "cc2": "16",
    "latitude": 20.23826,
    "longitude": 78.31235
  },
  {
    "name": "yelamb",
    "cc2": "16",
    "latitude": 18.79383,
    "longitude": 75.82634
  },
  {
    "name": "yavluj",
    "cc2": "16",
    "latitude": 16.73494,
    "longitude": 74.12873
  },
  {
    "name": "yavatmal",
    "cc2": "16",
    "latitude": 20.39324,
    "longitude": 78.13201
  },
  {
    "name": "yavat",
    "cc2": "16",
    "latitude": 18.47719,
    "longitude": 74.27336
  },
  {
    "name": "yaval",
    "cc2": "16",
    "latitude": 21.16772,
    "longitude": 75.69762
  },
  {
    "name": "yamkanmardi",
    "cc2": "16",
    "latitude": 16.12931,
    "longitude": 74.52709
  },
  {
    "name": "worli",
    "cc2": "16",
    "latitude": 19.01667,
    "longitude": 72.81667
  },
  {
    "name": "wirur",
    "cc2": "16",
    "latitude": 19.64322,
    "longitude": 79.43386
  },
  {
    "name": "wihigaon",
    "cc2": "16",
    "latitude": 20.59962,
    "longitude": 76.6398
  },
  {
    "name": "vihar buzurg",
    "cc2": "16",
    "latitude": 20.10993,
    "longitude": 79.91605
  },
  {
    "name": "wihamandav",
    "cc2": "16",
    "latitude": 19.45538,
    "longitude": 75.57801
  },
  {
    "name": "velhe",
    "cc2": "16",
    "latitude": 18.3,
    "longitude": 73.63333
  },
  {
    "name": "welhe budrukh",
    "cc2": "16",
    "latitude": 18.3,
    "longitude": 73.63333
  },
  {
    "name": "welhe",
    "cc2": "16",
    "latitude": 18.3,
    "longitude": 73.63333
  },
  {
    "name": "wathar",
    "cc2": "16",
    "latitude": 17.88246,
    "longitude": 74.14483
  },
  {
    "name": "wasi",
    "cc2": "16",
    "latitude": 18.54296,
    "longitude": 75.77817
  },
  {
    "name": "washim",
    "cc2": "16",
    "latitude": 20.11128,
    "longitude": 77.133
  },
  {
    "name": "warvad",
    "cc2": "16",
    "latitude": 17.97047,
    "longitude": 75.31286
  },
  {
    "name": "warud",
    "cc2": "16",
    "latitude": 21.47101,
    "longitude": 78.26965
  },
  {
    "name": "warsa",
    "cc2": "16",
    "latitude": 20.602,
    "longitude": 79.95574
  },
  {
    "name": "warora",
    "cc2": "16",
    "latitude": 20.22885,
    "longitude": 79.00277
  },
  {
    "name": "wari godri",
    "cc2": "16",
    "latitude": 19.45441,
    "longitude": 75.70915
  },
  {
    "name": "warhona",
    "cc2": "16",
    "latitude": 19.42638,
    "longitude": 77.87572
  },
  {
    "name": "waregaon",
    "cc2": "16",
    "latitude": 21.33263,
    "longitude": 79.41237
  },
  {
    "name": "wardhangarh fort",
    "cc2": "16",
    "latitude": 17.7256,
    "longitude": 74.26393
  },
  {
    "name": "wardha",
    "cc2": "16",
    "latitude": 20.73933,
    "longitude": 78.59784
  },
  {
    "name": "wardha",
    "cc2": "16",
    "latitude": 20.33197,
    "longitude": 80.08183
  },
  {
    "name": "wanwas wari",
    "cc2": "16",
    "latitude": 17.68437,
    "longitude": 74.02938
  },
  {
    "name": "wani",
    "cc2": "16",
    "latitude": 20.05507,
    "longitude": 78.95313
  },
  {
    "name": "wangi",
    "cc2": "16",
    "latitude": 18.17888,
    "longitude": 75.14698
  },
  {
    "name": "wangepalli",
    "cc2": "16",
    "latitude": 19.42363,
    "longitude": 79.97739
  },
  {
    "name": "wamanpalli",
    "cc2": "16",
    "latitude": 19.55945,
    "longitude": 79.53177
  },
  {
    "name": "walwad",
    "cc2": "16",
    "latitude": 18.45682,
    "longitude": 75.52144
  },
  {
    "name": "walvad",
    "cc2": "16",
    "latitude": 18.6315,
    "longitude": 74.9574
  },
  {
    "name": "walur",
    "cc2": "16",
    "latitude": 19.48724,
    "longitude": 76.55956
  },
  {
    "name": "waluj buzurg",
    "cc2": "16",
    "latitude": 19.79632,
    "longitude": 75.22648
  },
  {
    "name": "walsang",
    "cc2": "16",
    "latitude": 17.58025,
    "longitude": 76.08495
  },
  {
    "name": "walki",
    "cc2": "16",
    "latitude": 18.9628,
    "longitude": 74.75383
  },
  {
    "name": "walgaon",
    "cc2": "16",
    "latitude": 21.01048,
    "longitude": 77.70462
  },
  {
    "name": "walandi",
    "cc2": "16",
    "latitude": 18.23552,
    "longitude": 76.96306
  },
  {
    "name": "waki",
    "cc2": "16",
    "latitude": 18.51667,
    "longitude": 73.51667
  },
  {
    "name": "wakad",
    "cc2": "16",
    "latitude": 20.03901,
    "longitude": 76.68959
  },
  {
    "name": "wairagarh",
    "cc2": "16",
    "latitude": 20.42984,
    "longitude": 80.09157
  },
  {
    "name": "waigaon",
    "cc2": "16",
    "latitude": 20.63392,
    "longitude": 78.60937
  },
  {
    "name": "wai",
    "cc2": "16",
    "latitude": 17.95276,
    "longitude": 73.89058
  },
  {
    "name": "wahegaon",
    "cc2": "16",
    "latitude": 19.7699,
    "longitude": 75.67947
  },
  {
    "name": "waghrul",
    "cc2": "16",
    "latitude": 19.96154,
    "longitude": 75.97952
  },
  {
    "name": "wagholi",
    "cc2": "16",
    "latitude": 17.90274,
    "longitude": 74.08128
  },
  {
    "name": "waghad",
    "cc2": "16",
    "latitude": 20.23211,
    "longitude": 73.71923
  },
  {
    "name": "wagdari",
    "cc2": "16",
    "latitude": 17.61578,
    "longitude": 76.35653
  },
  {
    "name": "wafgaon",
    "cc2": "16",
    "latitude": 18.87935,
    "longitude": 73.99087
  },
  {
    "name": "wadwani",
    "cc2": "16",
    "latitude": 18.98707,
    "longitude": 76.04363
  },
  {
    "name": "wadner gangai",
    "cc2": "16",
    "latitude": 21.05246,
    "longitude": 77.18028
  },
  {
    "name": "wadner",
    "cc2": "16",
    "latitude": 20.84099,
    "longitude": 76.32278
  },
  {
    "name": "wadner",
    "cc2": "16",
    "latitude": 20.43894,
    "longitude": 78.74275
  },
  {
    "name": "wadki",
    "cc2": "16",
    "latitude": 20.28029,
    "longitude": 78.71813
  },
  {
    "name": "wadjhire",
    "cc2": "16",
    "latitude": 19.01952,
    "longitude": 74.33735
  },
  {
    "name": "wadhona khurd",
    "cc2": "16",
    "latitude": 18.53983,
    "longitude": 77.0652
  },
  {
    "name": "wadhona buzurg",
    "cc2": "16",
    "latitude": 18.52122,
    "longitude": 77.08403
  },
  {
    "name": "wadhona",
    "cc2": "16",
    "latitude": 20.99885,
    "longitude": 78.34529
  },
  {
    "name": "wadhona",
    "cc2": "16",
    "latitude": 18.51667,
    "longitude": 77.08333
  },
  {
    "name": "wadhiware",
    "cc2": "16",
    "latitude": 19.86098,
    "longitude": 73.6754
  },
  {
    "name": "wadgaon",
    "cc2": "16",
    "latitude": 19.58922,
    "longitude": 74.27423
  },
  {
    "name": "wadgaon",
    "cc2": "16",
    "latitude": 18.7392,
    "longitude": 73.63945
  },
  {
    "name": "wadgaon",
    "cc2": "16",
    "latitude": 18.12964,
    "longitude": 74.36193
  },
  {
    "name": "wadgaon",
    "cc2": "16",
    "latitude": 18.08333,
    "longitude": 76.11667
  },
  {
    "name": "wadgaon",
    "cc2": "16",
    "latitude": 16.83553,
    "longitude": 74.31338
  },
  {
    "name": "wadegaon",
    "cc2": "16",
    "latitude": 20.76612,
    "longitude": 79.98686
  },
  {
    "name": "wadegaon",
    "cc2": "16",
    "latitude": 20.58023,
    "longitude": 76.85143
  },
  {
    "name": "wadala",
    "cc2": "16",
    "latitude": 19.01667,
    "longitude": 72.85
  },
  {
    "name": "wadala",
    "cc2": "16",
    "latitude": 20.37952,
    "longitude": 73.98485
  },
  {
    "name": "wada",
    "cc2": "16",
    "latitude": 18.98817,
    "longitude": 73.73856
  },
  {
    "name": "vovale",
    "cc2": "16",
    "latitude": 18.97567,
    "longitude": 73.06339
  },
  {
    "name": "vitner",
    "cc2": "16",
    "latitude": 20.8458,
    "longitude": 75.5513
  },
  {
    "name": "vite",
    "cc2": "16",
    "latitude": 17.27343,
    "longitude": 74.53792
  },
  {
    "name": "vishalgarh",
    "cc2": "16",
    "latitude": 16.90823,
    "longitude": 73.74367
  },
  {
    "name": "visarwari",
    "cc2": "16",
    "latitude": 21.18244,
    "longitude": 73.96613
  },
  {
    "name": "visapur",
    "cc2": "16",
    "latitude": 18.82556,
    "longitude": 74.5988
  },
  {
    "name": "visapur",
    "cc2": "16",
    "latitude": 17.11694,
    "longitude": 74.5863
  },
  {
    "name": "virul",
    "cc2": "16",
    "latitude": 20.84144,
    "longitude": 78.07922
  },
  {
    "name": "virul",
    "cc2": "16",
    "latitude": 20.80437,
    "longitude": 78.35478
  },
  {
    "name": "virpur",
    "cc2": "16",
    "latitude": 21.71448,
    "longitude": 74.42268
  },
  {
    "name": "virmora",
    "cc2": "16",
    "latitude": 17.81345,
    "longitude": 73.96177
  },
  {
    "name": "virgaon",
    "cc2": "16",
    "latitude": 20.66795,
    "longitude": 74.14245
  },
  {
    "name": "virgaon",
    "cc2": "16",
    "latitude": 19.82191,
    "longitude": 74.77662
  },
  {
    "name": "virdel",
    "cc2": "16",
    "latitude": 21.32478,
    "longitude": 74.70021
  },
  {
    "name": "viravdi",
    "cc2": "16",
    "latitude": 17.32414,
    "longitude": 74.21121
  },
  {
    "name": "virathan budrukh",
    "cc2": "16",
    "latitude": 19.55025,
    "longitude": 72.787
  },
  {
    "name": "virar",
    "cc2": "16",
    "latitude": 19.45591,
    "longitude": 72.81136
  },
  {
    "name": "vir",
    "cc2": "16",
    "latitude": 18.11667,
    "longitude": 74.1
  },
  {
    "name": "vinhera",
    "cc2": "16",
    "latitude": 17.91825,
    "longitude": 73.38951
  },
  {
    "name": "vinchur",
    "cc2": "16",
    "latitude": 20.10409,
    "longitude": 74.22609
  },
  {
    "name": "vile parle",
    "cc2": "16",
    "latitude": 19.1,
    "longitude": 72.83333
  },
  {
    "name": "vilad",
    "cc2": "16",
    "latitude": 19.20756,
    "longitude": 74.66642
  },
  {
    "name": "vikhroli",
    "cc2": "16",
    "latitude": 19.11492,
    "longitude": 72.92671
  },
  {
    "name": "vijayadurg",
    "cc2": "16",
    "latitude": 16.55451,
    "longitude": 73.3352
  },
  {
    "name": "vihur",
    "cc2": "16",
    "latitude": 18.3478,
    "longitude": 72.94235
  },
  {
    "name": "vidul",
    "cc2": "16",
    "latitude": 19.56822,
    "longitude": 77.75359
  },
  {
    "name": "vida",
    "cc2": "16",
    "latitude": 18.81416,
    "longitude": 75.93057
  },
  {
    "name": "vichva",
    "cc2": "16",
    "latitude": 20.93904,
    "longitude": 75.86985
  },
  {
    "name": "vichumbe",
    "cc2": "16",
    "latitude": 18.98712,
    "longitude": 73.13254
  },
  {
    "name": "vesava",
    "cc2": "16",
    "latitude": 19.13914,
    "longitude": 72.81015
  },
  {
    "name": "ves",
    "cc2": "16",
    "latitude": 19.76656,
    "longitude": 74.38419
  },
  {
    "name": "verul",
    "cc2": "16",
    "latitude": 20.55737,
    "longitude": 73.86367
  },
  {
    "name": "vengurla",
    "cc2": "16",
    "latitude": 15.86125,
    "longitude": 73.63182
  },
  {
    "name": "veltur",
    "cc2": "16",
    "latitude": 20.99724,
    "longitude": 79.57302
  },
  {
    "name": "velneshvar",
    "cc2": "16",
    "latitude": 17.37827,
    "longitude": 73.21453
  },
  {
    "name": "velapur",
    "cc2": "16",
    "latitude": 17.79116,
    "longitude": 75.05662
  },
  {
    "name": "vedshi",
    "cc2": "16",
    "latitude": 18.32438,
    "longitude": 75.96541
  },
  {
    "name": "vedhi dhamangaon",
    "cc2": "16",
    "latitude": 19.55,
    "longitude": 72.78333
  },
  {
    "name": "vayphal",
    "cc2": "16",
    "latitude": 17.15924,
    "longitude": 75.25433
  },
  {
    "name": "vaygaon",
    "cc2": "16",
    "latitude": 20.64468,
    "longitude": 74.34959
  },
  {
    "name": "vavi",
    "cc2": "16",
    "latitude": 19.80193,
    "longitude": 74.24886
  },
  {
    "name": "vatul",
    "cc2": "16",
    "latitude": 16.74994,
    "longitude": 73.60367
  },
  {
    "name": "vatambra",
    "cc2": "16",
    "latitude": 17.38322,
    "longitude": 75.1101
  },
  {
    "name": "vasind",
    "cc2": "16",
    "latitude": 19.40844,
    "longitude": 73.26285
  },
  {
    "name": "vashi",
    "cc2": "16",
    "latitude": 18.75013,
    "longitude": 73.04189
  },
  {
    "name": "vasali",
    "cc2": "16",
    "latitude": 19.64421,
    "longitude": 73.72849
  },
  {
    "name": "vasai",
    "cc2": "16",
    "latitude": 19.36071,
    "longitude": 72.79558
  },
  {
    "name": "varud",
    "cc2": "16",
    "latitude": 20.35567,
    "longitude": 75.88507
  },
  {
    "name": "varsoli",
    "cc2": "16",
    "latitude": 18.66646,
    "longitude": 72.86923
  },
  {
    "name": "varshi",
    "cc2": "16",
    "latitude": 21.24854,
    "longitude": 74.82844
  },
  {
    "name": "varse",
    "cc2": "16",
    "latitude": 20.91481,
    "longitude": 73.98293
  },
  {
    "name": "varkute",
    "cc2": "16",
    "latitude": 17.69253,
    "longitude": 75.56925
  },
  {
    "name": "varkheda",
    "cc2": "16",
    "latitude": 20.24217,
    "longitude": 73.89346
  },
  {
    "name": "vari",
    "cc2": "16",
    "latitude": 19.81415,
    "longitude": 74.56868
  },
  {
    "name": "varangaon",
    "cc2": "16",
    "latitude": 21.01767,
    "longitude": 75.91042
  },
  {
    "name": "varandha",
    "cc2": "16",
    "latitude": 18.1342,
    "longitude": 73.57454
  },
  {
    "name": "varad budrukh",
    "cc2": "16",
    "latitude": 21.00105,
    "longitude": 75.40012
  },
  {
    "name": "vanyagana",
    "cc2": "16",
    "latitude": 17.03439,
    "longitude": 73.48791
  },
  {
    "name": "vanked",
    "cc2": "16",
    "latitude": 16.78533,
    "longitude": 73.57857
  },
  {
    "name": "vankas",
    "cc2": "16",
    "latitude": 20.07388,
    "longitude": 72.88852
  },
  {
    "name": "vani",
    "cc2": "16",
    "latitude": 20.33162,
    "longitude": 73.89431
  },
  {
    "name": "vangi",
    "cc2": "16",
    "latitude": 17.55969,
    "longitude": 75.84202
  },
  {
    "name": "vangi",
    "cc2": "16",
    "latitude": 17.23283,
    "longitude": 74.39591
  },
  {
    "name": "vangaon",
    "cc2": "16",
    "latitude": 19.87621,
    "longitude": 72.76267
  },
  {
    "name": "vambori",
    "cc2": "16",
    "latitude": 19.28333,
    "longitude": 74.73333
  },
  {
    "name": "valva",
    "cc2": "16",
    "latitude": 17.0264,
    "longitude": 74.37329
  },
  {
    "name": "valunjvadi",
    "cc2": "16",
    "latitude": 19.2,
    "longitude": 74.06667
  },
  {
    "name": "valsavangi",
    "cc2": "16",
    "latitude": 20.46952,
    "longitude": 75.93213
  },
  {
    "name": "valsang",
    "cc2": "16",
    "latitude": 17.05903,
    "longitude": 75.31593
  },
  {
    "name": "valsa",
    "cc2": "16",
    "latitude": 20.15708,
    "longitude": 75.79212
  },
  {
    "name": "valha",
    "cc2": "16",
    "latitude": 18.18648,
    "longitude": 74.15272
  },
  {
    "name": "valaval",
    "cc2": "16",
    "latitude": 16.00402,
    "longitude": 73.61306
  },
  {
    "name": "valap",
    "cc2": "16",
    "latitude": 19.05773,
    "longitude": 73.13233
  },
  {
    "name": "vakle",
    "cc2": "16",
    "latitude": 20.20955,
    "longitude": 74.83189
  },
  {
    "name": "vakhari",
    "cc2": "16",
    "latitude": 17.68717,
    "longitude": 75.28413
  },
  {
    "name": "vakav",
    "cc2": "16",
    "latitude": 17.98531,
    "longitude": 75.59889
  },
  {
    "name": "vakad",
    "cc2": "16",
    "latitude": 20.63644,
    "longitude": 75.71353
  },
  {
    "name": "vajhur",
    "cc2": "16",
    "latitude": 19.06742,
    "longitude": 76.84051
  },
  {
    "name": "vajapur",
    "cc2": "16",
    "latitude": 19,
    "longitude": 73.21667
  },
  {
    "name": "vaishet",
    "cc2": "16",
    "latitude": 18.69527,
    "longitude": 72.88333
  },
  {
    "name": "vairag",
    "cc2": "16",
    "latitude": 18.05911,
    "longitude": 75.80362
  },
  {
    "name": "vaijapur",
    "cc2": "16",
    "latitude": 19.92672,
    "longitude": 74.7275
  },
  {
    "name": "vaigaon",
    "cc2": "16",
    "latitude": 19.71245,
    "longitude": 74.90724
  },
  {
    "name": "vaghunde budrukh",
    "cc2": "16",
    "latitude": 18.93492,
    "longitude": 74.50801
  },
  {
    "name": "vagholi",
    "cc2": "16",
    "latitude": 18.5823,
    "longitude": 73.98301
  },
  {
    "name": "vagholi",
    "cc2": "16",
    "latitude": 17.62441,
    "longitude": 75.65788
  },
  {
    "name": "vaghli",
    "cc2": "16",
    "latitude": 20.50809,
    "longitude": 75.1053
  },
  {
    "name": "vaghari",
    "cc2": "16",
    "latitude": 20.81143,
    "longitude": 75.90569
  },
  {
    "name": "vaghadi",
    "cc2": "16",
    "latitude": 21.377,
    "longitude": 74.85623
  },
  {
    "name": "vagda",
    "cc2": "16",
    "latitude": 16.24095,
    "longitude": 73.70937
  },
  {
    "name": "vaduj",
    "cc2": "16",
    "latitude": 17.59396,
    "longitude": 74.45175
  },
  {
    "name": "vadod khurd",
    "cc2": "16",
    "latitude": 20.15649,
    "longitude": 75.547
  },
  {
    "name": "vadod buzurg",
    "cc2": "16",
    "latitude": 20.14661,
    "longitude": 75.52403
  },
  {
    "name": "vadod",
    "cc2": "16",
    "latitude": 20.15,
    "longitude": 75.53333
  },
  {
    "name": "vadner",
    "cc2": "16",
    "latitude": 20.25083,
    "longitude": 74.03099
  },
  {
    "name": "vadi budrukh",
    "cc2": "16",
    "latitude": 21.4475,
    "longitude": 74.85086
  },
  {
    "name": "vadhoda",
    "cc2": "16",
    "latitude": 21.00963,
    "longitude": 76.37211
  },
  {
    "name": "vadel",
    "cc2": "16",
    "latitude": 20.6387,
    "longitude": 74.45711
  },
  {
    "name": "vadangali",
    "cc2": "16",
    "latitude": 19.92085,
    "longitude": 74.16443
  },
  {
    "name": "vadalibhui",
    "cc2": "16",
    "latitude": 20.28108,
    "longitude": 74.10378
  },
  {
    "name": "vadala bhairoba",
    "cc2": "16",
    "latitude": 19.43297,
    "longitude": 74.90639
  },
  {
    "name": "vadala",
    "cc2": "16",
    "latitude": 17.87561,
    "longitude": 75.83033
  },
  {
    "name": "vadachapat",
    "cc2": "16",
    "latitude": 16.15824,
    "longitude": 73.56705
  },
  {
    "name": "vada",
    "cc2": "16",
    "latitude": 19.65347,
    "longitude": 73.14811
  },
  {
    "name": "uttur",
    "cc2": "16",
    "latitude": 16.23899,
    "longitude": 74.26117
  },
  {
    "name": "utan",
    "cc2": "16",
    "latitude": 19.26906,
    "longitude": 72.80957
  },
  {
    "name": "usarni",
    "cc2": "16",
    "latitude": 19.57898,
    "longitude": 72.71828
  },
  {
    "name": "urun-islampur",
    "cc2": "16",
    "latitude": 17.05,
    "longitude": 74.26667
  },
  {
    "name": "urun",
    "cc2": "16",
    "latitude": 17.05297,
    "longitude": 74.26494
  },
  {
    "name": "uruli kanchan",
    "cc2": "16",
    "latitude": 18.48982,
    "longitude": 74.13376
  },
  {
    "name": "uran",
    "cc2": "16",
    "latitude": 18.87813,
    "longitude": 72.93924
  },
  {
    "name": "uplai buzurg",
    "cc2": "16",
    "latitude": 17.96853,
    "longitude": 75.49198
  },
  {
    "name": "upla",
    "cc2": "16",
    "latitude": 18.25234,
    "longitude": 76.0575
  },
  {
    "name": "undirgaon",
    "cc2": "16",
    "latitude": 19.67804,
    "longitude": 74.70659
  },
  {
    "name": "undangaon",
    "cc2": "16",
    "latitude": 20.45703,
    "longitude": 75.66321
  },
  {
    "name": "unchagao",
    "cc2": "16",
    "latitude": 16.69746,
    "longitude": 74.27325
  },
  {
    "name": "umunur",
    "cc2": "16",
    "latitude": 19.05,
    "longitude": 80.08333
  },
  {
    "name": "umri",
    "cc2": "16",
    "latitude": 20.09658,
    "longitude": 77.59917
  },
  {
    "name": "umri",
    "cc2": "16",
    "latitude": 19.84344,
    "longitude": 78.20239
  },
  {
    "name": "umri",
    "cc2": "16",
    "latitude": 19.18952,
    "longitude": 76.63858
  },
  {
    "name": "umri",
    "cc2": "16",
    "latitude": 19.0391,
    "longitude": 77.64539
  },
  {
    "name": "umred",
    "cc2": "16",
    "latitude": 20.85396,
    "longitude": 79.32466
  },
  {
    "name": "umele",
    "cc2": "16",
    "latitude": 19.35908,
    "longitude": 72.83792
  },
  {
    "name": "umdi khurd",
    "cc2": "16",
    "latitude": 17.26667,
    "longitude": 75.6
  },
  {
    "name": "umdi buzurg",
    "cc2": "16",
    "latitude": 17.26667,
    "longitude": 75.6
  },
  {
    "name": "umdi",
    "cc2": "16",
    "latitude": 17.25569,
    "longitude": 75.59564
  },
  {
    "name": "umbrane",
    "cc2": "16",
    "latitude": 20.42114,
    "longitude": 74.34795
  },
  {
    "name": "umbraj",
    "cc2": "16",
    "latitude": 17.40277,
    "longitude": 74.10096
  },
  {
    "name": "umbra",
    "cc2": "16",
    "latitude": 20.22214,
    "longitude": 76.65728
  },
  {
    "name": "umbra",
    "cc2": "16",
    "latitude": 17.94226,
    "longitude": 74.8724
  },
  {
    "name": "umberpada",
    "cc2": "16",
    "latitude": 19.47561,
    "longitude": 73.07603
  },
  {
    "name": "umarkhed",
    "cc2": "16",
    "latitude": 19.60144,
    "longitude": 77.68878
  },
  {
    "name": "umarga",
    "cc2": "16",
    "latitude": 17.83841,
    "longitude": 76.62331
  },
  {
    "name": "umapur",
    "cc2": "16",
    "latitude": 19.29255,
    "longitude": 75.59692
  },
  {
    "name": "umala",
    "cc2": "16",
    "latitude": 20.91727,
    "longitude": 75.64071
  },
  {
    "name": "ulhasnagar",
    "cc2": "16",
    "latitude": 19.21667,
    "longitude": 73.15
  },
  {
    "name": "ukshi",
    "cc2": "16",
    "latitude": 17.11349,
    "longitude": 73.44692
  },
  {
    "name": "vir",
    "cc2": "16",
    "latitude": 18.7,
    "longitude": 76.7
  },
  {
    "name": "udva",
    "cc2": "16",
    "latitude": 20.08333,
    "longitude": 73
  },
  {
    "name": "udmal",
    "cc2": "16",
    "latitude": 20.66193,
    "longitude": 73.48409
  },
  {
    "name": "udgir",
    "cc2": "16",
    "latitude": 18.39258,
    "longitude": 77.11756
  },
  {
    "name": "turambhe",
    "cc2": "16",
    "latitude": 19.06867,
    "longitude": 73.01285
  },
  {
    "name": "tumsar",
    "cc2": "16",
    "latitude": 21.38333,
    "longitude": 79.73333
  },
  {
    "name": "tuljapur",
    "cc2": "16",
    "latitude": 20.79067,
    "longitude": 78.82752
  },
  {
    "name": "tuljapur",
    "cc2": "16",
    "latitude": 18.00804,
    "longitude": 76.07011
  },
  {
    "name": "trombay",
    "cc2": "16",
    "latitude": 19,
    "longitude": 72.9
  },
  {
    "name": "trombay",
    "cc2": "16",
    "latitude": 19.03333,
    "longitude": 72.93333
  },
  {
    "name": "trimbak",
    "cc2": "16",
    "latitude": 19.93268,
    "longitude": 73.52907
  },
  {
    "name": "torna",
    "cc2": "16",
    "latitude": 18.27211,
    "longitude": 73.61696
  },
  {
    "name": "torkhed",
    "cc2": "16",
    "latitude": 21.41112,
    "longitude": 74.66636
  },
  {
    "name": "toranmal",
    "cc2": "16",
    "latitude": 21.87804,
    "longitude": 74.46351
  },
  {
    "name": "top",
    "cc2": "16",
    "latitude": 16.79055,
    "longitude": 74.28479
  },
  {
    "name": "tondapur",
    "cc2": "16",
    "latitude": 20.57537,
    "longitude": 75.80644
  },
  {
    "name": "tonda",
    "cc2": "16",
    "latitude": 16.93463,
    "longitude": 73.37699
  },
  {
    "name": "tokade",
    "cc2": "16",
    "latitude": 20.65483,
    "longitude": 74.60031
  },
  {
    "name": "tohogaon",
    "cc2": "16",
    "latitude": 19.66942,
    "longitude": 79.48931
  },
  {
    "name": "tivsa",
    "cc2": "16",
    "latitude": 21.08727,
    "longitude": 78.06323
  },
  {
    "name": "tisgaon",
    "cc2": "16",
    "latitude": 19.18841,
    "longitude": 75.06768
  },
  {
    "name": "tirthpuri",
    "cc2": "16",
    "latitude": 19.43877,
    "longitude": 75.92406
  },
  {
    "name": "tirth",
    "cc2": "16",
    "latitude": 17.65936,
    "longitude": 75.77748
  },
  {
    "name": "tiraoda",
    "cc2": "16",
    "latitude": 16.55536,
    "longitude": 73.77862
  },
  {
    "name": "timdulvadi",
    "cc2": "16",
    "latitude": 17.84239,
    "longitude": 75.96237
  },
  {
    "name": "tikondi",
    "cc2": "16",
    "latitude": 17.03247,
    "longitude": 75.56674
  },
  {
    "name": "thergaon",
    "cc2": "16",
    "latitude": 18.77156,
    "longitude": 74.94391
  },
  {
    "name": "thengode",
    "cc2": "16",
    "latitude": 20.51997,
    "longitude": 74.19774
  },
  {
    "name": "thadi pavni",
    "cc2": "16",
    "latitude": 21.35393,
    "longitude": 78.30393
  },
  {
    "name": "thangaon",
    "cc2": "16",
    "latitude": 19.69645,
    "longitude": 73.931
  },
  {
    "name": "thanepada",
    "cc2": "16",
    "latitude": 21.25746,
    "longitude": 74.26554
  },
  {
    "name": "thane",
    "cc2": "16",
    "latitude": 19.19704,
    "longitude": 72.96355
  },
  {
    "name": "thalner",
    "cc2": "16",
    "latitude": 21.25692,
    "longitude": 74.95625
  },
  {
    "name": "thal",
    "cc2": "16",
    "latitude": 18.68891,
    "longitude": 72.86749
  },
  {
    "name": "thal",
    "cc2": "16",
    "latitude": 18.58333,
    "longitude": 72.91667
  },
  {
    "name": "thakurvadi",
    "cc2": "16",
    "latitude": 18.83505,
    "longitude": 73.36516
  },
  {
    "name": "thair",
    "cc2": "16",
    "latitude": 18.31996,
    "longitude": 76.14101
  },
  {
    "name": "thadbai",
    "cc2": "16",
    "latitude": 19.75,
    "longitude": 80.58333
  },
  {
    "name": "terkhed",
    "cc2": "16",
    "latitude": 18.44529,
    "longitude": 75.83586
  },
  {
    "name": "terevadi",
    "cc2": "16",
    "latitude": 18.06498,
    "longitude": 73.28016
  },
  {
    "name": "tembhurni",
    "cc2": "16",
    "latitude": 20.12769,
    "longitude": 75.99312
  },
  {
    "name": "tembhurni",
    "cc2": "16",
    "latitude": 18.02718,
    "longitude": 75.19356
  },
  {
    "name": "temurda",
    "cc2": "16",
    "latitude": 20.34612,
    "longitude": 79.01951
  },
  {
    "name": "tembhi",
    "cc2": "16",
    "latitude": 19.75352,
    "longitude": 77.84061
  },
  {
    "name": "telhara",
    "cc2": "16",
    "latitude": 21.02694,
    "longitude": 76.83889
  },
  {
    "name": "tasgaon",
    "cc2": "16",
    "latitude": 17.037,
    "longitude": 74.60171
  },
  {
    "name": "tarwadi",
    "cc2": "16",
    "latitude": 20.74672,
    "longitude": 76.34471
  },
  {
    "name": "tarubanda",
    "cc2": "16",
    "latitude": 21.46619,
    "longitude": 77.14545
  },
  {
    "name": "tarora",
    "cc2": "16",
    "latitude": 20.39818,
    "longitude": 74.75214
  },
  {
    "name": "tarla",
    "cc2": "16",
    "latitude": 17.50061,
    "longitude": 73.9798
  },
  {
    "name": "tadkalas",
    "cc2": "16",
    "latitude": 19.13229,
    "longitude": 76.94351
  },
  {
    "name": "targaon",
    "cc2": "16",
    "latitude": 17.51133,
    "longitude": 74.14601
  },
  {
    "name": "tardeo",
    "cc2": "16",
    "latitude": 18.96667,
    "longitude": 72.81667
  },
  {
    "name": "tarapur",
    "cc2": "16",
    "latitude": 19.86499,
    "longitude": 72.68426
  },
  {
    "name": "tarapur",
    "cc2": "16",
    "latitude": 17.70324,
    "longitude": 75.46521
  },
  {
    "name": "taradgaon",
    "cc2": "16",
    "latitude": 18.02651,
    "longitude": 74.24742
  },
  {
    "name": "tarabad",
    "cc2": "16",
    "latitude": 19.39857,
    "longitude": 74.49979
  },
  {
    "name": "tara",
    "cc2": "16",
    "latitude": 19.08481,
    "longitude": 72.82783
  },
  {
    "name": "tangla",
    "cc2": "16",
    "latitude": 21.53182,
    "longitude": 79.48997
  },
  {
    "name": "tandulwadi",
    "cc2": "16",
    "latitude": 17.76322,
    "longitude": 76.08549
  },
  {
    "name": "tana",
    "cc2": "16",
    "latitude": 20.73333,
    "longitude": 74.2
  },
  {
    "name": "tamsa",
    "cc2": "16",
    "latitude": 19.37315,
    "longitude": 77.61195
  },
  {
    "name": "tambe rajuri",
    "cc2": "16",
    "latitude": 18.85081,
    "longitude": 75.48753
  },
  {
    "name": "tamasvadi",
    "cc2": "16",
    "latitude": 20.7828,
    "longitude": 75.049
  },
  {
    "name": "talwai",
    "cc2": "16",
    "latitude": 19.31342,
    "longitude": 75.86266
  },
  {
    "name": "talvada khurd",
    "cc2": "16",
    "latitude": 20.7321,
    "longitude": 75.10021
  },
  {
    "name": "talvad",
    "cc2": "16",
    "latitude": 20.18152,
    "longitude": 74.78176
  },
  {
    "name": "taloje",
    "cc2": "16",
    "latitude": 19.08555,
    "longitude": 73.09837
  },
  {
    "name": "talodhi",
    "cc2": "16",
    "latitude": 20.44348,
    "longitude": 79.66365
  },
  {
    "name": "talode",
    "cc2": "16",
    "latitude": 20.48031,
    "longitude": 74.84316
  },
  {
    "name": "taloda",
    "cc2": "16",
    "latitude": 21.56128,
    "longitude": 74.21238
  },
  {
    "name": "talni",
    "cc2": "16",
    "latitude": 20.76821,
    "longitude": 78.22894
  },
  {
    "name": "talni",
    "cc2": "16",
    "latitude": 19.88176,
    "longitude": 76.47322
  },
  {
    "name": "talm",
    "cc2": "16",
    "latitude": 18.79036,
    "longitude": 77.61149
  },
  {
    "name": "talmud",
    "cc2": "16",
    "latitude": 17.82827,
    "longitude": 76.75198
  },
  {
    "name": "talkhed",
    "cc2": "16",
    "latitude": 19.18243,
    "longitude": 76.03368
  },
  {
    "name": "talgaon",
    "cc2": "16",
    "latitude": 16.08889,
    "longitude": 73.67456
  },
  {
    "name": "taleghar",
    "cc2": "16",
    "latitude": 19.08594,
    "longitude": 73.63571
  },
  {
    "name": "talegaon dhamdhere",
    "cc2": "16",
    "latitude": 18.66847,
    "longitude": 74.15171
  },
  {
    "name": "talegaon dabhade",
    "cc2": "16",
    "latitude": 18.73502,
    "longitude": 73.67561
  },
  {
    "name": "talegaon",
    "cc2": "16",
    "latitude": 21.11095,
    "longitude": 78.19988
  },
  {
    "name": "talegaon",
    "cc2": "16",
    "latitude": 20.67927,
    "longitude": 78.09562
  },
  {
    "name": "talegaon",
    "cc2": "16",
    "latitude": 20.14331,
    "longitude": 73.81872
  },
  {
    "name": "talegaon",
    "cc2": "16",
    "latitude": 19.69548,
    "longitude": 74.29786
  },
  {
    "name": "talbid",
    "cc2": "16",
    "latitude": 17.33846,
    "longitude": 74.11021
  },
  {
    "name": "talavda",
    "cc2": "16",
    "latitude": 15.86999,
    "longitude": 73.73512
  },
  {
    "name": "talasri",
    "cc2": "16",
    "latitude": 20.11719,
    "longitude": 72.92954
  },
  {
    "name": "tala",
    "cc2": "16",
    "latitude": 18.29357,
    "longitude": 73.14037
  },
  {
    "name": "takwa budrukh",
    "cc2": "16",
    "latitude": 18.80572,
    "longitude": 73.60774
  },
  {
    "name": "takli dhokeshwar",
    "cc2": "16",
    "latitude": 19.15756,
    "longitude": 74.38167
  },
  {
    "name": "taklibhan",
    "cc2": "16",
    "latitude": 19.61385,
    "longitude": 74.79797
  },
  {
    "name": "takli",
    "cc2": "16",
    "latitude": 20.06838,
    "longitude": 75.24062
  },
  {
    "name": "takli",
    "cc2": "16",
    "latitude": 19.45325,
    "longitude": 74.66778
  },
  {
    "name": "takli",
    "cc2": "16",
    "latitude": 19.04173,
    "longitude": 74.83931
  },
  {
    "name": "takli",
    "cc2": "16",
    "latitude": 18.6455,
    "longitude": 74.21958
  },
  {
    "name": "takarkhera",
    "cc2": "16",
    "latitude": 21.09805,
    "longitude": 77.66069
  },
  {
    "name": "takarkheda",
    "cc2": "16",
    "latitude": 21.04191,
    "longitude": 75.18338
  },
  {
    "name": "takalghat",
    "cc2": "16",
    "latitude": 20.91521,
    "longitude": 78.94694
  },
  {
    "name": "taharpur",
    "cc2": "16",
    "latitude": 19.5465,
    "longitude": 73.22863
  },
  {
    "name": "taharabad",
    "cc2": "16",
    "latitude": 20.78584,
    "longitude": 74.13693
  },
  {
    "name": "tadwalla",
    "cc2": "16",
    "latitude": 18.37577,
    "longitude": 76.04556
  },
  {
    "name": "tadali",
    "cc2": "16",
    "latitude": 20.03061,
    "longitude": 79.19443
  },
  {
    "name": "sutkatte",
    "cc2": "16",
    "latitude": 16.06492,
    "longitude": 74.51201
  },
  {
    "name": "susarda",
    "cc2": "16",
    "latitude": 21.39953,
    "longitude": 76.76099
  },
  {
    "name": "suryamal",
    "cc2": "16",
    "latitude": 19.75869,
    "longitude": 73.34748
  },
  {
    "name": "survani",
    "cc2": "16",
    "latitude": 21.82087,
    "longitude": 74.15966
  },
  {
    "name": "surul",
    "cc2": "16",
    "latitude": 17.96077,
    "longitude": 73.98346
  },
  {
    "name": "surjagarh",
    "cc2": "16",
    "latitude": 19.6,
    "longitude": 80.41667
  },
  {
    "name": "surgana",
    "cc2": "16",
    "latitude": 20.55956,
    "longitude": 73.63747
  },
  {
    "name": "suregaonrasta",
    "cc2": "16",
    "latitude": 19.98468,
    "longitude": 74.62286
  },
  {
    "name": "surdi",
    "cc2": "16",
    "latitude": 18.07109,
    "longitude": 75.70076
  },
  {
    "name": "supegaon",
    "cc2": "16",
    "latitude": 18.84683,
    "longitude": 76.76399
  },
  {
    "name": "supe",
    "cc2": "16",
    "latitude": 18.95993,
    "longitude": 74.53726
  },
  {
    "name": "supa",
    "cc2": "16",
    "latitude": 18.33469,
    "longitude": 74.37759
  },
  {
    "name": "sumba",
    "cc2": "16",
    "latitude": 18.29803,
    "longitude": 76.24565
  },
  {
    "name": "sultanpur",
    "cc2": "16",
    "latitude": 20.08695,
    "longitude": 76.5187
  },
  {
    "name": "sukene",
    "cc2": "16",
    "latitude": 20.07466,
    "longitude": 74.01455
  },
  {
    "name": "sugaon",
    "cc2": "16",
    "latitude": 18.60128,
    "longitude": 77.3116
  },
  {
    "name": "srivardhan",
    "cc2": "16",
    "latitude": 18.04592,
    "longitude": 73.01552
  },
  {
    "name": "soygaon",
    "cc2": "16",
    "latitude": 20.59606,
    "longitude": 75.61765
  },
  {
    "name": "southada",
    "cc2": "16",
    "latitude": 18.80188,
    "longitude": 75.36371
  },
  {
    "name": "sopara",
    "cc2": "16",
    "latitude": 19.41578,
    "longitude": 72.80076
  },
  {
    "name": "sonvad budrukh",
    "cc2": "16",
    "latitude": 21.07724,
    "longitude": 75.34675
  },
  {
    "name": "sonsari",
    "cc2": "16",
    "latitude": 20.51635,
    "longitude": 80.23472
  },
  {
    "name": "sonpara",
    "cc2": "16",
    "latitude": 21.32399,
    "longitude": 73.98241
  },
  {
    "name": "sonkhed",
    "cc2": "16",
    "latitude": 19.0299,
    "longitude": 77.21723
  },
  {
    "name": "songir",
    "cc2": "16",
    "latitude": 21.08034,
    "longitude": 74.78772
  },
  {
    "name": "songaon",
    "cc2": "16",
    "latitude": 18.05527,
    "longitude": 74.53063
  },
  {
    "name": "sonpet",
    "cc2": "16",
    "latitude": 19.02594,
    "longitude": 76.47394
  },
  {
    "name": "sonegaon",
    "cc2": "16",
    "latitude": 20.62915,
    "longitude": 78.69207
  },
  {
    "name": "sonegaon",
    "cc2": "16",
    "latitude": 18.56708,
    "longitude": 75.41529
  },
  {
    "name": "sondo",
    "cc2": "16",
    "latitude": 19.66368,
    "longitude": 79.32498
  },
  {
    "name": "sondad",
    "cc2": "16",
    "latitude": 21.06827,
    "longitude": 80.09041
  },
  {
    "name": "sonari",
    "cc2": "16",
    "latitude": 18.36569,
    "longitude": 75.41914
  },
  {
    "name": "sonai",
    "cc2": "16",
    "latitude": 19.39563,
    "longitude": 74.81953
  },
  {
    "name": "sofale",
    "cc2": "16",
    "latitude": 19.57764,
    "longitude": 72.82655
  },
  {
    "name": "siwala",
    "cc2": "16",
    "latitude": 19.53067,
    "longitude": 77.43781
  },
  {
    "name": "sivungaon",
    "cc2": "16",
    "latitude": 19.10963,
    "longitude": 77.55045
  },
  {
    "name": "sivral",
    "cc2": "16",
    "latitude": 20.07774,
    "longitude": 74.87416
  },
  {
    "name": "sivni",
    "cc2": "16",
    "latitude": 20.68803,
    "longitude": 77.04886
  },
  {
    "name": "sirur tajband",
    "cc2": "16",
    "latitude": 18.63156,
    "longitude": 76.96952
  },
  {
    "name": "sirur",
    "cc2": "16",
    "latitude": 19.06516,
    "longitude": 75.42753
  },
  {
    "name": "sirur",
    "cc2": "16",
    "latitude": 18.8276,
    "longitude": 74.37475
  },
  {
    "name": "sirsuphal",
    "cc2": "16",
    "latitude": 18.31602,
    "longitude": 74.58052
  },
  {
    "name": "sirsi",
    "cc2": "16",
    "latitude": 20.68121,
    "longitude": 79.16439
  },
  {
    "name": "sirsala",
    "cc2": "16",
    "latitude": 18.9774,
    "longitude": 76.37957
  },
  {
    "name": "sirpur",
    "cc2": "16",
    "latitude": 20.52987,
    "longitude": 78.38947
  },
  {
    "name": "sirpur",
    "cc2": "16",
    "latitude": 20.1698,
    "longitude": 76.95741
  },
  {
    "name": "sironcha",
    "cc2": "16",
    "latitude": 18.84831,
    "longitude": 79.9638
  },
  {
    "name": "sirli",
    "cc2": "16",
    "latitude": 19.50597,
    "longitude": 77.20586
  },
  {
    "name": "siravda",
    "cc2": "16",
    "latitude": 17.36617,
    "longitude": 74.14177
  },
  {
    "name": "sirasgaon",
    "cc2": "16",
    "latitude": 21.33135,
    "longitude": 77.67948
  },
  {
    "name": "siradhon",
    "cc2": "16",
    "latitude": 17.37434,
    "longitude": 75.59979
  },
  {
    "name": "sion",
    "cc2": "16",
    "latitude": 19.03333,
    "longitude": 72.85
  },
  {
    "name": "sinnar",
    "cc2": "16",
    "latitude": 19.84505,
    "longitude": 73.99866
  },
  {
    "name": "singpur",
    "cc2": "16",
    "latitude": 21.58834,
    "longitude": 74.10696
  },
  {
    "name": "singad",
    "cc2": "16",
    "latitude": 20.04656,
    "longitude": 77.64201
  },
  {
    "name": "sindvani",
    "cc2": "16",
    "latitude": 21.84863,
    "longitude": 74.31597
  },
  {
    "name": "sindkher",
    "cc2": "16",
    "latitude": 19.87188,
    "longitude": 78.12287
  },
  {
    "name": "sindkheda",
    "cc2": "16",
    "latitude": 21.27101,
    "longitude": 74.7444
  },
  {
    "name": "sindkhed raja",
    "cc2": "16",
    "latitude": 19.95363,
    "longitude": 76.12637
  },
  {
    "name": "sindi",
    "cc2": "16",
    "latitude": 20.80509,
    "longitude": 78.88752
  },
  {
    "name": "sindewahi",
    "cc2": "16",
    "latitude": 20.28611,
    "longitude": 79.65622
  },
  {
    "name": "sillod",
    "cc2": "16",
    "latitude": 20.30303,
    "longitude": 75.65284
  },
  {
    "name": "silegaon",
    "cc2": "16",
    "latitude": 19.86924,
    "longitude": 75.00451
  },
  {
    "name": "sillari",
    "cc2": "16",
    "latitude": 21.57943,
    "longitude": 79.28746
  },
  {
    "name": "sihora",
    "cc2": "16",
    "latitude": 21.4618,
    "longitude": 79.83612
  },
  {
    "name": "sidhnath wadgaon",
    "cc2": "16",
    "latitude": 19.81703,
    "longitude": 75.00325
  },
  {
    "name": "shrigonda",
    "cc2": "16",
    "latitude": 18.61527,
    "longitude": 74.69895
  },
  {
    "name": "sholapur",
    "cc2": "16",
    "latitude": 17.67152,
    "longitude": 75.91044
  },
  {
    "name": "shiwni",
    "cc2": "16",
    "latitude": 19.50761,
    "longitude": 77.27873
  },
  {
    "name": "shivni",
    "cc2": "16",
    "latitude": 19.32618,
    "longitude": 78.10785
  },
  {
    "name": "shivna",
    "cc2": "16",
    "latitude": 17.51992,
    "longitude": 75.14486
  },
  {
    "name": "shivar",
    "cc2": "16",
    "latitude": 20.02365,
    "longitude": 78.07163
  },
  {
    "name": "shirwal",
    "cc2": "16",
    "latitude": 18.15059,
    "longitude": 73.97788
  },
  {
    "name": "shirud",
    "cc2": "16",
    "latitude": 20.73527,
    "longitude": 74.89187
  },
  {
    "name": "shirsoli",
    "cc2": "16",
    "latitude": 20.92186,
    "longitude": 75.52934
  },
  {
    "name": "shirsi",
    "cc2": "16",
    "latitude": 17.37139,
    "longitude": 75.31423
  },
  {
    "name": "shirsala budrukh",
    "cc2": "16",
    "latitude": 21.0633,
    "longitude": 74.97545
  },
  {
    "name": "shirsadi",
    "cc2": "16",
    "latitude": 17.89397,
    "longitude": 73.34
  },
  {
    "name": "shirpur",
    "cc2": "16",
    "latitude": 21.34821,
    "longitude": 74.88035
  },
  {
    "name": "shiroshi",
    "cc2": "16",
    "latitude": 19.40187,
    "longitude": 73.60937
  },
  {
    "name": "shirol",
    "cc2": "16",
    "latitude": 16.73528,
    "longitude": 74.60245
  },
  {
    "name": "shirnandgi",
    "cc2": "16",
    "latitude": 17.29785,
    "longitude": 75.42966
  },
  {
    "name": "shirkhed",
    "cc2": "16",
    "latitude": 21.22021,
    "longitude": 77.94234
  },
  {
    "name": "shirguppi",
    "cc2": "16",
    "latitude": 16.61556,
    "longitude": 74.71325
  },
  {
    "name": "shirgaon",
    "cc2": "16",
    "latitude": 19.69589,
    "longitude": 72.71527
  },
  {
    "name": "shirgaon",
    "cc2": "16",
    "latitude": 17.4468,
    "longitude": 73.62908
  },
  {
    "name": "shirgaon",
    "cc2": "16",
    "latitude": 16.3762,
    "longitude": 73.57475
  },
  {
    "name": "shirdi",
    "cc2": "16",
    "latitude": 19.76616,
    "longitude": 74.47738
  },
  {
    "name": "shirala",
    "cc2": "16",
    "latitude": 16.98572,
    "longitude": 74.12639
  },
  {
    "name": "shirala",
    "cc2": "16",
    "latitude": 16.46418,
    "longitude": 73.86199
  },
  {
    "name": "shingwe",
    "cc2": "16",
    "latitude": 19.26667,
    "longitude": 74.66667
  },
  {
    "name": "shingnapur",
    "cc2": "16",
    "latitude": 17.85054,
    "longitude": 74.66385
  },
  {
    "name": "shingait",
    "cc2": "16",
    "latitude": 20.90005,
    "longitude": 75.73829
  },
  {
    "name": "shindevadi",
    "cc2": "16",
    "latitude": 17.56837,
    "longitude": 75.40669
  },
  {
    "name": "shinde",
    "cc2": "16",
    "latitude": 19.91656,
    "longitude": 73.89705
  },
  {
    "name": "shilona",
    "cc2": "16",
    "latitude": 19.75263,
    "longitude": 77.61091
  },
  {
    "name": "shikrapur",
    "cc2": "16",
    "latitude": 18.69355,
    "longitude": 74.13813
  },
  {
    "name": "shevgaon",
    "cc2": "16",
    "latitude": 19.35333,
    "longitude": 75.21999
  },
  {
    "name": "shevali",
    "cc2": "16",
    "latitude": 20.83551,
    "longitude": 74.44493
  },
  {
    "name": "shevada",
    "cc2": "16",
    "latitude": 21.15018,
    "longitude": 74.59102
  },
  {
    "name": "sheva",
    "cc2": "16",
    "latitude": 18.94357,
    "longitude": 72.95766
  },
  {
    "name": "shetphal",
    "cc2": "16",
    "latitude": 17.90697,
    "longitude": 75.43026
  },
  {
    "name": "shiradhon",
    "cc2": "16",
    "latitude": 18.51574,
    "longitude": 76.18305
  },
  {
    "name": "sherad",
    "cc2": "16",
    "latitude": 18.78992,
    "longitude": 75.06913
  },
  {
    "name": "sheoli",
    "cc2": "16",
    "latitude": 19.82816,
    "longitude": 76.26501
  },
  {
    "name": "shenwa",
    "cc2": "16",
    "latitude": 19.44271,
    "longitude": 73.45848
  },
  {
    "name": "shenit",
    "cc2": "16",
    "latitude": 19.81067,
    "longitude": 73.80673
  },
  {
    "name": "shendurwara",
    "cc2": "16",
    "latitude": 19.68392,
    "longitude": 75.21074
  },
  {
    "name": "shendurni",
    "cc2": "16",
    "latitude": 20.6497,
    "longitude": 75.59361
  },
  {
    "name": "shendi",
    "cc2": "16",
    "latitude": 19.54879,
    "longitude": 73.76623
  },
  {
    "name": "shendi",
    "cc2": "16",
    "latitude": 19.16339,
    "longitude": 74.77177
  },
  {
    "name": "shelu buzurg",
    "cc2": "16",
    "latitude": 20.37045,
    "longitude": 77.24908
  },
  {
    "name": "shelgaon",
    "cc2": "16",
    "latitude": 20.79324,
    "longitude": 76.13663
  },
  {
    "name": "shegwa",
    "cc2": "16",
    "latitude": 20.15,
    "longitude": 73.35
  },
  {
    "name": "shegaon khurd",
    "cc2": "16",
    "latitude": 20.80799,
    "longitude": 76.04859
  },
  {
    "name": "shegaon",
    "cc2": "16",
    "latitude": 20.32965,
    "longitude": 79.15005
  },
  {
    "name": "shegaon",
    "cc2": "16",
    "latitude": 20.7932,
    "longitude": 76.69921
  },
  {
    "name": "shedbal",
    "cc2": "16",
    "latitude": 16.69126,
    "longitude": 74.76077
  },
  {
    "name": "shankarpur",
    "cc2": "16",
    "latitude": 20.64642,
    "longitude": 79.53283
  },
  {
    "name": "shamgaon",
    "cc2": "16",
    "latitude": 17.40419,
    "longitude": 74.25604
  },
  {
    "name": "shahgadh",
    "cc2": "16",
    "latitude": 19.36049,
    "longitude": 75.70533
  },
  {
    "name": "shahapur",
    "cc2": "16",
    "latitude": 19.49948,
    "longitude": 75.74879
  },
  {
    "name": "shahapur",
    "cc2": "16",
    "latitude": 19.45231,
    "longitude": 73.32572
  },
  {
    "name": "shahajapur",
    "cc2": "16",
    "latitude": 19.88064,
    "longitude": 74.34795
  },
  {
    "name": "shahada",
    "cc2": "16",
    "latitude": 21.54538,
    "longitude": 74.47106
  },
  {
    "name": "shahada",
    "cc2": "16",
    "latitude": 21.45919,
    "longitude": 74.29518
  },
  {
    "name": "sewri",
    "cc2": "16",
    "latitude": 19,
    "longitude": 72.85
  },
  {
    "name": "sevagram",
    "cc2": "16",
    "latitude": 20.66667,
    "longitude": 78.55
  },
  {
    "name": "seona",
    "cc2": "16",
    "latitude": 20.47609,
    "longitude": 75.8031
  },
  {
    "name": "sengaon",
    "cc2": "16",
    "latitude": 19.79376,
    "longitude": 76.89214
  },
  {
    "name": "sengaon",
    "cc2": "16",
    "latitude": 19.58478,
    "longitude": 79.14251
  },
  {
    "name": "shendurjana",
    "cc2": "16",
    "latitude": 21.52488,
    "longitude": 78.2835
  },
  {
    "name": "sendurjan",
    "cc2": "16",
    "latitude": 20.1491,
    "longitude": 77.4507
  },
  {
    "name": "shendurjan",
    "cc2": "16",
    "latitude": 20.12847,
    "longitude": 76.38657
  },
  {
    "name": "sendri",
    "cc2": "16",
    "latitude": 18.17649,
    "longitude": 75.55752
  },
  {
    "name": "semboli",
    "cc2": "16",
    "latitude": 19.22578,
    "longitude": 77.50343
  },
  {
    "name": "sembadoh",
    "cc2": "16",
    "latitude": 21.50272,
    "longitude": 77.31897
  },
  {
    "name": "selgaon",
    "cc2": "16",
    "latitude": 20.25084,
    "longitude": 76.72924
  },
  {
    "name": "selbari",
    "cc2": "16",
    "latitude": 20.87283,
    "longitude": 74.13861
  },
  {
    "name": "sayatkharda",
    "cc2": "16",
    "latitude": 20.02289,
    "longitude": 78.26855
  },
  {
    "name": "sayala",
    "cc2": "16",
    "latitude": 19.76223,
    "longitude": 77.2314
  },
  {
    "name": "sawargaon",
    "cc2": "16",
    "latitude": 20.33348,
    "longitude": 80.61249
  },
  {
    "name": "sawargaon",
    "cc2": "16",
    "latitude": 19.78133,
    "longitude": 77.49929
  },
  {
    "name": "sawargaon",
    "cc2": "16",
    "latitude": 18.71909,
    "longitude": 76.20623
  },
  {
    "name": "sawang",
    "cc2": "16",
    "latitude": 19.37911,
    "longitude": 76.89453
  },
  {
    "name": "sawali",
    "cc2": "16",
    "latitude": 19.9564,
    "longitude": 78.11212
  },
  {
    "name": "savrat",
    "cc2": "16",
    "latitude": 17.5879,
    "longitude": 73.76735
  },
  {
    "name": "savlaj",
    "cc2": "16",
    "latitude": 17.10941,
    "longitude": 74.76582
  },
  {
    "name": "savda",
    "cc2": "16",
    "latitude": 21.15054,
    "longitude": 75.88938
  },
  {
    "name": "savargaon",
    "cc2": "16",
    "latitude": 20.10503,
    "longitude": 74.45529
  },
  {
    "name": "savargaon",
    "cc2": "16",
    "latitude": 19.1846,
    "longitude": 77.77144
  },
  {
    "name": "savargaon",
    "cc2": "16",
    "latitude": 19.15767,
    "longitude": 74.27828
  },
  {
    "name": "savargaom",
    "cc2": "16",
    "latitude": 17.90765,
    "longitude": 75.92142
  },
  {
    "name": "savar",
    "cc2": "16",
    "latitude": 20.49686,
    "longitude": 78.06821
  },
  {
    "name": "savantvadi",
    "cc2": "16",
    "latitude": 15.90413,
    "longitude": 73.82191
  },
  {
    "name": "savangi",
    "cc2": "16",
    "latitude": 20.58163,
    "longitude": 78.27537
  },
  {
    "name": "saundane",
    "cc2": "16",
    "latitude": 20.4537,
    "longitude": 74.39856
  },
  {
    "name": "satona",
    "cc2": "16",
    "latitude": 19.49736,
    "longitude": 76.34893
  },
  {
    "name": "satrasen",
    "cc2": "16",
    "latitude": 21.36068,
    "longitude": 75.14982
  },
  {
    "name": "satpati",
    "cc2": "16",
    "latitude": 19.72396,
    "longitude": 72.69975
  },
  {
    "name": "satgaon",
    "cc2": "16",
    "latitude": 20.39842,
    "longitude": 76.21756
  },
  {
    "name": "sategaon",
    "cc2": "16",
    "latitude": 21.11341,
    "longitude": 77.24182
  },
  {
    "name": "satara",
    "cc2": "16",
    "latitude": 17.68589,
    "longitude": 73.99333
  },
  {
    "name": "satana",
    "cc2": "16",
    "latitude": 20.59483,
    "longitude": 74.20301
  },
  {
    "name": "satak",
    "cc2": "16",
    "latitude": 21.3366,
    "longitude": 79.26582
  },
  {
    "name": "sasvad",
    "cc2": "16",
    "latitude": 18.34351,
    "longitude": 74.03102
  },
  {
    "name": "sasupada",
    "cc2": "16",
    "latitude": 19.299,
    "longitude": 72.9069
  },
  {
    "name": "sarola",
    "cc2": "16",
    "latitude": 18.94669,
    "longitude": 74.65741
  },
  {
    "name": "sarni",
    "cc2": "16",
    "latitude": 18.75184,
    "longitude": 75.90565
  },
  {
    "name": "sirgapur",
    "cc2": "16",
    "latitude": 17.79853,
    "longitude": 76.17452
  },
  {
    "name": "saravli",
    "cc2": "16",
    "latitude": 19.77703,
    "longitude": 72.7528
  },
  {
    "name": "saravde",
    "cc2": "16",
    "latitude": 16.41803,
    "longitude": 74.09426
  },
  {
    "name": "saravali",
    "cc2": "16",
    "latitude": 19.96712,
    "longitude": 72.77274
  },
  {
    "name": "saranvadi",
    "cc2": "16",
    "latitude": 18.23849,
    "longitude": 75.52697
  },
  {
    "name": "sarangkheda",
    "cc2": "16",
    "latitude": 21.43345,
    "longitude": 74.52734
  },
  {
    "name": "saralgaon",
    "cc2": "16",
    "latitude": 19.28606,
    "longitude": 73.49342
  },
  {
    "name": "sarad",
    "cc2": "16",
    "latitude": 20.46947,
    "longitude": 73.75133
  },
  {
    "name": "saptashring",
    "cc2": "16",
    "latitude": 20.39022,
    "longitude": 73.90961
  },
  {
    "name": "saonga lohara",
    "cc2": "16",
    "latitude": 21.25576,
    "longitude": 78.3996
  },
  {
    "name": "saoner",
    "cc2": "16",
    "latitude": 21.3851,
    "longitude": 78.92155
  },
  {
    "name": "saoli",
    "cc2": "16",
    "latitude": 20.0824,
    "longitude": 79.7848
  },
  {
    "name": "saokher",
    "cc2": "16",
    "latitude": 19.6,
    "longitude": 75.2
  },
  {
    "name": "sanvarde",
    "cc2": "16",
    "latitude": 17.41268,
    "longitude": 73.54029
  },
  {
    "name": "santa cruz",
    "cc2": "16",
    "latitude": 19.08333,
    "longitude": 72.83333
  },
  {
    "name": "sangvi",
    "cc2": "16",
    "latitude": 20.12665,
    "longitude": 75.30751
  },
  {
    "name": "sangwi",
    "cc2": "16",
    "latitude": 18.05925,
    "longitude": 74.48507
  },
  {
    "name": "sangvi",
    "cc2": "16",
    "latitude": 21.4751,
    "longitude": 74.99911
  },
  {
    "name": "sangrampur",
    "cc2": "16",
    "latitude": 21.03309,
    "longitude": 76.67606
  },
  {
    "name": "sangola",
    "cc2": "16",
    "latitude": 17.43948,
    "longitude": 75.19379
  },
  {
    "name": "sanglud khurd",
    "cc2": "16",
    "latitude": 20.75895,
    "longitude": 77.12589
  },
  {
    "name": "sanglud buzurg",
    "cc2": "16",
    "latitude": 20.75432,
    "longitude": 77.11281
  },
  {
    "name": "sanglud",
    "cc2": "16",
    "latitude": 20.75,
    "longitude": 77.11667
  },
  {
    "name": "sangli",
    "cc2": "16",
    "latitude": 16.85438,
    "longitude": 74.56417
  },
  {
    "name": "sangevadi",
    "cc2": "16",
    "latitude": 17.54128,
    "longitude": 75.26346
  },
  {
    "name": "sangarhi",
    "cc2": "16",
    "latitude": 20.96566,
    "longitude": 79.97837
  },
  {
    "name": "sangamner",
    "cc2": "16",
    "latitude": 19.56784,
    "longitude": 74.21154
  },
  {
    "name": "sangameshwar",
    "cc2": "16",
    "latitude": 17.18672,
    "longitude": 73.55264
  },
  {
    "name": "samudrapur",
    "cc2": "16",
    "latitude": 20.63998,
    "longitude": 78.96423
  },
  {
    "name": "samsherpur",
    "cc2": "16",
    "latitude": 19.63791,
    "longitude": 73.96726
  },
  {
    "name": "salod",
    "cc2": "16",
    "latitude": 20.70005,
    "longitude": 78.54504
  },
  {
    "name": "salgare",
    "cc2": "16",
    "latitude": 16.89025,
    "longitude": 74.90903
  },
  {
    "name": "salegaon",
    "cc2": "16",
    "latitude": 19.06805,
    "longitude": 76.35056
  },
  {
    "name": "salabatpur",
    "cc2": "16",
    "latitude": 19.55021,
    "longitude": 75.05078
  },
  {
    "name": "sakur",
    "cc2": "16",
    "latitude": 19.34827,
    "longitude": 74.299
  },
  {
    "name": "sakritola",
    "cc2": "16",
    "latitude": 21.26879,
    "longitude": 80.41355
  },
  {
    "name": "sakri",
    "cc2": "16",
    "latitude": 20.99104,
    "longitude": 74.31475
  },
  {
    "name": "sakoli",
    "cc2": "16",
    "latitude": 21.08705,
    "longitude": 79.99145
  },
  {
    "name": "sakli",
    "cc2": "16",
    "latitude": 21.17045,
    "longitude": 75.62992
  },
  {
    "name": "sakol",
    "cc2": "16",
    "latitude": 18.28265,
    "longitude": 76.88416
  },
  {
    "name": "sakhare",
    "cc2": "16",
    "latitude": 19.90948,
    "longitude": 72.81261
  },
  {
    "name": "sakkardara",
    "cc2": "16",
    "latitude": 21.12552,
    "longitude": 79.10941
  },
  {
    "name": "sajvahal",
    "cc2": "16",
    "latitude": 20.60908,
    "longitude": 74.68964
  },
  {
    "name": "selu",
    "cc2": "16",
    "latitude": 20.83751,
    "longitude": 78.7073
  },
  {
    "name": "selu",
    "cc2": "16",
    "latitude": 19.45512,
    "longitude": 76.44073
  },
  {
    "name": "saikhede",
    "cc2": "16",
    "latitude": 20.01536,
    "longitude": 74.00995
  },
  {
    "name": "saigavhan",
    "cc2": "16",
    "latitude": 20.39276,
    "longitude": 75.14836
  },
  {
    "name": "sahur",
    "cc2": "16",
    "latitude": 21.30789,
    "longitude": 78.21528
  },
  {
    "name": "sagar",
    "cc2": "16",
    "latitude": 20.24926,
    "longitude": 79.16723
  },
  {
    "name": "sadri",
    "cc2": "16",
    "latitude": 21.9758,
    "longitude": 74.35538
  },
  {
    "name": "sadepur",
    "cc2": "16",
    "latitude": 17.42267,
    "longitude": 75.73333
  },
  {
    "name": "sade",
    "cc2": "16",
    "latitude": 18.28335,
    "longitude": 75.27993
  },
  {
    "name": "sadavan budrukh",
    "cc2": "16",
    "latitude": 20.97663,
    "longitude": 75.08652
  },
  {
    "name": "runjha",
    "cc2": "16",
    "latitude": 20.16858,
    "longitude": 78.48459
  },
  {
    "name": "rukadi",
    "cc2": "16",
    "latitude": 16.72131,
    "longitude": 74.35453
  },
  {
    "name": "ruichattisi",
    "cc2": "16",
    "latitude": 18.90553,
    "longitude": 74.84196
  },
  {
    "name": "rui",
    "cc2": "16",
    "latitude": 20.16763,
    "longitude": 78.05804
  },
  {
    "name": "rople",
    "cc2": "16",
    "latitude": 18.21522,
    "longitude": 75.3639
  },
  {
    "name": "ropla buzurg",
    "cc2": "16",
    "latitude": 17.78819,
    "longitude": 75.40182
  },
  {
    "name": "rojhava",
    "cc2": "16",
    "latitude": 21.62045,
    "longitude": 74.21612
  },
  {
    "name": "rohna",
    "cc2": "16",
    "latitude": 20.85272,
    "longitude": 78.32803
  },
  {
    "name": "rohankhed",
    "cc2": "16",
    "latitude": 20.6274,
    "longitude": 76.12965
  },
  {
    "name": "roha",
    "cc2": "16",
    "latitude": 18.43687,
    "longitude": 73.11964
  },
  {
    "name": "rithad",
    "cc2": "16",
    "latitude": 20.05304,
    "longitude": 76.97955
  },
  {
    "name": "risod",
    "cc2": "16",
    "latitude": 19.97671,
    "longitude": 76.78799
  },
  {
    "name": "revas bandar",
    "cc2": "16",
    "latitude": 18.81667,
    "longitude": 72.95
  },
  {
    "name": "revas",
    "cc2": "16",
    "latitude": 18.79091,
    "longitude": 72.93089
  },
  {
    "name": "revadanda",
    "cc2": "16",
    "latitude": 18.55363,
    "longitude": 72.92559
  },
  {
    "name": "renavi",
    "cc2": "16",
    "latitude": 17.2758,
    "longitude": 74.61714
  },
  {
    "name": "renapur",
    "cc2": "16",
    "latitude": 18.5264,
    "longitude": 76.59775
  },
  {
    "name": "rel",
    "cc2": "16",
    "latitude": 20.9197,
    "longitude": 77.04826
  },
  {
    "name": "raypatan",
    "cc2": "16",
    "latitude": 16.70806,
    "longitude": 73.70521
  },
  {
    "name": "raykheda",
    "cc2": "16",
    "latitude": 21.64789,
    "longitude": 74.55654
  },
  {
    "name": "rayate",
    "cc2": "16",
    "latitude": 19.25101,
    "longitude": 73.2168
  },
  {
    "name": "ravalkol",
    "cc2": "16",
    "latitude": 18.44388,
    "longitude": 77.27142
  },
  {
    "name": "raver",
    "cc2": "16",
    "latitude": 21.24757,
    "longitude": 76.03509
  },
  {
    "name": "ravangaon",
    "cc2": "16",
    "latitude": 18.35777,
    "longitude": 74.62738
  },
  {
    "name": "ratnagiri",
    "cc2": "16",
    "latitude": 16.99154,
    "longitude": 73.31022
  },
  {
    "name": "rassin",
    "cc2": "16",
    "latitude": 18.43779,
    "longitude": 74.9225
  },
  {
    "name": "rashivade",
    "cc2": "16",
    "latitude": 16.54766,
    "longitude": 74.10005
  },
  {
    "name": "rasegaon",
    "cc2": "16",
    "latitude": 20.15677,
    "longitude": 73.74822
  },
  {
    "name": "raogaon",
    "cc2": "16",
    "latitude": 18.45258,
    "longitude": 75.11683
  },
  {
    "name": "ranyad",
    "cc2": "16",
    "latitude": 18.88512,
    "longitude": 72.91448
  },
  {
    "name": "ranjankhar",
    "cc2": "16",
    "latitude": 18.80917,
    "longitude": 72.93297
  },
  {
    "name": "ranjani",
    "cc2": "16",
    "latitude": 19.65487,
    "longitude": 76.12298
  },
  {
    "name": "ranjangaon ganpati",
    "cc2": "16",
    "latitude": 18.75365,
    "longitude": 74.2443
  },
  {
    "name": "ranjangaon",
    "cc2": "16",
    "latitude": 18.89017,
    "longitude": 74.5936
  },
  {
    "name": "rani unchegaon",
    "cc2": "16",
    "latitude": 19.63878,
    "longitude": 75.95573
  },
  {
    "name": "rani sawargaon",
    "cc2": "16",
    "latitude": 18.85,
    "longitude": 76.86667
  },
  {
    "name": "ranigohan",
    "cc2": "16",
    "latitude": 21.31775,
    "longitude": 76.79435
  },
  {
    "name": "rangrao parao",
    "cc2": "16",
    "latitude": 21.40938,
    "longitude": 77.17898
  },
  {
    "name": "rangarwasni",
    "cc2": "16",
    "latitude": 21.08614,
    "longitude": 77.48111
  },
  {
    "name": "ranala",
    "cc2": "16",
    "latitude": 21.34369,
    "longitude": 74.39531
  },
  {
    "name": "ramtek",
    "cc2": "16",
    "latitude": 21.39562,
    "longitude": 79.32725
  },
  {
    "name": "rampuri buzurg",
    "cc2": "16",
    "latitude": 19.11349,
    "longitude": 76.57887
  },
  {
    "name": "rampuri",
    "cc2": "16",
    "latitude": 19.30375,
    "longitude": 75.98255
  },
  {
    "name": "ramghat",
    "cc2": "16",
    "latitude": 15.83633,
    "longitude": 74.09734
  },
  {
    "name": "ramgarh",
    "cc2": "16",
    "latitude": 16.23951,
    "longitude": 73.61297
  },
  {
    "name": "ramgaon",
    "cc2": "16",
    "latitude": 20.39955,
    "longitude": 77.59795
  },
  {
    "name": "ralegaon",
    "cc2": "16",
    "latitude": 20.42389,
    "longitude": 78.52111
  },
  {
    "name": "rakshasbhuwan",
    "cc2": "16",
    "latitude": 19.37759,
    "longitude": 75.63784
  },
  {
    "name": "rajvad",
    "cc2": "16",
    "latitude": 20.96572,
    "longitude": 75.19942
  },
  {
    "name": "rajurwadi",
    "cc2": "16",
    "latitude": 20.08664,
    "longitude": 78.4186
  },
  {
    "name": "rajura khurd",
    "cc2": "16",
    "latitude": 18.54684,
    "longitude": 77.47833
  },
  {
    "name": "rajuri",
    "cc2": "16",
    "latitude": 18.68432,
    "longitude": 75.37251
  },
  {
    "name": "rajuri",
    "cc2": "16",
    "latitude": 18.33596,
    "longitude": 75.00033
  },
  {
    "name": "rajura",
    "cc2": "16",
    "latitude": 19.77947,
    "longitude": 79.36459
  },
  {
    "name": "rajur",
    "cc2": "16",
    "latitude": 20.32748,
    "longitude": 77.01019
  },
  {
    "name": "rajur",
    "cc2": "16",
    "latitude": 20.11087,
    "longitude": 78.89311
  },
  {
    "name": "rajur",
    "cc2": "16",
    "latitude": 19.523,
    "longitude": 73.86872
  },
  {
    "name": "rajur",
    "cc2": "16",
    "latitude": 19.23766,
    "longitude": 73.79226
  },
  {
    "name": "rajpuri",
    "cc2": "16",
    "latitude": 18.3023,
    "longitude": 72.97065
  },
  {
    "name": "rajoli tukm",
    "cc2": "16",
    "latitude": 20.19157,
    "longitude": 79.68982
  },
  {
    "name": "rajoli",
    "cc2": "16",
    "latitude": 20.6864,
    "longitude": 80.24068
  },
  {
    "name": "rajgurunagar",
    "cc2": "16",
    "latitude": 18.86667,
    "longitude": 73.9
  },
  {
    "name": "rajgoli",
    "cc2": "16",
    "latitude": 16.01744,
    "longitude": 74.41295
  },
  {
    "name": "rajgaon",
    "cc2": "16",
    "latitude": 19.97519,
    "longitude": 77.1447
  },
  {
    "name": "rajevadi",
    "cc2": "16",
    "latitude": 18.39226,
    "longitude": 74.15449
  },
  {
    "name": "rajegaon",
    "cc2": "16",
    "latitude": 19.23828,
    "longitude": 76.08651
  },
  {
    "name": "raja takli",
    "cc2": "16",
    "latitude": 19.34135,
    "longitude": 76.02168
  },
  {
    "name": "rajaram",
    "cc2": "16",
    "latitude": 19.26667,
    "longitude": 80.15
  },
  {
    "name": "rajapur",
    "cc2": "16",
    "latitude": 20.17165,
    "longitude": 74.62611
  },
  {
    "name": "rajapur",
    "cc2": "16",
    "latitude": 16.65679,
    "longitude": 73.51701
  },
  {
    "name": "rajanvadi",
    "cc2": "16",
    "latitude": 16.62311,
    "longitude": 73.91227
  },
  {
    "name": "rajale",
    "cc2": "16",
    "latitude": 18.02454,
    "longitude": 74.53895
  },
  {
    "name": "raisingpur",
    "cc2": "16",
    "latitude": 21.575,
    "longitude": 73.94038
  },
  {
    "name": "raireshwar",
    "cc2": "16",
    "latitude": 18.04852,
    "longitude": 73.72151
  },
  {
    "name": "raipur",
    "cc2": "16",
    "latitude": 21.58157,
    "longitude": 77.26752
  },
  {
    "name": "raipur",
    "cc2": "16",
    "latitude": 21.07843,
    "longitude": 78.96603
  },
  {
    "name": "raipur",
    "cc2": "16",
    "latitude": 21.09021,
    "longitude": 73.82721
  },
  {
    "name": "raipur",
    "cc2": "16",
    "latitude": 20.38909,
    "longitude": 76.15039
  },
  {
    "name": "raimoh",
    "cc2": "16",
    "latitude": 18.99341,
    "longitude": 75.50077
  },
  {
    "name": "raigaon",
    "cc2": "16",
    "latitude": 19.84853,
    "longitude": 76.5863
  },
  {
    "name": "raigaon",
    "cc2": "16",
    "latitude": 17.409,
    "longitude": 74.31459
  },
  {
    "name": "rahuri",
    "cc2": "16",
    "latitude": 19.39069,
    "longitude": 74.64979
  },
  {
    "name": "rahu",
    "cc2": "16",
    "latitude": 21.71009,
    "longitude": 77.43558
  },
  {
    "name": "rahimatpur",
    "cc2": "16",
    "latitude": 17.5921,
    "longitude": 74.19966
  },
  {
    "name": "raheri buzruk",
    "cc2": "16",
    "latitude": 19.99105,
    "longitude": 76.2771
  },
  {
    "name": "raher",
    "cc2": "16",
    "latitude": 18.89538,
    "longitude": 77.66826
  },
  {
    "name": "rahata",
    "cc2": "16",
    "latitude": 19.71664,
    "longitude": 74.48109
  },
  {
    "name": "radhanagari",
    "cc2": "16",
    "latitude": 16.4,
    "longitude": 74
  },
  {
    "name": "pusla",
    "cc2": "16",
    "latitude": 21.50714,
    "longitude": 78.35596
  },
  {
    "name": "pusesavli",
    "cc2": "16",
    "latitude": 17.46133,
    "longitude": 74.31803
  },
  {
    "name": "pusegaon",
    "cc2": "16",
    "latitude": 17.70789,
    "longitude": 74.31695
  },
  {
    "name": "pusad",
    "cc2": "16",
    "latitude": 19.91274,
    "longitude": 77.57838
  },
  {
    "name": "purna",
    "cc2": "16",
    "latitude": 19.1817,
    "longitude": 77.02566
  },
  {
    "name": "porla",
    "cc2": "16",
    "latitude": 20.31347,
    "longitude": 79.97654
  },
  {
    "name": "phokur",
    "cc2": "16",
    "latitude": 19.48337,
    "longitude": 80.44913
  },
  {
    "name": "puras",
    "cc2": "16",
    "latitude": 20.71575,
    "longitude": 76.82452
  },
  {
    "name": "purangad",
    "cc2": "16",
    "latitude": 16.81415,
    "longitude": 73.32027
  },
  {
    "name": "purandhar",
    "cc2": "16",
    "latitude": 18.28145,
    "longitude": 73.98388
  },
  {
    "name": "pural",
    "cc2": "16",
    "latitude": 16.46152,
    "longitude": 73.37533
  },
  {
    "name": "punwat",
    "cc2": "16",
    "latitude": 19.95328,
    "longitude": 79.05209
  },
  {
    "name": "puntamba",
    "cc2": "16",
    "latitude": 19.76809,
    "longitude": 74.6155
  },
  {
    "name": "pune",
    "cc2": "16",
    "latitude": 18.51957,
    "longitude": 73.85535
  },
  {
    "name": "pulunj",
    "cc2": "16",
    "latitude": 17.65049,
    "longitude": 75.52667
  },
  {
    "name": "pulgaon",
    "cc2": "16",
    "latitude": 20.72204,
    "longitude": 78.32056
  },
  {
    "name": "pravara sangam",
    "cc2": "16",
    "latitude": 19.62002,
    "longitude": 75.01798
  },
  {
    "name": "prakasha",
    "cc2": "16",
    "latitude": 21.5128,
    "longitude": 74.35795
  },
  {
    "name": "pomurna",
    "cc2": "16",
    "latitude": 19.87689,
    "longitude": 79.63325
  },
  {
    "name": "pombhurla",
    "cc2": "16",
    "latitude": 16.51696,
    "longitude": 73.55152
  },
  {
    "name": "pomalvadi",
    "cc2": "16",
    "latitude": 18.2829,
    "longitude": 74.93158
  },
  {
    "name": "poinad",
    "cc2": "16",
    "latitude": 18.68391,
    "longitude": 72.99244
  },
  {
    "name": "pohra",
    "cc2": "16",
    "latitude": 21.03351,
    "longitude": 79.84838
  },
  {
    "name": "pohra",
    "cc2": "16",
    "latitude": 20.88851,
    "longitude": 77.87703
  },
  {
    "name": "pohna",
    "cc2": "16",
    "latitude": 20.34855,
    "longitude": 78.71172
  },
  {
    "name": "pohegaon khurd",
    "cc2": "16",
    "latitude": 19.81755,
    "longitude": 74.39627
  },
  {
    "name": "poghat",
    "cc2": "16",
    "latitude": 20.4062,
    "longitude": 77.3491
  },
  {
    "name": "pithi",
    "cc2": "16",
    "latitude": 18.92571,
    "longitude": 75.62592
  },
  {
    "name": "pisore khand",
    "cc2": "16",
    "latitude": 18.73072,
    "longitude": 74.77877
  },
  {
    "name": "permilli",
    "cc2": "16",
    "latitude": 19.38793,
    "longitude": 80.29323
  },
  {
    "name": "pirli",
    "cc2": "16",
    "latitude": 20.19965,
    "longitude": 79.14292
  },
  {
    "name": "pirangut",
    "cc2": "16",
    "latitude": 18.5084,
    "longitude": 73.68924
  },
  {
    "name": "pipri",
    "cc2": "16",
    "latitude": 19.79371,
    "longitude": 75.53519
  },
  {
    "name": "pipla",
    "cc2": "16",
    "latitude": 21.39966,
    "longitude": 78.74387
  },
  {
    "name": "pipalner",
    "cc2": "16",
    "latitude": 20.95317,
    "longitude": 74.12101
  },
  {
    "name": "haste pimpalgaon",
    "cc2": "16",
    "latitude": 19.73427,
    "longitude": 76.15155
  },
  {
    "name": "pipalgaon",
    "cc2": "16",
    "latitude": 19.73053,
    "longitude": 78.30896
  },
  {
    "name": "pinjar",
    "cc2": "16",
    "latitude": 20.54759,
    "longitude": 77.26157
  },
  {
    "name": "pinguli",
    "cc2": "16",
    "latitude": 15.97872,
    "longitude": 73.70466
  },
  {
    "name": "pingli",
    "cc2": "16",
    "latitude": 19.21122,
    "longitude": 76.8584
  },
  {
    "name": "pingli",
    "cc2": "16",
    "latitude": 17.67617,
    "longitude": 74.51238
  },
  {
    "name": "pimpri sembala",
    "cc2": "16",
    "latitude": 19.70632,
    "longitude": 77.46894
  },
  {
    "name": "pimpri",
    "cc2": "16",
    "latitude": 18.62292,
    "longitude": 73.80696
  },
  {
    "name": "pimpri",
    "cc2": "16",
    "latitude": 17.4694,
    "longitude": 75.00771
  },
  {
    "name": "pimple",
    "cc2": "16",
    "latitude": 18.30557,
    "longitude": 74.03335
  },
  {
    "name": "pimpla",
    "cc2": "16",
    "latitude": 19.20296,
    "longitude": 75.59358
  },
  {
    "name": "pimparkhed",
    "cc2": "16",
    "latitude": 19.06419,
    "longitude": 76.0475
  },
  {
    "name": "pimparkhed",
    "cc2": "16",
    "latitude": 20.74735,
    "longitude": 75.27294
  },
  {
    "name": "pimpalwandi",
    "cc2": "16",
    "latitude": 19.16667,
    "longitude": 74.06667
  },
  {
    "name": "pimpalner",
    "cc2": "16",
    "latitude": 19.05629,
    "longitude": 75.94904
  },
  {
    "name": "pimpalner",
    "cc2": "16",
    "latitude": 18.04317,
    "longitude": 75.28582
  },
  {
    "name": "pimpalgaon raja",
    "cc2": "16",
    "latitude": 20.72364,
    "longitude": 76.43696
  },
  {
    "name": "pimpalgaon khurd",
    "cc2": "16",
    "latitude": 20.55545,
    "longitude": 75.47839
  },
  {
    "name": "pimpalgaon budrukh",
    "cc2": "16",
    "latitude": 20.57962,
    "longitude": 75.48873
  },
  {
    "name": "pimpalgaon baswant",
    "cc2": "16",
    "latitude": 20.17041,
    "longitude": 73.99235
  },
  {
    "name": "pimpalgaon",
    "cc2": "16",
    "latitude": 20.98243,
    "longitude": 76.43686
  },
  {
    "name": "pimpalgaon",
    "cc2": "16",
    "latitude": 20.58333,
    "longitude": 75.48333
  },
  {
    "name": "pimpalgaon",
    "cc2": "16",
    "latitude": 18.73433,
    "longitude": 73.95182
  },
  {
    "name": "pimpalgaon",
    "cc2": "16",
    "latitude": 18.31546,
    "longitude": 75.6625
  },
  {
    "name": "pilkhod",
    "cc2": "16",
    "latitude": 20.53056,
    "longitude": 74.81625
  },
  {
    "name": "phustola",
    "cc2": "16",
    "latitude": 20.04481,
    "longitude": 80.23731
  },
  {
    "name": "phursungi",
    "cc2": "16",
    "latitude": 18.47274,
    "longitude": 73.97797
  },
  {
    "name": "phulsangwi",
    "cc2": "16",
    "latitude": 19.72363,
    "longitude": 77.87578
  },
  {
    "name": "phulambri",
    "cc2": "16",
    "latitude": 20.08988,
    "longitude": 75.41885
  },
  {
    "name": "phonda",
    "cc2": "16",
    "latitude": 16.37991,
    "longitude": 73.81117
  },
  {
    "name": "phatepur",
    "cc2": "16",
    "latitude": 21.66375,
    "longitude": 74.45652
  },
  {
    "name": "phardapur",
    "cc2": "16",
    "latitude": 20.5845,
    "longitude": 75.72254
  },
  {
    "name": "phaltan",
    "cc2": "16",
    "latitude": 17.99113,
    "longitude": 74.43177
  },
  {
    "name": "phalai",
    "cc2": "16",
    "latitude": 21.86667,
    "longitude": 74.45
  },
  {
    "name": "phagne",
    "cc2": "16",
    "latitude": 20.89051,
    "longitude": 74.83747
  },
  {
    "name": "peth wadaj",
    "cc2": "16",
    "latitude": 18.78274,
    "longitude": 77.32001
  },
  {
    "name": "peth",
    "cc2": "16",
    "latitude": 18.92975,
    "longitude": 73.92448
  },
  {
    "name": "peth",
    "cc2": "16",
    "latitude": 17.05542,
    "longitude": 74.22453
  },
  {
    "name": "pesavar",
    "cc2": "16",
    "latitude": 20.29498,
    "longitude": 75.3395
  },
  {
    "name": "penur buzurg",
    "cc2": "16",
    "latitude": 19.06381,
    "longitude": 77.09187
  },
  {
    "name": "penur",
    "cc2": "16",
    "latitude": 17.77104,
    "longitude": 75.50953
  },
  {
    "name": "pendur",
    "cc2": "16",
    "latitude": 16.05862,
    "longitude": 73.61367
  },
  {
    "name": "pendri",
    "cc2": "16",
    "latitude": 20.05977,
    "longitude": 80.44757
  },
  {
    "name": "pendra",
    "cc2": "16",
    "latitude": 21.94809,
    "longitude": 74.14055
  },
  {
    "name": "pen",
    "cc2": "16",
    "latitude": 18.73734,
    "longitude": 73.09603
  },
  {
    "name": "peint",
    "cc2": "16",
    "latitude": 20.25877,
    "longitude": 73.50361
  },
  {
    "name": "pedgaon",
    "cc2": "16",
    "latitude": 18.51194,
    "longitude": 74.70173
  },
  {
    "name": "pawnar",
    "cc2": "16",
    "latitude": 20.7811,
    "longitude": 78.67027
  },
  {
    "name": "pawni",
    "cc2": "16",
    "latitude": 20.79229,
    "longitude": 79.63644
  },
  {
    "name": "paud",
    "cc2": "16",
    "latitude": 18.52404,
    "longitude": 73.61532
  },
  {
    "name": "paturda",
    "cc2": "16",
    "latitude": 20.95128,
    "longitude": 76.73072
  },
  {
    "name": "patur",
    "cc2": "16",
    "latitude": 20.46093,
    "longitude": 76.93725
  },
  {
    "name": "patsul",
    "cc2": "16",
    "latitude": 20.98964,
    "longitude": 77.0186
  },
  {
    "name": "patrud",
    "cc2": "16",
    "latitude": 19.09343,
    "longitude": 76.21691
  },
  {
    "name": "patonda",
    "cc2": "16",
    "latitude": 21.11586,
    "longitude": 75.19106
  },
  {
    "name": "patode",
    "cc2": "16",
    "latitude": 20.11842,
    "longitude": 74.36434
  },
  {
    "name": "patoda khurd",
    "cc2": "16",
    "latitude": 18.57662,
    "longitude": 77.18377
  },
  {
    "name": "patoda",
    "cc2": "16",
    "latitude": 18.8013,
    "longitude": 75.48335
  },
  {
    "name": "pathrud",
    "cc2": "16",
    "latitude": 18.55803,
    "longitude": 75.54051
  },
  {
    "name": "pathrot",
    "cc2": "16",
    "latitude": 21.21526,
    "longitude": 77.36409
  },
  {
    "name": "pathri",
    "cc2": "16",
    "latitude": 20.19637,
    "longitude": 79.82946
  },
  {
    "name": "pathri",
    "cc2": "16",
    "latitude": 19.2588,
    "longitude": 76.43412
  },
  {
    "name": "pathardi",
    "cc2": "16",
    "latitude": 19.17279,
    "longitude": 75.17425
  },
  {
    "name": "patgaon",
    "cc2": "16",
    "latitude": 16.12703,
    "longitude": 73.94492
  },
  {
    "name": "patas",
    "cc2": "16",
    "latitude": 18.43367,
    "longitude": 74.46369
  },
  {
    "name": "patansaongi",
    "cc2": "16",
    "latitude": 21.32752,
    "longitude": 79.02163
  },
  {
    "name": "patan",
    "cc2": "16",
    "latitude": 17.37513,
    "longitude": 73.90143
  },
  {
    "name": "patala",
    "cc2": "16",
    "latitude": 20.12876,
    "longitude": 79.00344
  },
  {
    "name": "pasali",
    "cc2": "16",
    "latitude": 18.23298,
    "longitude": 73.60848
  },
  {
    "name": "parwa",
    "cc2": "16",
    "latitude": 19.99095,
    "longitude": 78.3297
  },
  {
    "name": "partur",
    "cc2": "16",
    "latitude": 19.59925,
    "longitude": 76.21541
  },
  {
    "name": "parsipada",
    "cc2": "16",
    "latitude": 19.91648,
    "longitude": 73.00571
  },
  {
    "name": "parsivni",
    "cc2": "16",
    "latitude": 21.37379,
    "longitude": 79.14945
  },
  {
    "name": "parola",
    "cc2": "16",
    "latitude": 20.88098,
    "longitude": 75.11937
  },
  {
    "name": "parner",
    "cc2": "16",
    "latitude": 19.00281,
    "longitude": 74.43844
  },
  {
    "name": "parli vaijnath",
    "cc2": "16",
    "latitude": 18.85057,
    "longitude": 76.53163
  },
  {
    "name": "parinche",
    "cc2": "16",
    "latitude": 18.19522,
    "longitude": 74.08729
  },
  {
    "name": "parhur",
    "cc2": "16",
    "latitude": 18.70954,
    "longitude": 72.9187
  },
  {
    "name": "pargaon",
    "cc2": "16",
    "latitude": 18.72096,
    "longitude": 75.14903
  },
  {
    "name": "pargaon",
    "cc2": "16",
    "latitude": 18.56134,
    "longitude": 74.37273
  },
  {
    "name": "parenda",
    "cc2": "16",
    "latitude": 18.26993,
    "longitude": 75.45304
  },
  {
    "name": "parel",
    "cc2": "16",
    "latitude": 19,
    "longitude": 72.83333
  },
  {
    "name": "pardi takmor",
    "cc2": "16",
    "latitude": 20.19062,
    "longitude": 77.24409
  },
  {
    "name": "parchuri",
    "cc2": "16",
    "latitude": 17.56862,
    "longitude": 73.2984
  },
  {
    "name": "parbhani",
    "cc2": "16",
    "latitude": 19.26855,
    "longitude": 76.77081
  },
  {
    "name": "paratwada",
    "cc2": "16",
    "latitude": 21.29937,
    "longitude": 77.51794
  },
  {
    "name": "parali",
    "cc2": "16",
    "latitude": 19.71015,
    "longitude": 73.26046
  },
  {
    "name": "paradgaon",
    "cc2": "16",
    "latitude": 19.60856,
    "longitude": 76.14435
  },
  {
    "name": "para",
    "cc2": "16",
    "latitude": 18.63511,
    "longitude": 75.82118
  },
  {
    "name": "para",
    "cc2": "16",
    "latitude": 17.2212,
    "longitude": 75.26024
  },
  {
    "name": "panvel",
    "cc2": "16",
    "latitude": 18.98878,
    "longitude": 73.11013
  },
  {
    "name": "panvas",
    "cc2": "16",
    "latitude": 16.86733,
    "longitude": 73.3272
  },
  {
    "name": "panhala",
    "cc2": "16",
    "latitude": 16.8121,
    "longitude": 74.11007
  },
  {
    "name": "pangri",
    "cc2": "16",
    "latitude": 19.82011,
    "longitude": 74.20244
  },
  {
    "name": "pangri",
    "cc2": "16",
    "latitude": 18.91971,
    "longitude": 76.45784
  },
  {
    "name": "pangri",
    "cc2": "16",
    "latitude": 18.29344,
    "longitude": 75.86744
  },
  {
    "name": "pangari",
    "cc2": "16",
    "latitude": 17.7425,
    "longitude": 73.28692
  },
  {
    "name": "pangaon",
    "cc2": "16",
    "latitude": 18.62907,
    "longitude": 76.62807
  },
  {
    "name": "pangaon",
    "cc2": "16",
    "latitude": 18.14041,
    "longitude": 75.73573
  },
  {
    "name": "pandhurli",
    "cc2": "16",
    "latitude": 19.82981,
    "longitude": 73.85438
  },
  {
    "name": "pandharpur",
    "cc2": "16",
    "latitude": 17.67924,
    "longitude": 75.33098
  },
  {
    "name": "pandharkawada",
    "cc2": "16",
    "latitude": 20.02108,
    "longitude": 78.54628
  },
  {
    "name": "pande",
    "cc2": "16",
    "latitude": 18.37564,
    "longitude": 75.23167
  },
  {
    "name": "pandare",
    "cc2": "16",
    "latitude": 18.13729,
    "longitude": 74.46335
  },
  {
    "name": "panchgaon",
    "cc2": "16",
    "latitude": 21.02266,
    "longitude": 79.1672
  },
  {
    "name": "panchgaon",
    "cc2": "16",
    "latitude": 19.69195,
    "longitude": 79.5026
  },
  {
    "name": "panchgani",
    "cc2": "16",
    "latitude": 17.92449,
    "longitude": 73.8008
  },
  {
    "name": "palus",
    "cc2": "16",
    "latitude": 17.08813,
    "longitude": 74.45712
  },
  {
    "name": "palso buzurg",
    "cc2": "16",
    "latitude": 20.7666,
    "longitude": 77.22967
  },
  {
    "name": "palsi",
    "cc2": "16",
    "latitude": 17.81777,
    "longitude": 74.10902
  },
  {
    "name": "palsi",
    "cc2": "16",
    "latitude": 17.22052,
    "longitude": 74.81601
  },
  {
    "name": "palshet",
    "cc2": "16",
    "latitude": 17.43664,
    "longitude": 73.21726
  },
  {
    "name": "palsai",
    "cc2": "16",
    "latitude": 19.60232,
    "longitude": 73.02798
  },
  {
    "name": "palli",
    "cc2": "16",
    "latitude": 19.37489,
    "longitude": 80.52891
  },
  {
    "name": "palkhed",
    "cc2": "16",
    "latitude": 20.19029,
    "longitude": 73.88523
  },
  {
    "name": "pali",
    "cc2": "16",
    "latitude": 19.66667,
    "longitude": 73.08333
  },
  {
    "name": "pali",
    "cc2": "16",
    "latitude": 18.91917,
    "longitude": 75.7454
  },
  {
    "name": "pali",
    "cc2": "16",
    "latitude": 18.53797,
    "longitude": 73.22218
  },
  {
    "name": "pali",
    "cc2": "16",
    "latitude": 16.98283,
    "longitude": 73.48073
  },
  {
    "name": "palghar",
    "cc2": "16",
    "latitude": 19.69693,
    "longitude": 72.76543
  },
  {
    "name": "paldhi",
    "cc2": "16",
    "latitude": 21.01563,
    "longitude": 75.46449
  },
  {
    "name": "palavna",
    "cc2": "16",
    "latitude": 17.92056,
    "longitude": 73.2304
  },
  {
    "name": "palasner",
    "cc2": "16",
    "latitude": 21.52686,
    "longitude": 75.04598
  },
  {
    "name": "palaskhed",
    "cc2": "16",
    "latitude": 18.66624,
    "longitude": 76.25102
  },
  {
    "name": "palasdev",
    "cc2": "16",
    "latitude": 18.24862,
    "longitude": 74.88097
  },
  {
    "name": "palandur",
    "cc2": "16",
    "latitude": 20.8511,
    "longitude": 80.25993
  },
  {
    "name": "palam",
    "cc2": "16",
    "latitude": 19.01501,
    "longitude": 76.94934
  },
  {
    "name": "palaiguda",
    "cc2": "16",
    "latitude": 19.79173,
    "longitude": 78.08219
  },
  {
    "name": "pal",
    "cc2": "16",
    "latitude": 21.36176,
    "longitude": 75.90125
  },
  {
    "name": "pal",
    "cc2": "16",
    "latitude": 17.4888,
    "longitude": 74.03058
  },
  {
    "name": "pakni",
    "cc2": "16",
    "latitude": 17.7232,
    "longitude": 75.77386
  },
  {
    "name": "paithan",
    "cc2": "16",
    "latitude": 19.47506,
    "longitude": 75.38558
  },
  {
    "name": "paldhi",
    "cc2": "16",
    "latitude": 20.75301,
    "longitude": 75.67024
  },
  {
    "name": "pahur",
    "cc2": "16",
    "latitude": 20.70846,
    "longitude": 75.68296
  },
  {
    "name": "pahla",
    "cc2": "16",
    "latitude": 21.0246,
    "longitude": 79.68295
  },
  {
    "name": "pahapal",
    "cc2": "16",
    "latitude": 19.99822,
    "longitude": 78.49126
  },
  {
    "name": "padsali",
    "cc2": "16",
    "latitude": 16.69925,
    "longitude": 73.85009
  },
  {
    "name": "padoli",
    "cc2": "16",
    "latitude": 18.19425,
    "longitude": 76.26214
  },
  {
    "name": "padmapur",
    "cc2": "16",
    "latitude": 20.04537,
    "longitude": 79.30707
  },
  {
    "name": "padghe",
    "cc2": "16",
    "latitude": 19.36695,
    "longitude": 73.17581
  },
  {
    "name": "pachud khurd",
    "cc2": "16",
    "latitude": 19.56667,
    "longitude": 75.65
  },
  {
    "name": "pachud buzurg",
    "cc2": "16",
    "latitude": 19.5744,
    "longitude": 75.62711
  },
  {
    "name": "pachud",
    "cc2": "16",
    "latitude": 19.55,
    "longitude": 75.63333
  },
  {
    "name": "pachora",
    "cc2": "16",
    "latitude": 20.66727,
    "longitude": 75.35305
  },
  {
    "name": "pachkheri",
    "cc2": "16",
    "latitude": 20.94769,
    "longitude": 79.50731
  },
  {
    "name": "pachingri",
    "cc2": "16",
    "latitude": 18.71459,
    "longitude": 75.58384
  },
  {
    "name": "pachegaon",
    "cc2": "16",
    "latitude": 20.95408,
    "longitude": 78.26735
  },
  {
    "name": "pachamba",
    "cc2": "16",
    "latitude": 17.26718,
    "longitude": 73.64294
  },
  {
    "name": "pabal",
    "cc2": "16",
    "latitude": 18.83073,
    "longitude": 74.05375
  },
  {
    "name": "otur",
    "cc2": "16",
    "latitude": 19.26515,
    "longitude": 73.98124
  },
  {
    "name": "osmannagar",
    "cc2": "16",
    "latitude": 18.96607,
    "longitude": 77.2935
  },
  {
    "name": "dharashiv",
    "cc2": "16",
    "latitude": 18.18158,
    "longitude": 76.03889
  },
  {
    "name": "ozar",
    "cc2": "16",
    "latitude": 20.09473,
    "longitude": 73.92816
  },
  {
    "name": "nyahalode",
    "cc2": "16",
    "latitude": 20.99125,
    "longitude": 74.8568
  },
  {
    "name": "nizampur",
    "cc2": "16",
    "latitude": 21.11277,
    "longitude": 74.33067
  },
  {
    "name": "nizampur",
    "cc2": "16",
    "latitude": 18.3184,
    "longitude": 73.3019
  },
  {
    "name": "nitur",
    "cc2": "16",
    "latitude": 18.24254,
    "longitude": 76.77792
  },
  {
    "name": "nitrud",
    "cc2": "16",
    "latitude": 19.0217,
    "longitude": 76.18547
  },
  {
    "name": "virvada",
    "cc2": "16",
    "latitude": 21.30226,
    "longitude": 75.35389
  },
  {
    "name": "nirmal",
    "cc2": "16",
    "latitude": 19.40043,
    "longitude": 72.76511
  },
  {
    "name": "niphad",
    "cc2": "16",
    "latitude": 20.07935,
    "longitude": 74.10926
  },
  {
    "name": "nipani",
    "cc2": "16",
    "latitude": 16.399,
    "longitude": 74.38285
  },
  {
    "name": "nimsod",
    "cc2": "16",
    "latitude": 17.45383,
    "longitude": 74.46431
  },
  {
    "name": "nimsakhar",
    "cc2": "16",
    "latitude": 18.02566,
    "longitude": 74.77188
  },
  {
    "name": "nimon",
    "cc2": "16",
    "latitude": 19.71093,
    "longitude": 74.19335
  },
  {
    "name": "limla",
    "cc2": "16",
    "latitude": 19.1114,
    "longitude": 76.84907
  },
  {
    "name": "nimgaon",
    "cc2": "16",
    "latitude": 20.43765,
    "longitude": 74.5581
  },
  {
    "name": "nimbhora budrukh",
    "cc2": "16",
    "latitude": 21.16602,
    "longitude": 75.96565
  },
  {
    "name": "nimbgaon ketki",
    "cc2": "16",
    "latitude": 18.08491,
    "longitude": 74.91291
  },
  {
    "name": "nimbgaon jali",
    "cc2": "16",
    "latitude": 19.56667,
    "longitude": 74.38333
  },
  {
    "name": "nimbgaon",
    "cc2": "16",
    "latitude": 18.57354,
    "longitude": 75.14219
  },
  {
    "name": "nimbavda",
    "cc2": "16",
    "latitude": 17.45733,
    "longitude": 74.85023
  },
  {
    "name": "nimbala",
    "cc2": "16",
    "latitude": 18.05587,
    "longitude": 76.75845
  },
  {
    "name": "nimbal",
    "cc2": "16",
    "latitude": 17.38827,
    "longitude": 76.38681
  },
  {
    "name": "limba",
    "cc2": "16",
    "latitude": 19.09845,
    "longitude": 76.43734
  },
  {
    "name": "nimb",
    "cc2": "16",
    "latitude": 17.79171,
    "longitude": 74.00801
  },
  {
    "name": "nilkat",
    "cc2": "16",
    "latitude": 18.5,
    "longitude": 76.28333
  },
  {
    "name": "nilanga",
    "cc2": "16",
    "latitude": 18.11675,
    "longitude": 76.75279
  },
  {
    "name": "nigudghar",
    "cc2": "16",
    "latitude": 18.1134,
    "longitude": 73.73275
  },
  {
    "name": "nigri",
    "cc2": "16",
    "latitude": 17.64681,
    "longitude": 74.20318
  },
  {
    "name": "nighoj",
    "cc2": "16",
    "latitude": 18.96003,
    "longitude": 74.28131
  },
  {
    "name": "nigda",
    "cc2": "16",
    "latitude": 17.20471,
    "longitude": 73.89273
  },
  {
    "name": "nibnutvadi",
    "cc2": "16",
    "latitude": 17.46414,
    "longitude": 74.72001
  },
  {
    "name": "nhave",
    "cc2": "16",
    "latitude": 18.95,
    "longitude": 72.96667
  },
  {
    "name": "nevra",
    "cc2": "16",
    "latitude": 17.11381,
    "longitude": 73.304
  },
  {
    "name": "nevasa",
    "cc2": "16",
    "latitude": 19.55255,
    "longitude": 74.9258
  },
  {
    "name": "neupur",
    "cc2": "16",
    "latitude": 20.38965,
    "longitude": 75.33696
  },
  {
    "name": "nethersole dam",
    "cc2": "16",
    "latitude": 18.86355,
    "longitude": 73.55745
  },
  {
    "name": "nerur",
    "cc2": "16",
    "latitude": 15.98761,
    "longitude": 73.64522
  },
  {
    "name": "ner pinglai",
    "cc2": "16",
    "latitude": 21.18298,
    "longitude": 77.98282
  },
  {
    "name": "nerla",
    "cc2": "16",
    "latitude": 17.09059,
    "longitude": 74.22458
  },
  {
    "name": "neri",
    "cc2": "16",
    "latitude": 20.84841,
    "longitude": 75.65422
  },
  {
    "name": "neral",
    "cc2": "16",
    "latitude": 19.02475,
    "longitude": 73.31688
  },
  {
    "name": "ner",
    "cc2": "16",
    "latitude": 20.94292,
    "longitude": 74.51453
  },
  {
    "name": "ner",
    "cc2": "16",
    "latitude": 20.48971,
    "longitude": 77.86632
  },
  {
    "name": "naigaon",
    "cc2": "16",
    "latitude": 18.84825,
    "longitude": 77.531
  },
  {
    "name": "naydongri",
    "cc2": "16",
    "latitude": 20.3499,
    "longitude": 74.83455
  },
  {
    "name": "nawegaon",
    "cc2": "16",
    "latitude": 20.91727,
    "longitude": 80.08901
  },
  {
    "name": "nawegaon",
    "cc2": "16",
    "latitude": 20.01654,
    "longitude": 79.98589
  },
  {
    "name": "nawargaon buzurg",
    "cc2": "16",
    "latitude": 20.36355,
    "longitude": 79.58525
  },
  {
    "name": "nawapur",
    "cc2": "16",
    "latitude": 19.78796,
    "longitude": 72.68942
  },
  {
    "name": "nawandi",
    "cc2": "16",
    "latitude": 18.7991,
    "longitude": 77.4311
  },
  {
    "name": "navdi",
    "cc2": "16",
    "latitude": 17.33751,
    "longitude": 74.03787
  },
  {
    "name": "navdi",
    "cc2": "16",
    "latitude": 17.17134,
    "longitude": 73.53776
  },
  {
    "name": "navapur",
    "cc2": "16",
    "latitude": 21.16157,
    "longitude": 73.79399
  },
  {
    "name": "navalyal",
    "cc2": "16",
    "latitude": 16.75,
    "longitude": 74.9
  },
  {
    "name": "naugaon",
    "cc2": "16",
    "latitude": 19.42901,
    "longitude": 75.51221
  },
  {
    "name": "naude",
    "cc2": "16",
    "latitude": 19.04856,
    "longitude": 73.10043
  },
  {
    "name": "nateputa",
    "cc2": "16",
    "latitude": 17.89895,
    "longitude": 74.75222
  },
  {
    "name": "natambi",
    "cc2": "16",
    "latitude": 18.10879,
    "longitude": 73.80968
  },
  {
    "name": "nasrapur",
    "cc2": "16",
    "latitude": 18.25,
    "longitude": 73.9
  },
  {
    "name": "nasirabad",
    "cc2": "16",
    "latitude": 21.00247,
    "longitude": 75.65912
  },
  {
    "name": "nashik",
    "cc2": "16",
    "latitude": 19.99727,
    "longitude": 73.79096
  },
  {
    "name": "narsingpur",
    "cc2": "16",
    "latitude": 17.97214,
    "longitude": 75.13071
  },
  {
    "name": "narsi",
    "cc2": "16",
    "latitude": 19.75649,
    "longitude": 77.01313
  },
  {
    "name": "narkher",
    "cc2": "16",
    "latitude": 21.47231,
    "longitude": 78.53415
  },
  {
    "name": "narkhed",
    "cc2": "16",
    "latitude": 17.90247,
    "longitude": 75.67586
  },
  {
    "name": "naringi",
    "cc2": "16",
    "latitude": 19.4748,
    "longitude": 72.81177
  },
  {
    "name": "nardana",
    "cc2": "16",
    "latitude": 21.19549,
    "longitude": 74.82581
  },
  {
    "name": "narayanmaharaj bet",
    "cc2": "16",
    "latitude": 18.39424,
    "longitude": 74.3639
  },
  {
    "name": "narayangaon",
    "cc2": "16",
    "latitude": 19.11917,
    "longitude": 73.97153
  },
  {
    "name": "narangwadi",
    "cc2": "16",
    "latitude": 17.98228,
    "longitude": 76.59401
  },
  {
    "name": "nannaj",
    "cc2": "16",
    "latitude": 19.69449,
    "longitude": 74.25227
  },
  {
    "name": "nandur shingote",
    "cc2": "16",
    "latitude": 19.72069,
    "longitude": 74.13619
  },
  {
    "name": "nandurbar",
    "cc2": "16",
    "latitude": 21.36671,
    "longitude": 74.24051
  },
  {
    "name": "nandura",
    "cc2": "16",
    "latitude": 20.83417,
    "longitude": 76.45924
  },
  {
    "name": "nandur",
    "cc2": "16",
    "latitude": 19.11316,
    "longitude": 75.73329
  },
  {
    "name": "nandur",
    "cc2": "16",
    "latitude": 18.67588,
    "longitude": 75.83602
  },
  {
    "name": "nandra budrukh",
    "cc2": "16",
    "latitude": 21.11688,
    "longitude": 75.47521
  },
  {
    "name": "nandori",
    "cc2": "16",
    "latitude": 20.51505,
    "longitude": 78.97247
  },
  {
    "name": "nandnee",
    "cc2": "16",
    "latitude": 17.45725,
    "longitude": 75.8507
  },
  {
    "name": "nandgaon khandeshwar",
    "cc2": "16",
    "latitude": 20.68466,
    "longitude": 77.83342
  },
  {
    "name": "nandgaon peth",
    "cc2": "16",
    "latitude": 21.01603,
    "longitude": 77.8262
  },
  {
    "name": "nandgaon",
    "cc2": "16",
    "latitude": 20.3068,
    "longitude": 74.65501
  },
  {
    "name": "nandgaon",
    "cc2": "16",
    "latitude": 19.76003,
    "longitude": 72.68839
  },
  {
    "name": "nandgaon",
    "cc2": "16",
    "latitude": 18.37918,
    "longitude": 72.92983
  },
  {
    "name": "nanded",
    "cc2": "16",
    "latitude": 21.14268,
    "longitude": 75.26994
  },
  {
    "name": "nanded",
    "cc2": "16",
    "latitude": 19.16023,
    "longitude": 77.31497
  },
  {
    "name": "nandari",
    "cc2": "16",
    "latitude": 21.11355,
    "longitude": 75.18604
  },
  {
    "name": "nandalgaon",
    "cc2": "16",
    "latitude": 19.13567,
    "longitude": 75.96252
  },
  {
    "name": "nand",
    "cc2": "16",
    "latitude": 20.65321,
    "longitude": 79.29204
  },
  {
    "name": "nanasi",
    "cc2": "16",
    "latitude": 20.34066,
    "longitude": 73.62319
  },
  {
    "name": "nanaj",
    "cc2": "16",
    "latitude": 18.59625,
    "longitude": 75.3101
  },
  {
    "name": "nanaj",
    "cc2": "16",
    "latitude": 17.83705,
    "longitude": 75.85094
  },
  {
    "name": "nampur",
    "cc2": "16",
    "latitude": 20.72865,
    "longitude": 74.31133
  },
  {
    "name": "nalwari",
    "cc2": "16",
    "latitude": 20.27952,
    "longitude": 73.75779
  },
  {
    "name": "nalni",
    "cc2": "16",
    "latitude": 20.15818,
    "longitude": 75.86826
  },
  {
    "name": "nalegaon",
    "cc2": "16",
    "latitude": 18.42162,
    "longitude": 76.81544
  },
  {
    "name": "naldurg",
    "cc2": "16",
    "latitude": 17.81667,
    "longitude": 76.28182
  },
  {
    "name": "nal",
    "cc2": "16",
    "latitude": 21.58089,
    "longitude": 74.05936
  },
  {
    "name": "nakhalgaon",
    "cc2": "16",
    "latitude": 19.03573,
    "longitude": 76.24253
  },
  {
    "name": "naigavhan",
    "cc2": "16",
    "latitude": 20.18293,
    "longitude": 75.52874
  },
  {
    "name": "naigaum",
    "cc2": "16",
    "latitude": 19,
    "longitude": 72.83333
  },
  {
    "name": "nahvre",
    "cc2": "16",
    "latitude": 18.66279,
    "longitude": 74.36969
  },
  {
    "name": "nagri",
    "cc2": "16",
    "latitude": 20.4145,
    "longitude": 78.87242
  },
  {
    "name": "nagpur",
    "cc2": "16",
    "latitude": 21.14631,
    "longitude": 79.08491
  },
  {
    "name": "nagothana",
    "cc2": "16",
    "latitude": 18.54225,
    "longitude": 73.13493
  },
  {
    "name": "nagjhari",
    "cc2": "16",
    "latitude": 19.04654,
    "longitude": 75.2344
  },
  {
    "name": "nagewadi",
    "cc2": "16",
    "latitude": 18.3631,
    "longitude": 76.85189
  },
  {
    "name": "nagevadi",
    "cc2": "16",
    "latitude": 17.34991,
    "longitude": 74.52077
  },
  {
    "name": "nagbhir",
    "cc2": "16",
    "latitude": 20.58408,
    "longitude": 79.68242
  },
  {
    "name": "nagarsul",
    "cc2": "16",
    "latitude": 20.10396,
    "longitude": 74.55234
  },
  {
    "name": "nagardhan",
    "cc2": "16",
    "latitude": 21.34251,
    "longitude": 79.31691
  },
  {
    "name": "nagardevla budrukh",
    "cc2": "16",
    "latitude": 20.56337,
    "longitude": 75.20734
  },
  {
    "name": "nagapur",
    "cc2": "16",
    "latitude": 20.38003,
    "longitude": 75.26525
  },
  {
    "name": "nagapur",
    "cc2": "16",
    "latitude": 18.88088,
    "longitude": 76.44015
  },
  {
    "name": "nagaon",
    "cc2": "16",
    "latitude": 18.87208,
    "longitude": 72.92642
  },
  {
    "name": "nagaon",
    "cc2": "16",
    "latitude": 18.61353,
    "longitude": 72.90394
  },
  {
    "name": "nagansur",
    "cc2": "16",
    "latitude": 17.39289,
    "longitude": 76.16521
  },
  {
    "name": "nagalwadi",
    "cc2": "16",
    "latitude": 21.57399,
    "longitude": 79.01675
  },
  {
    "name": "nagaj",
    "cc2": "16",
    "latitude": 17.14505,
    "longitude": 74.93622
  },
  {
    "name": "nagad",
    "cc2": "16",
    "latitude": 20.4635,
    "longitude": 75.175
  },
  {
    "name": "nadgaon",
    "cc2": "16",
    "latitude": 17.47031,
    "longitude": 73.6194
  },
  {
    "name": "nachanvala",
    "cc2": "16",
    "latitude": 20.30028,
    "longitude": 75.42992
  },
  {
    "name": "nachangaon",
    "cc2": "16",
    "latitude": 20.69745,
    "longitude": 78.32863
  },
  {
    "name": "mayyabommapeta",
    "cc2": "16",
    "latitude": 19.10489,
    "longitude": 79.88746
  },
  {
    "name": "musalvadi",
    "cc2": "16",
    "latitude": 19.46064,
    "longitude": 74.69469
  },
  {
    "name": "murum",
    "cc2": "16",
    "latitude": 18.06546,
    "longitude": 74.30564
  },
  {
    "name": "murud",
    "cc2": "16",
    "latitude": 18.40517,
    "longitude": 76.23978
  },
  {
    "name": "murud",
    "cc2": "16",
    "latitude": 18.32817,
    "longitude": 72.9621
  },
  {
    "name": "murtajapur",
    "cc2": "16",
    "latitude": 20.73299,
    "longitude": 77.36694
  },
  {
    "name": "murpar",
    "cc2": "16",
    "latitude": 21.18115,
    "longitude": 80.42013
  },
  {
    "name": "murjha",
    "cc2": "16",
    "latitude": 20.32012,
    "longitude": 79.91768
  },
  {
    "name": "murgud",
    "cc2": "16",
    "latitude": 16.39604,
    "longitude": 74.19142
  },
  {
    "name": "murdoli",
    "cc2": "16",
    "latitude": 21.22627,
    "longitude": 80.20263
  },
  {
    "name": "murdara",
    "cc2": "16",
    "latitude": 21.53269,
    "longitude": 80.01612
  },
  {
    "name": "murbad",
    "cc2": "16",
    "latitude": 19.25395,
    "longitude": 73.38993
  },
  {
    "name": "muramgaon",
    "cc2": "16",
    "latitude": 20.32807,
    "longitude": 80.47131
  },
  {
    "name": "mundikota",
    "cc2": "16",
    "latitude": 21.36672,
    "longitude": 79.84284
  },
  {
    "name": "mundhva",
    "cc2": "16",
    "latitude": 18.53476,
    "longitude": 73.93056
  },
  {
    "name": "mundhri buzurg",
    "cc2": "16",
    "latitude": 21.27677,
    "longitude": 79.76367
  },
  {
    "name": "mundhevadi",
    "cc2": "16",
    "latitude": 17.74331,
    "longitude": 75.72123
  },
  {
    "name": "mundgaon",
    "cc2": "16",
    "latitude": 21.05034,
    "longitude": 76.99298
  },
  {
    "name": "mulher",
    "cc2": "16",
    "latitude": 20.78189,
    "longitude": 74.06377
  },
  {
    "name": "mulawa",
    "cc2": "16",
    "latitude": 19.68402,
    "longitude": 77.56209
  },
  {
    "name": "mul",
    "cc2": "16",
    "latitude": 20.06987,
    "longitude": 79.67826
  },
  {
    "name": "mukutban",
    "cc2": "16",
    "latitude": 19.80928,
    "longitude": 78.85341
  },
  {
    "name": "mukti",
    "cc2": "16",
    "latitude": 20.87194,
    "longitude": 74.94491
  },
  {
    "name": "mukher",
    "cc2": "16",
    "latitude": 18.70636,
    "longitude": 77.36795
  },
  {
    "name": "mukapullee",
    "cc2": "16",
    "latitude": 19.82506,
    "longitude": 80.07094
  },
  {
    "name": "mudkhed",
    "cc2": "16",
    "latitude": 19.15657,
    "longitude": 77.50304
  },
  {
    "name": "mowad",
    "cc2": "16",
    "latitude": 21.46475,
    "longitude": 78.45103
  },
  {
    "name": "motala",
    "cc2": "16",
    "latitude": 20.67794,
    "longitude": 76.20996
  },
  {
    "name": "mosam",
    "cc2": "16",
    "latitude": 19.31667,
    "longitude": 80.05
  },
  {
    "name": "morsi",
    "cc2": "16",
    "latitude": 21.3403,
    "longitude": 78.01258
  },
  {
    "name": "morgaon",
    "cc2": "16",
    "latitude": 18.27834,
    "longitude": 74.31728
  },
  {
    "name": "morewari",
    "cc2": "16",
    "latitude": 18.57897,
    "longitude": 77.03399
  },
  {
    "name": "morath",
    "cc2": "16",
    "latitude": 19.79285,
    "longitude": 77.70383
  },
  {
    "name": "moram",
    "cc2": "16",
    "latitude": 17.78812,
    "longitude": 76.47077
  },
  {
    "name": "morala",
    "cc2": "16",
    "latitude": 17.18239,
    "longitude": 74.6961
  },
  {
    "name": "mora",
    "cc2": "16",
    "latitude": 18.9086,
    "longitude": 72.92993
  },
  {
    "name": "musramguda",
    "cc2": "16",
    "latitude": 19.83519,
    "longitude": 80.30997
  },
  {
    "name": "mond",
    "cc2": "16",
    "latitude": 16.41773,
    "longitude": 73.45865
  },
  {
    "name": "mokhada",
    "cc2": "16",
    "latitude": 19.93652,
    "longitude": 73.34032
  },
  {
    "name": "mojhri",
    "cc2": "16",
    "latitude": 21.04963,
    "longitude": 78.00591
  },
  {
    "name": "moharli",
    "cc2": "16",
    "latitude": 20.18777,
    "longitude": 79.33339
  },
  {
    "name": "mohpa",
    "cc2": "16",
    "latitude": 21.31012,
    "longitude": 78.82969
  },
  {
    "name": "mohore",
    "cc2": "16",
    "latitude": 16.86968,
    "longitude": 74.14922
  },
  {
    "name": "mohorala",
    "cc2": "16",
    "latitude": 21.2379,
    "longitude": 75.67571
  },
  {
    "name": "mohona",
    "cc2": "16",
    "latitude": 17.72668,
    "longitude": 73.47701
  },
  {
    "name": "mohomandli",
    "cc2": "16",
    "latitude": 21.30547,
    "longitude": 75.79815
  },
  {
    "name": "mohol",
    "cc2": "16",
    "latitude": 17.81065,
    "longitude": 75.64278
  },