[
  {
    "name": "zawar",
    "cc2": "24",
    "latitude": 24.34908,
    "longitude": 73.6942
  },
  {
    "name": "zawal",
    "cc2": "24",
    "latitude": 24.99185,
    "longitude": 72.74858
  },
  {
    "name": "bekriya",
    "cc2": "24",
    "latitude": 24.70811,
    "longitude": 73.21485
  },
  {
    "name": "weir",
    "cc2": "24",
    "latitude": 27.0186,
    "longitude": 77.17636
  },
  {
    "name": "wazirpur",
    "cc2": "24",
    "latitude": 26.56498,
    "longitude": 76.8866
  },
  {
    "name": "watika",
    "cc2": "24",
    "latitude": 26.71149,
    "longitude": 75.80114
  },
  {
    "name": "wasa",
    "cc2": "24",
    "latitude": 24.62314,
    "longitude": 72.98023
  },
  {
    "name": "barman",
    "cc2": "24",
    "latitude": 24.60189,
    "longitude": 72.47242
  },
  {
    "name": "bagidora",
    "cc2": "24",
    "latitude": 23.40426,
    "longitude": 74.26749
  },
  {
    "name": "bichiyon",
    "cc2": "24",
    "latitude": 26.74668,
    "longitude": 69.51597
  },
  {
    "name": "vano",
    "cc2": "24",
    "latitude": 24.60768,
    "longitude": 74.14831
  },
  {
    "name": "vayad",
    "cc2": "24",
    "latitude": 25.7433,
    "longitude": 72.9789
  },
  {
    "name": "utarni",
    "cc2": "24",
    "latitude": 26.06415,
    "longitude": 71.96307
  },
  {
    "name": "ursewa",
    "cc2": "24",
    "latitude": 26.54676,
    "longitude": 75.23109
  },
  {
    "name": "urika",
    "cc2": "24",
    "latitude": 28.35253,
    "longitude": 75.90747
  },
  {
    "name": "urasar",
    "cc2": "24",
    "latitude": 25.327,
    "longitude": 71.51555
  },
  {
    "name": "upni",
    "cc2": "24",
    "latitude": 27.95121,
    "longitude": 73.97117
  },
  {
    "name": "uperro",
    "cc2": "24",
    "latitude": 25.59945,
    "longitude": 74.74928
  },
  {
    "name": "untala",
    "cc2": "24",
    "latitude": 24.68333,
    "longitude": 74
  },
  {
    "name": "uniara",
    "cc2": "24",
    "latitude": 26.15336,
    "longitude": 75.21523
  },
  {
    "name": "uniara",
    "cc2": "24",
    "latitude": 25.91502,
    "longitude": 76.026
  },
  {
    "name": "undu",
    "cc2": "24",
    "latitude": 26.3314,
    "longitude": 71.67311
  },
  {
    "name": "undithal",
    "cc2": "24",
    "latitude": 24.58102,
    "longitude": 73.49324
  },
  {
    "name": "umariya",
    "cc2": "24",
    "latitude": 24.23465,
    "longitude": 76.4032
  },
  {
    "name": "umpura",
    "cc2": "24",
    "latitude": 24.29368,
    "longitude": 73.8378
  },
  {
    "name": "ummedpur",
    "cc2": "24",
    "latitude": 25.31999,
    "longitude": 72.91218
  },
  {
    "name": "umednagar",
    "cc2": "24",
    "latitude": 26.566,
    "longitude": 73.01492
  },
  {
    "name": "umarlai",
    "cc2": "24",
    "latitude": 25.89207,
    "longitude": 72.42031
  },
  {
    "name": "umar",
    "cc2": "24",
    "latitude": 25.6789,
    "longitude": 75.45861
  },
  {
    "name": "ulela",
    "cc2": "24",
    "latitude": 25.51517,
    "longitude": 75.2456
  },
  {
    "name": "ujlan",
    "cc2": "24",
    "latitude": 26.81322,
    "longitude": 71.9479
  },
  {
    "name": "udrasar",
    "cc2": "24",
    "latitude": 28.26534,
    "longitude": 74.08753
  },
  {
    "name": "udramsar",
    "cc2": "24",
    "latitude": 27.93831,
    "longitude": 73.30287
  },
  {
    "name": "udpura",
    "cc2": "24",
    "latitude": 24.73355,
    "longitude": 75.97514
  },
  {
    "name": "udka",
    "cc2": "24",
    "latitude": 25.64176,
    "longitude": 71.35536
  },
  {
    "name": "udit",
    "cc2": "24",
    "latitude": 27.55629,
    "longitude": 72.72368
  },
  {
    "name": "udepur",
    "cc2": "24",
    "latitude": 29.14936,
    "longitude": 73.83815
  },
  {
    "name": "udasar",
    "cc2": "24",
    "latitude": 28.04041,
    "longitude": 73.38162
  },
  {
    "name": "udaipur",
    "cc2": "24",
    "latitude": 27.72297,
    "longitude": 75.47178
  },
  {
    "name": "udaipur",
    "cc2": "24",
    "latitude": 24.58584,
    "longitude": 73.71346
  },
  {
    "name": "uchen",
    "cc2": "24",
    "latitude": 27.09229,
    "longitude": 77.40952
  },
  {
    "name": "tuntoli",
    "cc2": "24",
    "latitude": 26.63502,
    "longitude": 75.8015
  },
  {
    "name": "tunkra",
    "cc2": "24",
    "latitude": 25.60808,
    "longitude": 75.4395
  },
  {
    "name": "tunga",
    "cc2": "24",
    "latitude": 26.7339,
    "longitude": 76.15127
  },
  {
    "name": "tukrai",
    "cc2": "24",
    "latitude": 25.03333,
    "longitude": 75.08333
  },
  {
    "name": "tosina",
    "cc2": "24",
    "latitude": 27.1822,
    "longitude": 74.53054
  },
  {
    "name": "tordi",
    "cc2": "24",
    "latitude": 26.22377,
    "longitude": 75.42854
  },
  {
    "name": "tonk",
    "cc2": "24",
    "latitude": 26.16638,
    "longitude": 75.78824
  },
  {
    "name": "toliyasar",
    "cc2": "24",
    "latitude": 28.14202,
    "longitude": 74.07606
  },
  {
    "name": "toker",
    "cc2": "24",
    "latitude": 23.98114,
    "longitude": 73.81686
  },
  {
    "name": "todgarh",
    "cc2": "24",
    "latitude": 25.6911,
    "longitude": 73.97214
  },
  {
    "name": "todaraisingh",
    "cc2": "24",
    "latitude": 26.02401,
    "longitude": 75.48182
  },
  {
    "name": "todabhim",
    "cc2": "24",
    "latitude": 26.91667,
    "longitude": 76.81667
  },
  {
    "name": "tarpal",
    "cc2": "24",
    "latitude": 24.8147,
    "longitude": 73.42939
  },
  {
    "name": "tirath",
    "cc2": "24",
    "latitude": 25.25228,
    "longitude": 75.86605
  },
  {
    "name": "tilwara",
    "cc2": "24",
    "latitude": 25.86073,
    "longitude": 72.09074
  },
  {
    "name": "tiloli",
    "cc2": "24",
    "latitude": 25.28347,
    "longitude": 74.39192
  },
  {
    "name": "tilonia",
    "cc2": "24",
    "latitude": 26.654,
    "longitude": 74.93834
  },
  {
    "name": "tilasma",
    "cc2": "24",
    "latitude": 25.06152,
    "longitude": 75.32548
  },
  {
    "name": "tilarwan",
    "cc2": "24",
    "latitude": 24.5936,
    "longitude": 73.09492
  },
  {
    "name": "tikar",
    "cc2": "24",
    "latitude": 25.71674,
    "longitude": 75.4297
  },
  {
    "name": "tijara",
    "cc2": "24",
    "latitude": 27.93411,
    "longitude": 76.85541
  },
  {
    "name": "tibi",
    "cc2": "24",
    "latitude": 29.58333,
    "longitude": 74.51667
  },
  {
    "name": "thur",
    "cc2": "24",
    "latitude": 24.98929,
    "longitude": 72.43837
  },
  {
    "name": "thur",
    "cc2": "24",
    "latitude": 24.66781,
    "longitude": 73.64234
  },
  {
    "name": "thun",
    "cc2": "24",
    "latitude": 27.37715,
    "longitude": 77.11817
  },
  {
    "name": "thumba",
    "cc2": "24",
    "latitude": 25.40562,
    "longitude": 72.94997
  },
  {
    "name": "thotya",
    "cc2": "24",
    "latitude": 28.85267,
    "longitude": 73.5811
  },
  {
    "name": "thoi",
    "cc2": "24",
    "latitude": 27.54175,
    "longitude": 75.74981
  },
  {
    "name": "thob",
    "cc2": "24",
    "latitude": 26.0533,
    "longitude": 72.38647
  },
  {
    "name": "thirana",
    "cc2": "24",
    "latitude": 29.03012,
    "longitude": 74.50453
  },
  {
    "name": "thikarda",
    "cc2": "24",
    "latitude": 25.48749,
    "longitude": 75.63444
  },
  {
    "name": "that",
    "cc2": "24",
    "latitude": 26.85479,
    "longitude": 71.82701
  },
  {
    "name": "tharusar",
    "cc2": "24",
    "latitude": 28.52417,
    "longitude": 72.98845
  },
  {
    "name": "jharoli",
    "cc2": "24",
    "latitude": 24.81901,
    "longitude": 73.02841
  },
  {
    "name": "tharaoli",
    "cc2": "24",
    "latitude": 25.96893,
    "longitude": 75.46907
  },
  {
    "name": "thapan",
    "cc2": "24",
    "latitude": 25.68162,
    "longitude": 72.30047
  },
  {
    "name": "thanwla",
    "cc2": "24",
    "latitude": 26.55665,
    "longitude": 74.4668
  },
  {
    "name": "thana kasba",
    "cc2": "24",
    "latitude": 25.21566,
    "longitude": 77.35507
  },
  {
    "name": "thana ghazi",
    "cc2": "24",
    "latitude": 27.40012,
    "longitude": 76.31726
  },
  {
    "name": "talera",
    "cc2": "24",
    "latitude": 25.31575,
    "longitude": 75.73276
  },
  {
    "name": "thakarda",
    "cc2": "24",
    "latitude": 23.70658,
    "longitude": 73.95195
  },
  {
    "name": "teori",
    "cc2": "24",
    "latitude": 26.55201,
    "longitude": 72.88546
  },
  {
    "name": "tena",
    "cc2": "24",
    "latitude": 26.38373,
    "longitude": 72.33886
  },
  {
    "name": "tekra",
    "cc2": "24",
    "latitude": 27.19327,
    "longitude": 71.96042
  },
  {
    "name": "tekan",
    "cc2": "24",
    "latitude": 24.37926,
    "longitude": 74.16775
  },
  {
    "name": "tejrawa",
    "cc2": "24",
    "latitude": 26.25624,
    "longitude": 70.64468
  },
  {
    "name": "tehla",
    "cc2": "24",
    "latitude": 27.24051,
    "longitude": 76.41051
  },
  {
    "name": "tatarsar",
    "cc2": "24",
    "latitude": 29.79028,
    "longitude": 73.72978
  },
  {
    "name": "tatarpur",
    "cc2": "24",
    "latitude": 27.77839,
    "longitude": 76.51317
  },
  {
    "name": "tarawat",
    "cc2": "24",
    "latitude": 24.6903,
    "longitude": 74.05422
  },
  {
    "name": "tarnau",
    "cc2": "24",
    "latitude": 27.14057,
    "longitude": 74.12707
  },
  {
    "name": "taranagar",
    "cc2": "24",
    "latitude": 28.6686,
    "longitude": 75.03207
  },
  {
    "name": "taraj",
    "cc2": "24",
    "latitude": 24.52319,
    "longitude": 76.49523
  },
  {
    "name": "tapukrah",
    "cc2": "24",
    "latitude": 28.11072,
    "longitude": 76.8327
  },
  {
    "name": "tapra",
    "cc2": "24",
    "latitude": 25.7129,
    "longitude": 72.16447
  },
  {
    "name": "tanvra",
    "cc2": "24",
    "latitude": 27.65718,
    "longitude": 74.59662
  },
  {
    "name": "tantwas",
    "cc2": "24",
    "latitude": 27.21034,
    "longitude": 73.24407
  },
  {
    "name": "tantuti",
    "cc2": "24",
    "latitude": 26.13956,
    "longitude": 74.81864
  },
  {
    "name": "tanot",
    "cc2": "24",
    "latitude": 27.79579,
    "longitude": 70.35383
  },
  {
    "name": "tankla",
    "cc2": "24",
    "latitude": 27.02931,
    "longitude": 73.51325
  },
  {
    "name": "tanaora kalan",
    "cc2": "24",
    "latitude": 26.15978,
    "longitude": 73.00746
  },
  {
    "name": "tamlor",
    "cc2": "24",
    "latitude": 25.72219,
    "longitude": 70.53743
  },
  {
    "name": "tamesra",
    "cc2": "24",
    "latitude": 23.25916,
    "longitude": 74.34691
  },
  {
    "name": "talwas",
    "cc2": "24",
    "latitude": 25.62083,
    "longitude": 76.04497
  },
  {
    "name": "talwara",
    "cc2": "24",
    "latitude": 23.56593,
    "longitude": 74.32166
  },
  {
    "name": "talniau",
    "cc2": "24",
    "latitude": 27.49688,
    "longitude": 74.02701
  },
  {
    "name": "tali",
    "cc2": "24",
    "latitude": 26.75812,
    "longitude": 77.20141
  },
  {
    "name": "talaora",
    "cc2": "24",
    "latitude": 26.06569,
    "longitude": 76.63352
  },
  {
    "name": "talao",
    "cc2": "24",
    "latitude": 25.65733,
    "longitude": 76.43387
  },
  {
    "name": "talav",
    "cc2": "24",
    "latitude": 24.27066,
    "longitude": 74.11155
  },
  {
    "name": "tal",
    "cc2": "24",
    "latitude": 25.62782,
    "longitude": 74.05503
  },
  {
    "name": "takhatgarh",
    "cc2": "24",
    "latitude": 25.32235,
    "longitude": 73.00487
  },
  {
    "name": "tahindesar",
    "cc2": "24",
    "latitude": 27.70022,
    "longitude": 73.9702
  },
  {
    "name": "tadana",
    "cc2": "24",
    "latitude": 27.32704,
    "longitude": 71.54238
  },
  {
    "name": "satlana",
    "cc2": "24",
    "latitude": 25.96875,
    "longitude": 72.96269
  },
  {
    "name": "sursara",
    "cc2": "24",
    "latitude": 26.73201,
    "longitude": 74.87617
  },
  {
    "name": "surpura khurd",
    "cc2": "24",
    "latitude": 26.71007,
    "longitude": 73.47804
  },
  {
    "name": "surpura",
    "cc2": "24",
    "latitude": 25.89765,
    "longitude": 72.57498
  },
  {
    "name": "surpalia",
    "cc2": "24",
    "latitude": 27.46817,
    "longitude": 74.04827
  },
  {
    "name": "suroth",
    "cc2": "24",
    "latitude": 26.80984,
    "longitude": 77.14696
  },
  {
    "name": "surjansar",
    "cc2": "24",
    "latitude": 29.06403,
    "longitude": 73.46985
  },
  {
    "name": "surawala",
    "cc2": "24",
    "latitude": 29.5936,
    "longitude": 74.54614
  },
  {
    "name": "suratgarh",
    "cc2": "24",
    "latitude": 29.3215,
    "longitude": 73.89979
  },
  {
    "name": "surana",
    "cc2": "24",
    "latitude": 25.23508,
    "longitude": 72.13751
  },
  {
    "name": "surajgarh",
    "cc2": "24",
    "latitude": 28.31005,
    "longitude": 75.73271
  },
  {
    "name": "sunwasa",
    "cc2": "24",
    "latitude": 25.33258,
    "longitude": 75.85026
  },
  {
    "name": "sanawar",
    "cc2": "24",
    "latitude": 24.83758,
    "longitude": 74.07867
  },
  {
    "name": "sunel chhoti",
    "cc2": "24",
    "latitude": 24.33571,
    "longitude": 76.01682
  },
  {
    "name": "sunel",
    "cc2": "24",
    "latitude": 24.37065,
    "longitude": 75.95708
  },
  {
    "name": "sundra",
    "cc2": "24",
    "latitude": 26.0873,
    "longitude": 70.22328
  },
  {
    "name": "sundani",
    "cc2": "24",
    "latitude": 23.68734,
    "longitude": 74.30755
  },
  {
    "name": "sunara",
    "cc2": "24",
    "latitude": 26.45003,
    "longitude": 75.83115
  },
  {
    "name": "sumar",
    "cc2": "24",
    "latitude": 24.78543,
    "longitude": 76.39423
  },
  {
    "name": "sultanpur",
    "cc2": "24",
    "latitude": 25.28832,
    "longitude": 76.17302
  },
  {
    "name": "sultana",
    "cc2": "24",
    "latitude": 28.12936,
    "longitude": 75.61484
  },
  {
    "name": "sultan",
    "cc2": "24",
    "latitude": 27.42574,
    "longitude": 70.89493
  },
  {
    "name": "solankiyatada",
    "cc2": "24",
    "latitude": 26.5367,
    "longitude": 72.26947
  },
  {
    "name": "sukhera",
    "cc2": "24",
    "latitude": 23.67453,
    "longitude": 74.95092
  },
  {
    "name": "sukhchainpura",
    "cc2": "24",
    "latitude": 29.33764,
    "longitude": 73.36959
  },
  {
    "name": "suket",
    "cc2": "24",
    "latitude": 24.64609,
    "longitude": 76.0417
  },
  {
    "name": "sujio",
    "cc2": "24",
    "latitude": 27.10461,
    "longitude": 71.41653
  },
  {
    "name": "sujangarh",
    "cc2": "24",
    "latitude": 27.7,
    "longitude": 74.46667
  },
  {
    "name": "suin",
    "cc2": "24",
    "latitude": 28.7446,
    "longitude": 74.10685
  },
  {
    "name": "srinagar",
    "cc2": "24",
    "latitude": 26.4351,
    "longitude": 74.77603
  },
  {
    "name": "sri madhopur",
    "cc2": "24",
    "latitude": 27.46599,
    "longitude": 75.59736
  },
  {
    "name": "karanpur",
    "cc2": "24",
    "latitude": 29.84042,
    "longitude": 73.45519
  },
  {
    "name": "sri dungargarh",
    "cc2": "24",
    "latitude": 28.09617,
    "longitude": 74.00868
  },
  {
    "name": "sri chhatarpur",
    "cc2": "24",
    "latitude": 24.54277,
    "longitude": 75.93526
  },
  {
    "name": "sri bradria",
    "cc2": "24",
    "latitude": 27.10468,
    "longitude": 71.54967
  },
  {
    "name": "sorsan",
    "cc2": "24",
    "latitude": 25.01667,
    "longitude": 76.3
  },
  {
    "name": "sonwara",
    "cc2": "24",
    "latitude": 24.86091,
    "longitude": 72.95046
  },
  {
    "name": "sonri",
    "cc2": "24",
    "latitude": 25.07544,
    "longitude": 71.25514
  },
  {
    "name": "soniyasar",
    "cc2": "24",
    "latitude": 27.76555,
    "longitude": 74.02234
  },
  {
    "name": "soniyana",
    "cc2": "24",
    "latitude": 25.12166,
    "longitude": 74.63453
  },
  {
    "name": "sone ka gurja",
    "cc2": "24",
    "latitude": 26.49165,
    "longitude": 77.56119
  },
  {
    "name": "somsisar",
    "cc2": "24",
    "latitude": 28.776,
    "longitude": 74.74774
  },
  {
    "name": "somran",
    "cc2": "24",
    "latitude": 27.25035,
    "longitude": 73.94641
  },
  {
    "name": "somasi",
    "cc2": "24",
    "latitude": 28.41004,
    "longitude": 74.89355
  },
  {
    "name": "somalsar",
    "cc2": "24",
    "latitude": 27.58309,
    "longitude": 73.52369
  },
  {
    "name": "som",
    "cc2": "24",
    "latitude": 24.183,
    "longitude": 73.34178
  },
  {
    "name": "sojat",
    "cc2": "24",
    "latitude": 25.92493,
    "longitude": 73.66633
  },
  {
    "name": "sointara",
    "cc2": "24",
    "latitude": 26.26793,
    "longitude": 72.38457
  },
  {
    "name": "soila",
    "cc2": "24",
    "latitude": 26.82632,
    "longitude": 73.3337
  },
  {
    "name": "sohan",
    "cc2": "24",
    "latitude": 26.72022,
    "longitude": 77.68584
  },
  {
    "name": "sohagpura",
    "cc2": "24",
    "latitude": 23.91966,
    "longitude": 74.70892
  },
  {
    "name": "sodakor",
    "cc2": "24",
    "latitude": 27.03506,
    "longitude": 71.43657
  },
  {
    "name": "sobhasar",
    "cc2": "24",
    "latitude": 28.11967,
    "longitude": 73.23368
  },
  {
    "name": "siwarh",
    "cc2": "24",
    "latitude": 26.19895,
    "longitude": 76.03136
  },
  {
    "name": "siwana",
    "cc2": "24",
    "latitude": 25.65154,
    "longitude": 72.42243
  },
  {
    "name": "sitamata",
    "cc2": "24",
    "latitude": 24.25617,
    "longitude": 74.52688
  },
  {
    "name": "sital",
    "cc2": "24",
    "latitude": 27.96667,
    "longitude": 73.6
  },
  {
    "name": "siswali",
    "cc2": "24",
    "latitude": 25.34239,
    "longitude": 76.35658
  },
  {
    "name": "sirwa",
    "cc2": "24",
    "latitude": 26.67012,
    "longitude": 71.10199
  },
  {
    "name": "sirwa",
    "cc2": "24",
    "latitude": 25.0811,
    "longitude": 71.15661
  },
  {
    "name": "siroli",
    "cc2": "24",
    "latitude": 26.8047,
    "longitude": 75.90852
  },
  {
    "name": "sirohi",
    "cc2": "24",
    "latitude": 24.88838,
    "longitude": 72.84794
  },
  {
    "name": "sir muttra",
    "cc2": "24",
    "latitude": 26.51501,
    "longitude": 77.37212
  },
  {
    "name": "siriari",
    "cc2": "24",
    "latitude": 25.67525,
    "longitude": 73.81215
  },
  {
    "name": "sird",
    "cc2": "24",
    "latitude": 27.49261,
    "longitude": 72.47784
  },
  {
    "name": "sinwa",
    "cc2": "24",
    "latitude": 27.39276,
    "longitude": 74.37804
  },
  {
    "name": "sinsini",
    "cc2": "24",
    "latitude": 27.3662,
    "longitude": 77.29906
  },
  {
    "name": "singrawat",
    "cc2": "24",
    "latitude": 27.43279,
    "longitude": 74.87881
  },
  {
    "name": "singpur",
    "cc2": "24",
    "latitude": 24.93333,
    "longitude": 74.45
  },
  {
    "name": "singhana",
    "cc2": "24",
    "latitude": 28.09959,
    "longitude": 75.83895
  },
  {
    "name": "singautakhera",
    "cc2": "24",
    "latitude": 24.18813,
    "longitude": 74.34483
  },
  {
    "name": "singar",
    "cc2": "24",
    "latitude": 27.21309,
    "longitude": 73.62322
  },
  {
    "name": "sindari",
    "cc2": "24",
    "latitude": 25.56691,
    "longitude": 71.925
  },
  {
    "name": "silor",
    "cc2": "24",
    "latitude": 25.37655,
    "longitude": 75.60866
  },
  {
    "name": "silanwad",
    "cc2": "24",
    "latitude": 27.34704,
    "longitude": 74.26016
  },
  {
    "name": "sikri patti",
    "cc2": "24",
    "latitude": 27.57688,
    "longitude": 77.07352
  },
  {
    "name": "sikar",
    "cc2": "24",
    "latitude": 27.61206,
    "longitude": 75.13996
  },
  {
    "name": "sihar",
    "cc2": "24",
    "latitude": 27.17941,
    "longitude": 72.04892
  },
  {
    "name": "sidrias",
    "cc2": "24",
    "latitude": 25.41882,
    "longitude": 74.77912
  },
  {
    "name": "sidhmukh",
    "cc2": "24",
    "latitude": 28.88944,
    "longitude": 75.28693
  },
  {
    "name": "siasar",
    "cc2": "24",
    "latitude": 28.47004,
    "longitude": 72.94694
  },
  {
    "name": "siani",
    "cc2": "24",
    "latitude": 25.77308,
    "longitude": 71.07834
  },
  {
    "name": "siana",
    "cc2": "24",
    "latitude": 27.64325,
    "longitude": 73.05843
  },
  {
    "name": "shyambhar ki dhani",
    "cc2": "24",
    "latitude": 27.03832,
    "longitude": 70.30217
  },
  {
    "name": "shri mohangarh",
    "cc2": "24",
    "latitude": 27.2871,
    "longitude": 71.24191
  },
  {
    "name": "sora",
    "cc2": "24",
    "latitude": 26.40344,
    "longitude": 75.50859
  },
  {
    "name": "shokla",
    "cc2": "24",
    "latitude": 26.2167,
    "longitude": 74.86142
  },
  {
    "name": "shivpura",
    "cc2": "24",
    "latitude": 29.31309,
    "longitude": 73.28682
  },
  {
    "name": "shivpur",
    "cc2": "24",
    "latitude": 30.05613,
    "longitude": 73.86444
  },
  {
    "name": "shiv",
    "cc2": "24",
    "latitude": 26.1911,
    "longitude": 71.24436
  },
  {
    "name": "shimla",
    "cc2": "24",
    "latitude": 28.69275,
    "longitude": 74.57112
  },
  {
    "name": "shikarpura",
    "cc2": "24",
    "latitude": 26.02783,
    "longitude": 73.04717
  },
  {
    "name": "shetrawa",
    "cc2": "24",
    "latitude": 26.59806,
    "longitude": 72.2969
  },
  {
    "name": "sherpura",
    "cc2": "24",
    "latitude": 29.1747,
    "longitude": 73.06021
  },
  {
    "name": "khanda saharol",
    "cc2": "24",
    "latitude": 25.1577,
    "longitude": 77.11505
  },
  {
    "name": "sheriala",
    "cc2": "24",
    "latitude": 27.73435,
    "longitude": 73.67121
  },
  {
    "name": "shergarh",
    "cc2": "24",
    "latitude": 26.32842,
    "longitude": 72.2963
  },
  {
    "name": "shergarh",
    "cc2": "24",
    "latitude": 24.70777,
    "longitude": 76.54099
  },
  {
    "name": "shergarh",
    "cc2": "24",
    "latitude": 23.34251,
    "longitude": 74.17088
  },
  {
    "name": "sepharaguwar",
    "cc2": "24",
    "latitude": 27.81591,
    "longitude": 75.72445
  },
  {
    "name": "sheopura",
    "cc2": "24",
    "latitude": 26.01838,
    "longitude": 74.37493
  },
  {
    "name": "sevki kalan",
    "cc2": "24",
    "latitude": 26.52895,
    "longitude": 73.27773
  },
  {
    "name": "sheoganj",
    "cc2": "24",
    "latitude": 25.13915,
    "longitude": 73.06784
  },
  {
    "name": "sheodaspura",
    "cc2": "24",
    "latitude": 26.71017,
    "longitude": 75.89534
  },
  {
    "name": "sekhiwas",
    "cc2": "24",
    "latitude": 27.86655,
    "longitude": 74.86019
  },
  {
    "name": "shekasur",
    "cc2": "24",
    "latitude": 27.28841,
    "longitude": 72.21541
  },
  {
    "name": "shyampura",
    "cc2": "24",
    "latitude": 26.14602,
    "longitude": 76.51239
  },
  {
    "name": "shampura",
    "cc2": "24",
    "latitude": 25.2598,
    "longitude": 75.27262
  },
  {
    "name": "shampur",
    "cc2": "24",
    "latitude": 26.3577,
    "longitude": 77.15254
  },
  {
    "name": "shambhugarh",
    "cc2": "24",
    "latitude": 25.81329,
    "longitude": 74.4215
  },
  {
    "name": "shaitrawa",
    "cc2": "24",
    "latitude": 26.61667,
    "longitude": 72.33333
  },
  {
    "name": "shahpura",
    "cc2": "24",
    "latitude": 27.3912,
    "longitude": 75.95956
  },
  {
    "name": "shahpura",
    "cc2": "24",
    "latitude": 25.62094,
    "longitude": 74.92487
  },
  {
    "name": "shahjahanpur",
    "cc2": "24",
    "latitude": 27.99736,
    "longitude": 76.44914
  },
  {
    "name": "shahgarh",
    "cc2": "24",
    "latitude": 27.12059,
    "longitude": 69.89771
  },
  {
    "name": "shahbad",
    "cc2": "24",
    "latitude": 27.9241,
    "longitude": 76.80734
  },
  {
    "name": "shahbad",
    "cc2": "24",
    "latitude": 25.24909,
    "longitude": 77.15384
  },
  {
    "name": "sewari",
    "cc2": "24",
    "latitude": 25.09655,
    "longitude": 73.29857
  },
  {
    "name": "sewara",
    "cc2": "24",
    "latitude": 24.76403,
    "longitude": 72.04205
  },
  {
    "name": "sewar",
    "cc2": "24",
    "latitude": 27.18553,
    "longitude": 77.43957
  },
  {
    "name": "sewa",
    "cc2": "24",
    "latitude": 27.43889,
    "longitude": 74.67925
  },
  {
    "name": "sewa",
    "cc2": "24",
    "latitude": 26.5754,
    "longitude": 75.28235
  },
  {
    "name": "seura",
    "cc2": "24",
    "latitude": 27.53572,
    "longitude": 72.30596
  },
  {
    "name": "seruna",
    "cc2": "24",
    "latitude": 28.07916,
    "longitude": 73.72416
  },
  {
    "name": "serro ki pal",
    "cc2": "24",
    "latitude": 24.21133,
    "longitude": 73.65196
  },
  {
    "name": "seriska",
    "cc2": "24",
    "latitude": 27.39221,
    "longitude": 76.37088
  },
  {
    "name": "sepau",
    "cc2": "24",
    "latitude": 26.81611,
    "longitude": 77.74853
  },
  {
    "name": "sendra",
    "cc2": "24",
    "latitude": 26.08277,
    "longitude": 74.19499
  },
  {
    "name": "siyana",
    "cc2": "24",
    "latitude": 25.14192,
    "longitude": 72.68405
  },
  {
    "name": "semlia",
    "cc2": "24",
    "latitude": 24.48779,
    "longitude": 74.37443
  },
  {
    "name": "semli",
    "cc2": "24",
    "latitude": 27.46569,
    "longitude": 76.92771
  },
  {
    "name": "semli",
    "cc2": "24",
    "latitude": 24.34896,
    "longitude": 76.55565
  },
  {
    "name": "semad",
    "cc2": "24",
    "latitude": 24.94029,
    "longitude": 73.40768
  },
  {
    "name": "semarkhia",
    "cc2": "24",
    "latitude": 26.17414,
    "longitude": 72.40541
  },
  {
    "name": "semari",
    "cc2": "24",
    "latitude": 24.05535,
    "longitude": 73.85687
  },
  {
    "name": "silasan",
    "cc2": "24",
    "latitude": 24.85828,
    "longitude": 72.22502
  },
  {
    "name": "selwara",
    "cc2": "24",
    "latitude": 24.64733,
    "longitude": 72.59971
  },
  {
    "name": "sihot bari",
    "cc2": "24",
    "latitude": 27.55932,
    "longitude": 74.92013
  },
  {
    "name": "sedh",
    "cc2": "24",
    "latitude": 25.30035,
    "longitude": 74.29671
  },
  {
    "name": "seba",
    "cc2": "24",
    "latitude": 26.52241,
    "longitude": 76.84311
  },
  {
    "name": "sawarda",
    "cc2": "24",
    "latitude": 26.74659,
    "longitude": 75.29146
  },
  {
    "name": "sawar",
    "cc2": "24",
    "latitude": 28.76898,
    "longitude": 74.33775
  },
  {
    "name": "sawai madhopur",
    "cc2": "24",
    "latitude": 26.02301,
    "longitude": 76.34408
  },
  {
    "name": "sawa",
    "cc2": "24",
    "latitude": 24.75888,
    "longitude": 74.57992
  },
  {
    "name": "satur",
    "cc2": "24",
    "latitude": 25.47221,
    "longitude": 75.55866
  },
  {
    "name": "satola",
    "cc2": "24",
    "latitude": 24.38507,
    "longitude": 74.55842
  },
  {
    "name": "sato",
    "cc2": "24",
    "latitude": 26.25233,
    "longitude": 70.46591
  },
  {
    "name": "satjanda",
    "cc2": "24",
    "latitude": 29.40119,
    "longitude": 73.48342
  },
  {
    "name": "satiko",
    "cc2": "24",
    "latitude": 27.58742,
    "longitude": 73.10531
  },
  {
    "name": "satra",
    "cc2": "24",
    "latitude": 28.21667,
    "longitude": 74.80222
  },
  {
    "name": "satyun",
    "cc2": "24",
    "latitude": 28.56476,
    "longitude": 75.11521
  },
  {
    "name": "sathin",
    "cc2": "24",
    "latitude": 26.45562,
    "longitude": 73.57276
  },
  {
    "name": "sathana",
    "cc2": "24",
    "latitude": 25.97918,
    "longitude": 74.62657
  },
  {
    "name": "chhattangar",
    "cc2": "24",
    "latitude": 26.43327,
    "longitude": 70.57719
  },
  {
    "name": "sawar",
    "cc2": "24",
    "latitude": 25.75574,
    "longitude": 75.22292
  },
  {
    "name": "sarwan",
    "cc2": "24",
    "latitude": 24.11783,
    "longitude": 73.31186
  },
  {
    "name": "sarupsar",
    "cc2": "24",
    "latitude": 29.35673,
    "longitude": 73.70355
  },
  {
    "name": "sarunda",
    "cc2": "24",
    "latitude": 27.26253,
    "longitude": 73.27837
  },
  {
    "name": "sarthal",
    "cc2": "24",
    "latitude": 24.47613,
    "longitude": 76.61239
  },
  {
    "name": "sarra",
    "cc2": "24",
    "latitude": 24.23726,
    "longitude": 76.54467
  },
  {
    "name": "saroli",
    "cc2": "24",
    "latitude": 26.1033,
    "longitude": 76.05648
  },
  {
    "name": "sarola khurd",
    "cc2": "24",
    "latitude": 24.64244,
    "longitude": 76.41796
  },
  {
    "name": "sarola kalan",
    "cc2": "24",
    "latitude": 24.60846,
    "longitude": 76.42939
  },
  {
    "name": "sarola",
    "cc2": "24",
    "latitude": 24.6,
    "longitude": 76.41667
  },
  {
    "name": "sarli",
    "cc2": "24",
    "latitude": 25.58673,
    "longitude": 71.60436
  },
  {
    "name": "sarkari tala",
    "cc2": "24",
    "latitude": 27.70113,
    "longitude": 70.86989
  },
  {
    "name": "saripipli",
    "cc2": "24",
    "latitude": 24.21135,
    "longitude": 74.61571
  },
  {
    "name": "sirangsar",
    "cc2": "24",
    "latitude": 28.90851,
    "longitude": 74.48309
  },
  {
    "name": "sarima",
    "cc2": "24",
    "latitude": 26.47926,
    "longitude": 76.22307
  },
  {
    "name": "sareri",
    "cc2": "24",
    "latitude": 25.621,
    "longitude": 74.44364
  },
  {
    "name": "sarera",
    "cc2": "24",
    "latitude": 23.95,
    "longitude": 73.45
  },
  {
    "name": "sarari",
    "cc2": "24",
    "latitude": 27.54811,
    "longitude": 74.55351
  },
  {
    "name": "sardarshahr",
    "cc2": "24",
    "latitude": 28.44062,
    "longitude": 74.491
  },
  {
    "name": "sardarpura",
    "cc2": "24",
    "latitude": 29.51964,
    "longitude": 73.841
  },
  {
    "name": "sardargarh",
    "cc2": "24",
    "latitude": 29.37543,
    "longitude": 73.74466
  },
  {
    "name": "lawa sardargarh",
    "cc2": "24",
    "latitude": 25.23922,
    "longitude": 73.98915
  },
  {
    "name": "sarwari purohitan",
    "cc2": "24",
    "latitude": 26.00621,
    "longitude": 72.48061
  },
  {
    "name": "sarangsar",
    "cc2": "24",
    "latitude": 28.51667,
    "longitude": 72.6
  },
  {
    "name": "sirana",
    "cc2": "24",
    "latitude": 25.41924,
    "longitude": 72.05388
  },
  {
    "name": "saran",
    "cc2": "24",
    "latitude": 25.70973,
    "longitude": 73.83684
  },
  {
    "name": "saradhna",
    "cc2": "24",
    "latitude": 26.34389,
    "longitude": 74.57642
  },
  {
    "name": "sara",
    "cc2": "24",
    "latitude": 24.25776,
    "longitude": 73.13325
  },
  {
    "name": "sapria",
    "cc2": "24",
    "latitude": 23.15296,
    "longitude": 74.4985
  },
  {
    "name": "sapotra",
    "cc2": "24",
    "latitude": 26.2928,
    "longitude": 76.7522
  },
  {
    "name": "sanwrad",
    "cc2": "24",
    "latitude": 27.51648,
    "longitude": 74.4948
  },
  {
    "name": "sanwara",
    "cc2": "24",
    "latitude": 24.72494,
    "longitude": 72.68906
  },
  {
    "name": "sanu",
    "cc2": "24",
    "latitude": 27.24328,
    "longitude": 70.65142
  },
  {
    "name": "sanpla",
    "cc2": "24",
    "latitude": 25.91284,
    "longitude": 75.00442
  },
  {
    "name": "sankhwali",
    "cc2": "24",
    "latitude": 25.46598,
    "longitude": 72.88164
  },
  {
    "name": "sankra",
    "cc2": "24",
    "latitude": 26.73305,
    "longitude": 71.58395
  },
  {
    "name": "sankhwas",
    "cc2": "24",
    "latitude": 26.92416,
    "longitude": 73.67829
  },
  {
    "name": "sankhu",
    "cc2": "24",
    "latitude": 28.4305,
    "longitude": 75.34693
  },
  {
    "name": "sanju",
    "cc2": "24",
    "latitude": 27.00766,
    "longitude": 74.16392
  },
  {
    "name": "sangod",
    "cc2": "24",
    "latitude": 24.92707,
    "longitude": 76.28649
  },
  {
    "name": "sangesra",
    "cc2": "24",
    "latitude": 24.68483,
    "longitude": 74.28881
  },
  {
    "name": "sangaria",
    "cc2": "24",
    "latitude": 29.79886,
    "longitude": 74.46683
  },
  {
    "name": "sanganer",
    "cc2": "24",
    "latitude": 26.8122,
    "longitude": 75.78309
  },
  {
    "name": "saganer",
    "cc2": "24",
    "latitude": 25.37441,
    "longitude": 74.66877
  },
  {
    "name": "sanet",
    "cc2": "24",
    "latitude": 26.66791,
    "longitude": 76.95797
  },
  {
    "name": "sandwa",
    "cc2": "24",
    "latitude": 27.75249,
    "longitude": 74.16842
  },
  {
    "name": "sandkotra",
    "cc2": "24",
    "latitude": 27.07312,
    "longitude": 76.17102
  },
  {
    "name": "sanderao",
    "cc2": "24",
    "latitude": 25.30316,
    "longitude": 73.17372
  },
  {
    "name": "sanchor",
    "cc2": "24",
    "latitude": 24.75361,
    "longitude": 71.7728
  },
  {
    "name": "sanawra",
    "cc2": "24",
    "latitude": 26.8494,
    "longitude": 71.57708
  },
  {
    "name": "samuja",
    "cc2": "24",
    "latitude": 25.84248,
    "longitude": 72.82735
  },
  {
    "name": "samrau",
    "cc2": "24",
    "latitude": 26.82657,
    "longitude": 72.62541
  },
  {
    "name": "sampura",
    "cc2": "24",
    "latitude": 27.76667,
    "longitude": 76.01667
  },
  {
    "name": "samod",
    "cc2": "24",
    "latitude": 27.20209,
    "longitude": 75.81042
  },
  {
    "name": "samesra",
    "cc2": "24",
    "latitude": 25.82715,
    "longitude": 71.90836
  },
  {
    "name": "samdari",
    "cc2": "24",
    "latitude": 25.81299,
    "longitude": 72.57879
  },
  {
    "name": "samda",
    "cc2": "24",
    "latitude": 27.81476,
    "longitude": 76.42267
  },
  {
    "name": "sambhar",
    "cc2": "24",
    "latitude": 26.90806,
    "longitude": 75.19137
  },
  {
    "name": "samantri",
    "cc2": "24",
    "latitude": 25.30744,
    "longitude": 73.67652
  },
  {
    "name": "samelia",
    "cc2": "24",
    "latitude": 25.73448,
    "longitude": 74.16572
  },
  {
    "name": "sam",
    "cc2": "24",
    "latitude": 26.8287,
    "longitude": 70.50556
  },
  {
    "name": "salwa khurd",
    "cc2": "24",
    "latitude": 26.45502,
    "longitude": 73.44572
  },
  {
    "name": "salumbar",
    "cc2": "24",
    "latitude": 24.13524,
    "longitude": 74.04442
  },
  {
    "name": "sallopat",
    "cc2": "24",
    "latitude": 23.18155,
    "longitude": 74.16441
  },
  {
    "name": "salimgarh",
    "cc2": "24",
    "latitude": 23.69994,
    "longitude": 74.77531
  },
  {
    "name": "salemabad",
    "cc2": "24",
    "latitude": 26.71705,
    "longitude": 74.79556
  },
  {
    "name": "salawas",
    "cc2": "24",
    "latitude": 26.1236,
    "longitude": 72.98269
  },
  {
    "name": "salasar",
    "cc2": "24",
    "latitude": 27.72502,
    "longitude": 74.72367
  },
  {
    "name": "salara",
    "cc2": "24",
    "latitude": 24.18633,
    "longitude": 73.91559
  },
  {
    "name": "islampur",
    "cc2": "24",
    "latitude": 28.15014,
    "longitude": 75.53987
  },
  {
    "name": "saladipura",
    "cc2": "24",
    "latitude": 27.65,
    "longitude": 75.01667
  },
  {
    "name": "sikrai",
    "cc2": "24",
    "latitude": 26.91763,
    "longitude": 76.69161
  },
  {
    "name": "sankhna",
    "cc2": "24",
    "latitude": 25.96691,
    "longitude": 75.73901
  },
  {
    "name": "sakna",
    "cc2": "24",
    "latitude": 25.45847,
    "longitude": 74.97585
  },
  {
    "name": "sakhun",
    "cc2": "24",
    "latitude": 26.70464,
    "longitude": 75.0969
  },
  {
    "name": "sakhi",
    "cc2": "24",
    "latitude": 28.96065,
    "longitude": 72.87658
  },
  {
    "name": "sakargarh",
    "cc2": "24",
    "latitude": 25.45954,
    "longitude": 75.32156
  },
  {
    "name": "sayra",
    "cc2": "24",
    "latitude": 24.98283,
    "longitude": 73.41806
  },
  {
    "name": "sahawa",
    "cc2": "24",
    "latitude": 28.87328,
    "longitude": 74.84777
  },
  {
    "name": "sainthal",
    "cc2": "24",
    "latitude": 27.03614,
    "longitude": 76.29617
  },
  {
    "name": "saila",
    "cc2": "24",
    "latitude": 25.3244,
    "longitude": 72.36394
  },
  {
    "name": "purana sohajrasar",
    "cc2": "24",
    "latitude": 28.34367,
    "longitude": 73.75973
  },
  {
    "name": "sahara",
    "cc2": "24",
    "latitude": 25.18997,
    "longitude": 74.24083
  },
  {
    "name": "shahar",
    "cc2": "24",
    "latitude": 26.60776,
    "longitude": 76.72818
  },
  {
    "name": "sagwara",
    "cc2": "24",
    "latitude": 23.67951,
    "longitude": 74.02013
  },
  {
    "name": "sagthali",
    "cc2": "24",
    "latitude": 23.82034,
    "longitude": 74.80649
  },
  {
    "name": "saerakhera",
    "cc2": "24",
    "latitude": 25.06667,
    "longitude": 73.7
  },
  {
    "name": "sadri",
    "cc2": "24",
    "latitude": 25.18555,
    "longitude": 73.45288
  },
  {
    "name": "sadri",
    "cc2": "24",
    "latitude": 25.00551,
    "longitude": 74.06518
  },
  {
    "name": "sadolai",
    "cc2": "24",
    "latitude": 28.61723,
    "longitude": 73.26835
  },
  {
    "name": "sadhu ki dhani",
    "cc2": "24",
    "latitude": 25.48333,
    "longitude": 72.01667
  },
  {
    "name": "sadhan",
    "cc2": "24",
    "latitude": 27.48429,
    "longitude": 70.69347
  },
  {
    "name": "sadasar",
    "cc2": "24",
    "latitude": 27.79535,
    "longitude": 73.77694
  },
  {
    "name": "sachu",
    "cc2": "24",
    "latitude": 28.22081,
    "longitude": 72.03059
  },
  {
    "name": "sahabsar",
    "cc2": "24",
    "latitude": 28.04141,
    "longitude": 74.86434
  },
  {
    "name": "sabora",
    "cc2": "24",
    "latitude": 27.32504,
    "longitude": 77.24956
  },
  {
    "name": "sabli",
    "cc2": "24",
    "latitude": 23.86666,
    "longitude": 73.57475
  },
  {
    "name": "sabla",
    "cc2": "24",
    "latitude": 23.84667,
    "longitude": 74.17763
  },
  {
    "name": "rupangarh",
    "cc2": "24",
    "latitude": 26.79612,
    "longitude": 74.85157
  },
  {
    "name": "rupbas",
    "cc2": "24",
    "latitude": 26.9928,
    "longitude": 77.59218
  },
  {
    "name": "rupawas",
    "cc2": "24",
    "latitude": 26.01107,
    "longitude": 73.58333
  },
  {
    "name": "rupawali",
    "cc2": "24",
    "latitude": 26.30429,
    "longitude": 75.28758
  },
  {
    "name": "rupaliya",
    "cc2": "24",
    "latitude": 25.18551,
    "longitude": 74.74067
  },
  {
    "name": "rupaheli",
    "cc2": "24",
    "latitude": 25.7881,
    "longitude": 74.64311
  },
  {
    "name": "rupa",
    "cc2": "24",
    "latitude": 25.56542,
    "longitude": 75.10989
  },
  {
    "name": "run",
    "cc2": "24",
    "latitude": 26.84298,
    "longitude": 73.79307
  },
  {
    "name": "rudawal",
    "cc2": "24",
    "latitude": 26.96494,
    "longitude": 77.42441
  },
  {
    "name": "rudaur",
    "cc2": "24",
    "latitude": 26.60897,
    "longitude": 77.01389
  },
  {
    "name": "rud",
    "cc2": "24",
    "latitude": 25.04907,
    "longitude": 74.47056
  },
  {
    "name": "rosia",
    "cc2": "24",
    "latitude": 25.96667,
    "longitude": 72.81667
  },
  {
    "name": "roshan",
    "cc2": "24",
    "latitude": 27.95,
    "longitude": 74.85
  },
  {
    "name": "rorawad",
    "cc2": "24",
    "latitude": 25.99778,
    "longitude": 76.75407
  },
  {
    "name": "rora",
    "cc2": "24",
    "latitude": 27.54244,
    "longitude": 73.44907
  },
  {
    "name": "rohal",
    "cc2": "24",
    "latitude": 28.04442,
    "longitude": 74.8671
  },
  {
    "name": "rol",
    "cc2": "24",
    "latitude": 27.16496,
    "longitude": 73.92812
  },
  {
    "name": "rojri",
    "cc2": "24",
    "latitude": 28.806,
    "longitude": 73.07423
  },
  {
    "name": "rohla",
    "cc2": "24",
    "latitude": 25.32516,
    "longitude": 71.49082
  },
  {
    "name": "rohini",
    "cc2": "24",
    "latitude": 27.45274,
    "longitude": 73.71716
  },
  {
    "name": "rohina",
    "cc2": "24",
    "latitude": 27.10181,
    "longitude": 74.16778
  },
  {
    "name": "rohera",
    "cc2": "24",
    "latitude": 24.61237,
    "longitude": 72.96081
  },
  {
    "name": "rohat",
    "cc2": "24",
    "latitude": 25.95503,
    "longitude": 73.13315
  },
  {
    "name": "rodhain",
    "cc2": "24",
    "latitude": 26.24889,
    "longitude": 77.14977
  },
  {
    "name": "rivri",
    "cc2": "24",
    "latitude": 26.45368,
    "longitude": 71.11023
  },
  {
    "name": "riri",
    "cc2": "24",
    "latitude": 27.94356,
    "longitude": 74.09818
  },
  {
    "name": "rir",
    "cc2": "24",
    "latitude": 26.70117,
    "longitude": 74.53856
  },
  {
    "name": "reengus",
    "cc2": "24",
    "latitude": 27.3636,
    "longitude": 75.56838
  },
  {
    "name": "rilmilsar",
    "cc2": "24",
    "latitude": 29.56406,
    "longitude": 73.73083
  },
  {
    "name": "richwa",
    "cc2": "24",
    "latitude": 24.46667,
    "longitude": 76.23333
  },
  {
    "name": "rian",
    "cc2": "24",
    "latitude": 26.54041,
    "longitude": 74.23961
  },
  {
    "name": "rian",
    "cc2": "24",
    "latitude": 26.38598,
    "longitude": 73.49395
  },
  {
    "name": "rewasa",
    "cc2": "24",
    "latitude": 27.53308,
    "longitude": 75.22595
  },
  {
    "name": "rewas deora",
    "cc2": "24",
    "latitude": 24.10366,
    "longitude": 74.94409
  },
  {
    "name": "retwala",
    "cc2": "24",
    "latitude": 29.75883,
    "longitude": 73.73526
  },
  {
    "name": "retana",
    "cc2": "24",
    "latitude": 28.54025,
    "longitude": 74.79054
  },
  {
    "name": "rerwas",
    "cc2": "24",
    "latitude": 25.33913,
    "longitude": 74.8941
  },
  {
    "name": "reodhar",
    "cc2": "24",
    "latitude": 24.6197,
    "longitude": 72.5262
  },
  {
    "name": "renwal",
    "cc2": "24",
    "latitude": 26.69738,
    "longitude": 75.67511
  },
  {
    "name": "reni",
    "cc2": "24",
    "latitude": 27.16579,
    "longitude": 76.7379
  },
  {
    "name": "ren",
    "cc2": "24",
    "latitude": 26.78176,
    "longitude": 74.08821
  },
  {
    "name": "relmangra",
    "cc2": "24",
    "latitude": 25.02168,
    "longitude": 74.113
  },
  {
    "name": "relawan",
    "cc2": "24",
    "latitude": 25.25,
    "longitude": 76.66667
  },
  {
    "name": "rel",
    "cc2": "24",
    "latitude": 25.12362,
    "longitude": 76.12351
  },
  {
    "name": "rendari",
    "cc2": "24",
    "latitude": 25.9513,
    "longitude": 72.98947
  },
  {
    "name": "redi",
    "cc2": "24",
    "latitude": 28.751,
    "longitude": 74.86658
  },
  {
    "name": "redana",
    "cc2": "24",
    "latitude": 25.84788,
    "longitude": 70.94246
  },
  {
    "name": "rawatsar",
    "cc2": "24",
    "latitude": 29.26724,
    "longitude": 74.40288
  },
  {
    "name": "rawatbhata",
    "cc2": "24",
    "latitude": 24.92981,
    "longitude": 75.59209
  },
  {
    "name": "rawar",
    "cc2": "24",
    "latitude": 26.20381,
    "longitude": 73.48634
  },
  {
    "name": "rautha",
    "cc2": "24",
    "latitude": 24.88333,
    "longitude": 75.91667
  },
  {
    "name": "raulia",
    "cc2": "24",
    "latitude": 24.81572,
    "longitude": 73.52676
  },
  {
    "name": "ratusar",
    "cc2": "24",
    "latitude": 28.77861,
    "longitude": 74.57717
  },
  {
    "name": "rattasar",
    "cc2": "24",
    "latitude": 25.50449,
    "longitude": 70.87091
  },
  {
    "name": "ratariya",
    "cc2": "24",
    "latitude": 26.61224,
    "longitude": 72.03382
  },
  {
    "name": "ratlai",
    "cc2": "24",
    "latitude": 24.37471,
    "longitude": 76.31177
  },
  {
    "name": "ratholi",
    "cc2": "24",
    "latitude": 24.8,
    "longitude": 75.55
  },
  {
    "name": "rathkuriya",
    "cc2": "24",
    "latitude": 26.54803,
    "longitude": 73.56249
  },
  {
    "name": "rateu",
    "cc2": "24",
    "latitude": 26.26314,
    "longitude": 71.72624
  },
  {
    "name": "ratangarh",
    "cc2": "24",
    "latitude": 28.08137,
    "longitude": 74.61854
  },
  {
    "name": "rasmi",
    "cc2": "24",
    "latitude": 25.07386,
    "longitude": 74.37392
  },
  {
    "name": "rasliani",
    "cc2": "24",
    "latitude": 25.93175,
    "longitude": 70.43468
  },
  {
    "name": "rasla",
    "cc2": "24",
    "latitude": 26.71738,
    "longitude": 71.33616
  },
  {
    "name": "ras",
    "cc2": "24",
    "latitude": 26.30577,
    "longitude": 74.19525
  },
  {
    "name": "ransigaon",
    "cc2": "24",
    "latitude": 26.35902,
    "longitude": 73.75249
  },
  {
    "name": "ranpura",
    "cc2": "24",
    "latitude": 25.03844,
    "longitude": 75.82913
  },
  {
    "name": "ranjitpura",
    "cc2": "24",
    "latitude": 28.01727,
    "longitude": 72.12458
  },
  {
    "name": "raniwara",
    "cc2": "24",
    "latitude": 24.74901,
    "longitude": 72.20507
  },
  {
    "name": "ranisar",
    "cc2": "24",
    "latitude": 28.95209,
    "longitude": 74.60872
  },
  {
    "name": "ranipura",
    "cc2": "24",
    "latitude": 25.63479,
    "longitude": 75.72829
  },
  {
    "name": "ranigaon",
    "cc2": "24",
    "latitude": 27.09097,
    "longitude": 74.42854
  },
  {
    "name": "rani",
    "cc2": "24",
    "latitude": 25.35031,
    "longitude": 73.30885
  },
  {
    "name": "raner",
    "cc2": "24",
    "latitude": 28.88396,
    "longitude": 73.28633
  },
  {
    "name": "randisar",
    "cc2": "24",
    "latitude": 28.12423,
    "longitude": 72.89392
  },
  {
    "name": "ranawas",
    "cc2": "24",
    "latitude": 25.66306,
    "longitude": 73.72693
  },
  {
    "name": "ranawala",
    "cc2": "24",
    "latitude": 28.58779,
    "longitude": 72.89959
  },
  {
    "name": "ranasar",
    "cc2": "24",
    "latitude": 25.85,
    "longitude": 70.71667
  },
  {
    "name": "rana pratap sagar",
    "cc2": "24",
    "latitude": 24.95,
    "longitude": 75.63333
  },
  {
    "name": "ranau",
    "cc2": "24",
    "latitude": 27.65445,
    "longitude": 70.45977
  },
  {
    "name": "ramsaratal",
    "cc2": "24",
    "latitude": 28.9255,
    "longitude": 75.3987
  },
  {
    "name": "ramsinghpura",
    "cc2": "24",
    "latitude": 27.1799,
    "longitude": 76.47163
  },
  {
    "name": "ramsia",
    "cc2": "24",
    "latitude": 27.03913,
    "longitude": 74.47917
  },
  {
    "name": "ramsin",
    "cc2": "24",
    "latitude": 25.00511,
    "longitude": 72.54713
  },
  {
    "name": "ramsar",
    "cc2": "24",
    "latitude": 27.87323,
    "longitude": 73.57869
  },
  {
    "name": "ramsar",
    "cc2": "24",
    "latitude": 26.28264,
    "longitude": 74.87849
  },
  {
    "name": "ramrawas kalan",
    "cc2": "24",
    "latitude": 26.36981,
    "longitude": 73.38871
  },
  {
    "name": "ramra",
    "cc2": "24",
    "latitude": 28.36394,
    "longitude": 72.66174
  },
  {
    "name": "rampura",
    "cc2": "24",
    "latitude": 29.39289,
    "longitude": 73.95495
  },
  {
    "name": "rampura",
    "cc2": "24",
    "latitude": 28.98404,
    "longitude": 73.72701
  },
  {
    "name": "rampura",
    "cc2": "24",
    "latitude": 28.51905,
    "longitude": 75.64239
  },
  {
    "name": "rampuriya",
    "cc2": "24",
    "latitude": 25.46459,
    "longitude": 74.24471
  },
  {
    "name": "rampur",
    "cc2": "24",
    "latitude": 27.63232,
    "longitude": 76.41573
  },
  {
    "name": "rampur",
    "cc2": "24",
    "latitude": 23.88381,
    "longitude": 73.66626
  },
  {
    "name": "ramnagar",
    "cc2": "24",
    "latitude": 29.90919,
    "longitude": 73.84886
  },
  {
    "name": "ramliali",
    "cc2": "24",
    "latitude": 28.3604,
    "longitude": 73.51987
  },
  {
    "name": "raimalwara",
    "cc2": "24",
    "latitude": 26.89214,
    "longitude": 73.0062
  },
  {
    "name": "ramgarh",
    "cc2": "24",
    "latitude": 28.17096,
    "longitude": 74.97973
  },
  {
    "name": "ramgarh",
    "cc2": "24",
    "latitude": 27.58682,
    "longitude": 76.81354
  },
  {
    "name": "ramgarh",
    "cc2": "24",
    "latitude": 27.37311,
    "longitude": 70.49796
  },
  {
    "name": "ramgarh",
    "cc2": "24",
    "latitude": 27.25097,
    "longitude": 75.17893
  },
  {
    "name": "ramgarh",
    "cc2": "24",
    "latitude": 26.62262,
    "longitude": 76.26024
  },
  {
    "name": "ramgarh",
    "cc2": "24",
    "latitude": 25.97274,
    "longitude": 74.45265
  },
  {
    "name": "ramgarh",
    "cc2": "24",
    "latitude": 25.31667,
    "longitude": 76.6
  },
  {
    "name": "ramghar",
    "cc2": "24",
    "latitude": 23.92647,
    "longitude": 73.95849
  },
  {
    "name": "ramganj mandi",
    "cc2": "24",
    "latitude": 24.64648,
    "longitude": 75.94325
  },
  {
    "name": "rameshwarghat",
    "cc2": "24",
    "latitude": 25.90381,
    "longitude": 76.73797
  },
  {
    "name": "ramdeora",
    "cc2": "24",
    "latitude": 27.00944,
    "longitude": 71.92261
  },
  {
    "name": "ramderia",
    "cc2": "24",
    "latitude": 25.53681,
    "longitude": 71.35165
  },
  {
    "name": "rama",
    "cc2": "24",
    "latitude": 26.5498,
    "longitude": 71.04071
  },
  {
    "name": "rama",
    "cc2": "24",
    "latitude": 25.65531,
    "longitude": 72.83523
  },
  {
    "name": "rama",
    "cc2": "24",
    "latitude": 24.73015,
    "longitude": 73.68629
  },
  {
    "name": "rakhi",
    "cc2": "24",
    "latitude": 25.68138,
    "longitude": 72.59127
  },
  {
    "name": "rakhabh dev",
    "cc2": "24",
    "latitude": 24.07564,
    "longitude": 73.69304
  },
  {
    "name": "rajsamand",
    "cc2": "24",
    "latitude": 25.07145,
    "longitude": 73.8798
  },
  {
    "name": "rajral",
    "cc2": "24",
    "latitude": 26.3484,
    "longitude": 71.23914
  },
  {
    "name": "rajpura",
    "cc2": "24",
    "latitude": 28.53707,
    "longitude": 75.14064
  },
  {
    "name": "rajpura",
    "cc2": "24",
    "latitude": 25.45,
    "longitude": 76.58333
  },
  {
    "name": "rajpura",
    "cc2": "24",
    "latitude": 24.97547,
    "longitude": 74.12878
  },
  {
    "name": "rajod",
    "cc2": "24",
    "latitude": 26.84375,
    "longitude": 74.00682
  },
  {
    "name": "rajnagar",
    "cc2": "24",
    "latitude": 25.06584,
    "longitude": 73.87236
  },
  {
    "name": "rajmahal",
    "cc2": "24",
    "latitude": 25.89217,
    "longitude": 75.46581
  },
  {
    "name": "rajiyasar",
    "cc2": "24",
    "latitude": 29.03723,
    "longitude": 73.86386
  },
  {
    "name": "rajgarh",
    "cc2": "24",
    "latitude": 28.64201,
    "longitude": 75.38612
  },
  {
    "name": "rajgarh",
    "cc2": "24",
    "latitude": 27.23731,
    "longitude": 76.62243
  },
  {
    "name": "rajgarh",
    "cc2": "24",
    "latitude": 26.30189,
    "longitude": 74.61981
  },
  {
    "name": "rajwas",
    "cc2": "24",
    "latitude": 28.56421,
    "longitude": 74.72485
  },
  {
    "name": "rajasar pawaran",
    "cc2": "24",
    "latitude": 28.61932,
    "longitude": 74.22962
  },
  {
    "name": "rajasar",
    "cc2": "24",
    "latitude": 28.53741,
    "longitude": 73.98836
  },
  {
    "name": "rajamathai",
    "cc2": "24",
    "latitude": 26.51755,
    "longitude": 71.71241
  },
  {
    "name": "rajaldesar",
    "cc2": "24",
    "latitude": 28.02849,
    "longitude": 74.47442
  },
  {
    "name": "rajakhera",
    "cc2": "24",
    "latitude": 26.89802,
    "longitude": 78.171
  },
  {
    "name": "rethoda",
    "cc2": "24",
    "latitude": 25.74319,
    "longitude": 75.98505
  },
  {
    "name": "raisinghnagar",
    "cc2": "24",
    "latitude": 29.53583,
    "longitude": 73.44917
  },
  {
    "name": "raisar",
    "cc2": "24",
    "latitude": 27.15275,
    "longitude": 76.11885
  },
  {
    "name": "raipur",
    "cc2": "24",
    "latitude": 27.73978,
    "longitude": 75.95905
  },
  {
    "name": "raipur",
    "cc2": "24",
    "latitude": 26.04259,
    "longitude": 74.02373
  },
  {
    "name": "raipur",
    "cc2": "24",
    "latitude": 25.40095,
    "longitude": 74.16086
  },
  {
    "name": "raipur",
    "cc2": "24",
    "latitude": 24.36346,
    "longitude": 76.18394
  },
  {
    "name": "raila",
    "cc2": "24",
    "latitude": 25.63391,
    "longitude": 74.61326
  },
  {
    "name": "raikaon ki dhani",
    "cc2": "24",
    "latitude": 25.94934,
    "longitude": 73.10224
  },
  {
    "name": "rahlana",
    "cc2": "24",
    "latitude": 26.58457,
    "longitude": 75.12221
  },
  {
    "name": "rahuwas",
    "cc2": "24",
    "latitude": 26.70002,
    "longitude": 76.33495
  },
  {
    "name": "raghunathpura",
    "cc2": "24",
    "latitude": 29.21391,
    "longitude": 73.60054
  },
  {
    "name": "raghunathpura",
    "cc2": "24",
    "latitude": 25.63544,
    "longitude": 74.25841
  },
  {
    "name": "raghunathgarh",
    "cc2": "24",
    "latitude": 27.65941,
    "longitude": 75.34342
  },
  {
    "name": "rabasar",
    "cc2": "24",
    "latitude": 25.23082,
    "longitude": 71.00816
  },
  {
    "name": "qasba ao",
    "cc2": "24",
    "latitude": 27.43148,
    "longitude": 77.34634
  },
  {
    "name": "pushkar",
    "cc2": "24",
    "latitude": 26.49022,
    "longitude": 74.55211
  },
  {
    "name": "pur",
    "cc2": "24",
    "latitude": 25.29798,
    "longitude": 74.54368
  },
  {
    "name": "punrasar",
    "cc2": "24",
    "latitude": 28.20949,
    "longitude": 73.78871
  },
  {
    "name": "punjasar",
    "cc2": "24",
    "latitude": 25.131,
    "longitude": 71.04207
  },
  {
    "name": "punawas",
    "cc2": "24",
    "latitude": 25.27372,
    "longitude": 72.17303
  },
  {
    "name": "punasar",
    "cc2": "24",
    "latitude": 27.07324,
    "longitude": 73.0881
  },
  {
    "name": "punasa",
    "cc2": "24",
    "latitude": 24.99979,
    "longitude": 72.0513
  },
  {
    "name": "pahuna",
    "cc2": "24",
    "latitude": 25.13426,
    "longitude": 74.43438
  },
  {
    "name": "pulasar",
    "cc2": "24",
    "latitude": 28.40866,
    "longitude": 74.61002
  },
  {
    "name": "pugal",
    "cc2": "24",
    "latitude": 28.50921,
    "longitude": 72.80864
  },
  {
    "name": "pratapgarh",
    "cc2": "24",
    "latitude": 27.24902,
    "longitude": 76.16435
  },
  {
    "name": "pratapgarh",
    "cc2": "24",
    "latitude": 24.03215,
    "longitude": 74.78162
  },
  {
    "name": "pranhera",
    "cc2": "24",
    "latitude": 25.894,
    "longitude": 75.07369
  },
  {
    "name": "pragpura",
    "cc2": "24",
    "latitude": 27.60636,
    "longitude": 76.08921
  },
  {
    "name": "potlan",
    "cc2": "24",
    "latitude": 25.13615,
    "longitude": 74.21006
  },
  {
    "name": "pundlu",
    "cc2": "24",
    "latitude": 26.54736,
    "longitude": 73.81488
  },
  {
    "name": "pokaran",
    "cc2": "24",
    "latitude": 26.92007,
    "longitude": 71.91631
  },
  {
    "name": "pithorai",
    "cc2": "24",
    "latitude": 26.73542,
    "longitude": 70.94311
  },
  {
    "name": "pisangan",
    "cc2": "24",
    "latitude": 26.39179,
    "longitude": 74.37916
  },
  {
    "name": "pirawa",
    "cc2": "24",
    "latitude": 24.15506,
    "longitude": 76.02728
  },
  {
    "name": "piplu",
    "cc2": "24",
    "latitude": 26.29928,
    "longitude": 75.71351
  },
  {
    "name": "piplod",
    "cc2": "24",
    "latitude": 25.55144,
    "longitude": 75.27443
  },
  {
    "name": "piplia",
    "cc2": "24",
    "latitude": 24.09347,
    "longitude": 74.52138
  },
  {
    "name": "pipli",
    "cc2": "24",
    "latitude": 25.93976,
    "longitude": 72.77148
  },
  {
    "name": "pipali",
    "cc2": "24",
    "latitude": 24.98243,
    "longitude": 74.00394
  },
  {
    "name": "piplai",
    "cc2": "24",
    "latitude": 26.50099,
    "longitude": 76.54069
  },
  {
    "name": "pipasar",
    "cc2": "24",
    "latitude": 27.54067,
    "longitude": 73.67083
  },
  {
    "name": "pipar road",
    "cc2": "24",
    "latitude": 26.45223,
    "longitude": 73.44693
  },
  {
    "name": "pipar",
    "cc2": "24",
    "latitude": 26.38441,
    "longitude": 73.54394
  },
  {
    "name": "pipalwara",
    "cc2": "24",
    "latitude": 26.23475,
    "longitude": 76.21339
  },
  {
    "name": "pipalwara",
    "cc2": "24",
    "latitude": 24.16933,
    "longitude": 73.45977
  },
  {
    "name": "pipalkunt",
    "cc2": "24",
    "latitude": 23.80681,
    "longitude": 74.56147
  },
  {
    "name": "pipalda kalan",
    "cc2": "24",
    "latitude": 25.55531,
    "longitude": 76.45959
  },
  {
    "name": "pipalda",
    "cc2": "24",
    "latitude": 26.39514,
    "longitude": 76.34192
  },
  {
    "name": "pindwara",
    "cc2": "24",
    "latitude": 24.79749,
    "longitude": 73.05505
  },
  {
    "name": "pilwa",
    "cc2": "24",
    "latitude": 26.84865,
    "longitude": 72.43782
  },
  {
    "name": "pilwa",
    "cc2": "24",
    "latitude": 26.69388,
    "longitude": 74.62403
  },
  {
    "name": "pilibangan",
    "cc2": "24",
    "latitude": 29.44964,
    "longitude": 74.10093
  },
  {
    "name": "pilauda",
    "cc2": "24",
    "latitude": 26.59543,
    "longitude": 76.83725
  },
  {
    "name": "pilap",
    "cc2": "24",
    "latitude": 27.96799,
    "longitude": 72.90431
  },
  {
    "name": "pilani",
    "cc2": "24",
    "latitude": 28.36725,
    "longitude": 75.60352
  },
  {
    "name": "pi",
    "cc2": "24",
    "latitude": 26.61988,
    "longitude": 74.52071
  },
  {
    "name": "phulsar",
    "cc2": "24",
    "latitude": 28.85048,
    "longitude": 72.96601
  },
  {
    "name": "phulia",
    "cc2": "24",
    "latitude": 25.81657,
    "longitude": 74.96364
  },
  {
    "name": "phulera",
    "cc2": "24",
    "latitude": 26.87401,
    "longitude": 75.24171
  },
  {
    "name": "phulbaroda",
    "cc2": "24",
    "latitude": 24.76572,
    "longitude": 76.76047
  },
  {
    "name": "phulan",
    "cc2": "24",
    "latitude": 28.97742,
    "longitude": 73.18104
  },
  {
    "name": "phinch",
    "cc2": "24",
    "latitude": 26.02461,
    "longitude": 72.90386
  },
  {
    "name": "pharrod",
    "cc2": "24",
    "latitude": 27.13472,
    "longitude": 74.06588
  },
  {
    "name": "pharod",
    "cc2": "24",
    "latitude": 27.09857,
    "longitude": 73.72089
  },
  {
    "name": "phalsund",
    "cc2": "24",
    "latitude": 26.39556,
    "longitude": 71.92268
  },
  {
    "name": "phalodi",
    "cc2": "24",
    "latitude": 27.13102,
    "longitude": 72.36826
  },
  {
    "name": "phalodi",
    "cc2": "24",
    "latitude": 26.72258,
    "longitude": 73.92012
  },
  {
    "name": "phagi",
    "cc2": "24",
    "latitude": 26.58008,
    "longitude": 75.55693
  },
  {
    "name": "pith",
    "cc2": "24",
    "latitude": 23.52629,
    "longitude": 73.76363
  },
  {
    "name": "patwa",
    "cc2": "24",
    "latitude": 26.139,
    "longitude": 73.82762
  },
  {
    "name": "patonda",
    "cc2": "24",
    "latitude": 25.28459,
    "longitude": 76.30673
  },
  {
    "name": "patoli",
    "cc2": "24",
    "latitude": 26.98135,
    "longitude": 76.81353
  },
  {
    "name": "patodi",
    "cc2": "24",
    "latitude": 26.08304,
    "longitude": 72.27414
  },
  {
    "name": "patoda",
    "cc2": "24",
    "latitude": 27.72082,
    "longitude": 74.92622
  },
  {
    "name": "patoda",
    "cc2": "24",
    "latitude": 28.15486,
    "longitude": 75.13819
  },
  {
    "name": "pathena",
    "cc2": "24",
    "latitude": 27.12595,
    "longitude": 77.02545
  },
  {
    "name": "pataunda",
    "cc2": "24",
    "latitude": 26.6898,
    "longitude": 76.97524
  },
  {
    "name": "patau",
    "cc2": "24",
    "latitude": 25.957,
    "longitude": 72.39004
  },
  {
    "name": "patan",
    "cc2": "24",
    "latitude": 27.79835,
    "longitude": 75.97498
  },
  {
    "name": "patan",
    "cc2": "24",
    "latitude": 25.91064,
    "longitude": 74.37261
  },
  {
    "name": "patamdesar",
    "cc2": "24",
    "latitude": 28.36049,
    "longitude": 74.18218
  },
  {
    "name": "parwa",
    "cc2": "24",
    "latitude": 27.70367,
    "longitude": 73.37399
  },
  {
    "name": "parvatsar",
    "cc2": "24",
    "latitude": 26.88604,
    "longitude": 74.76602
  },
  {
    "name": "partapur",
    "cc2": "24",
    "latitude": 23.59276,
    "longitude": 74.17396
  },
  {
    "name": "parsoli",
    "cc2": "24",
    "latitude": 25.10865,
    "longitude": 74.88497
  },
  {
    "name": "parsola",
    "cc2": "24",
    "latitude": 23.95167,
    "longitude": 74.38393
  },
  {
    "name": "parsad",
    "cc2": "24",
    "latitude": 24.19405,
    "longitude": 73.70949
  },
  {
    "name": "paroli",
    "cc2": "24",
    "latitude": 25.51846,
    "longitude": 75.09014
  },
  {
    "name": "parlia rajpura",
    "cc2": "24",
    "latitude": 24.46667,
    "longitude": 74.51667
  },
  {
    "name": "parihara",
    "cc2": "24",
    "latitude": 27.9298,
    "longitude": 74.55612
  },
  {
    "name": "parewra",
    "cc2": "24",
    "latitude": 27.67538,
    "longitude": 74.14961
  },
  {
    "name": "parasoli",
    "cc2": "24",
    "latitude": 25.77579,
    "longitude": 74.35246
  },
  {
    "name": "paraoli",
    "cc2": "24",
    "latitude": 24.63333,
    "longitude": 73.38333
  },
  {
    "name": "para",
    "cc2": "24",
    "latitude": 25.87824,
    "longitude": 75.18812
  },
  {
    "name": "paparda",
    "cc2": "24",
    "latitude": 26.78074,
    "longitude": 76.44123
  },
  {
    "name": "paota",
    "cc2": "24",
    "latitude": 26.95791,
    "longitude": 76.9297
  },
  {
    "name": "panwar",
    "cc2": "24",
    "latitude": 25.78137,
    "longitude": 75.44307
  },
  {
    "name": "panwar",
    "cc2": "24",
    "latitude": 24.77005,
    "longitude": 76.25664
  },
  {
    "name": "panuva",
    "cc2": "24",
    "latitude": 23.84374,
    "longitude": 73.41234
  },
  {
    "name": "pantheri",
    "cc2": "24",
    "latitude": 25.19919,
    "longitude": 72.27275
  },
  {
    "name": "panhori",
    "cc2": "24",
    "latitude": 27.44791,
    "longitude": 77.24992
  },
  {
    "name": "pandusar",
    "cc2": "24",
    "latitude": 28.8654,
    "longitude": 74.66192
  },
  {
    "name": "panchwa",
    "cc2": "24",
    "latitude": 27.21468,
    "longitude": 74.93238
  },
  {
    "name": "panchun",
    "cc2": "24",
    "latitude": 27.5009,
    "longitude": 73.20988
  },
  {
    "name": "panchori",
    "cc2": "24",
    "latitude": 27.11099,
    "longitude": 73.22752
  },
  {
    "name": "panchla sidda",
    "cc2": "24",
    "latitude": 26.98776,
    "longitude": 73.2738
  },
  {
    "name": "panchla",
    "cc2": "24",
    "latitude": 25.98333,
    "longitude": 70.16667
  },
  {
    "name": "palsana",
    "cc2": "24",
    "latitude": 27.4808,
    "longitude": 75.37849
  },
  {
    "name": "palri",
    "cc2": "24",
    "latitude": 26.76716,
    "longitude": 73.42101
  },
  {
    "name": "palri",
    "cc2": "24",
    "latitude": 26.72349,
    "longitude": 74.3236
  },
  {
    "name": "palri",
    "cc2": "24",
    "latitude": 25.01185,
    "longitude": 72.9252
  },
  {
    "name": "pallu",
    "cc2": "24",
    "latitude": 28.93284,
    "longitude": 74.20778
  },
  {
    "name": "palias",
    "cc2": "24",
    "latitude": 26.75317,
    "longitude": 74.25922
  },
  {
    "name": "pali",
    "cc2": "24",
    "latitude": 25.85174,
    "longitude": 76.55758
  },
  {
    "name": "pali",
    "cc2": "24",
    "latitude": 25.77276,
    "longitude": 73.32335
  },
  {
    "name": "palasni",
    "cc2": "24",
    "latitude": 26.20232,
    "longitude": 73.3131
  },
  {
    "name": "palasla",
    "cc2": "24",
    "latitude": 26.88372,
    "longitude": 72.89084
  },
  {
    "name": "palana",
    "cc2": "24",
    "latitude": 27.84386,
    "longitude": 73.26276
  },
  {
    "name": "palaita",
    "cc2": "24",
    "latitude": 25.14699,
    "longitude": 76.23498
  },
  {
    "name": "palai",
    "cc2": "24",
    "latitude": 26.43333,
    "longitude": 75.9
  },
  {
    "name": "palai",
    "cc2": "24",
    "latitude": 25.87716,
    "longitude": 75.94443
  },
  {
    "name": "pal",
    "cc2": "24",
    "latitude": 26.2218,
    "longitude": 72.95871
  },
  {
    "name": "pakhar",
    "cc2": "24",
    "latitude": 27.11743,
    "longitude": 76.91091
  },
  {
    "name": "paka sarnoka",
    "cc2": "24",
    "latitude": 29.68404,
    "longitude": 74.15855
  },
  {
    "name": "pahari",
    "cc2": "24",
    "latitude": 27.7106,
    "longitude": 77.08396
  },
  {
    "name": "pahari",
    "cc2": "24",
    "latitude": 26.81136,
    "longitude": 78.05539
  },
  {
    "name": "pagara",
    "cc2": "24",
    "latitude": 25.7079,
    "longitude": 75.52265
  },
  {
    "name": "padwa",
    "cc2": "24",
    "latitude": 23.75766,
    "longitude": 74.01335
  },
  {
    "name": "paduna",
    "cc2": "24",
    "latitude": 24.2829,
    "longitude": 73.67274
  },
  {
    "name": "padu khurd",
    "cc2": "24",
    "latitude": 26.59384,
    "longitude": 74.25979
  },
  {
    "name": "padu kalan",
    "cc2": "24",
    "latitude": 26.62026,
    "longitude": 74.26762
  },
  {
    "name": "padu kalan",
    "cc2": "24",
    "latitude": 26.61658,
    "longitude": 74.27741
  },
  {
    "name": "padru",
    "cc2": "24",
    "latitude": 25.50617,
    "longitude": 72.20216
  },
  {
    "name": "padrara",
    "cc2": "24",
    "latitude": 24.89921,
    "longitude": 73.4009
  },
  {
    "name": "padiv",
    "cc2": "24",
    "latitude": 24.92881,
    "longitude": 72.77356
  },
  {
    "name": "padarli",
    "cc2": "24",
    "latitude": 25.38216,
    "longitude": 72.97142
  },
  {
    "name": "padampura",
    "cc2": "24",
    "latitude": 25.15,
    "longitude": 75.06667
  },
  {
    "name": "padampur",
    "cc2": "24",
    "latitude": 29.70885,
    "longitude": 73.62539
  },
  {
    "name": "pachpadra",
    "cc2": "24",
    "latitude": 25.92295,
    "longitude": 72.25247
  },
  {
    "name": "pachhewar",
    "cc2": "24",
    "latitude": 26.47231,
    "longitude": 75.31619
  },
  {
    "name": "dhani pacheri",
    "cc2": "24",
    "latitude": 28.1524,
    "longitude": 75.92964
  },
  {
    "name": "pachar",
    "cc2": "24",
    "latitude": 26.97004,
    "longitude": 75.53687
  },
  {
    "name": "pasaliya",
    "cc2": "24",
    "latitude": 25.08411,
    "longitude": 72.98226
  },
  {
    "name": "pachala",
    "cc2": "24",
    "latitude": 25.9538,
    "longitude": 76.21634
  },
  {
    "name": "pabusar",
    "cc2": "24",
    "latitude": 27.74314,
    "longitude": 72.34378
  },
  {
    "name": "owan",
    "cc2": "24",
    "latitude": 25.4425,
    "longitude": 75.34566
  },
  {
    "name": "osian",
    "cc2": "24",
    "latitude": 26.72721,
    "longitude": 72.91017
  },
  {
    "name": "osao",
    "cc2": "24",
    "latitude": 24.2655,
    "longitude": 76.05844
  },
  {
    "name": "ogna",
    "cc2": "24",
    "latitude": 24.52231,
    "longitude": 73.36106
  },
  {
    "name": "odania",
    "cc2": "24",
    "latitude": 26.96516,
    "longitude": 71.71893
  },
  {
    "name": "nauriyala",
    "cc2": "24",
    "latitude": 26.15919,
    "longitude": 70.41227
  },
  {
    "name": "nua",
    "cc2": "24",
    "latitude": 28.04388,
    "longitude": 75.27189
  },
  {
    "name": "nauganwa",
    "cc2": "24",
    "latitude": 27.65695,
    "longitude": 76.88551
  },
  {
    "name": "nowa",
    "cc2": "24",
    "latitude": 27.55339,
    "longitude": 72.03953
  },
  {
    "name": "nosra",
    "cc2": "24",
    "latitude": 25.53919,
    "longitude": 72.78653
  },
  {
    "name": "nonera",
    "cc2": "24",
    "latitude": 25.52222,
    "longitude": 76.32113
  },
  {
    "name": "nokhra",
    "cc2": "24",
    "latitude": 27.63642,
    "longitude": 72.6467
  },
  {
    "name": "nokhra",
    "cc2": "24",
    "latitude": 25.47753,
    "longitude": 71.61895
  },
  {
    "name": "nokhamandi",
    "cc2": "24",
    "latitude": 27.55645,
    "longitude": 73.47406
  },
  {
    "name": "nokha",
    "cc2": "24",
    "latitude": 28.122,
    "longitude": 72.9685
  },
  {
    "name": "nokha",
    "cc2": "24",
    "latitude": 27.56155,
    "longitude": 73.47141
  },
  {
    "name": "nokh",
    "cc2": "24",
    "latitude": 27.56315,
    "longitude": 72.25021
  },
  {
    "name": "nokera",
    "cc2": "24",
    "latitude": 29.88913,
    "longitude": 74.37217
  },
  {
    "name": "nohar",
    "cc2": "24",
    "latitude": 29.18292,
    "longitude": 74.77064
  },
  {
    "name": "naugawan",
    "cc2": "24",
    "latitude": 23.44793,
    "longitude": 74.25934
  },
  {
    "name": "nizampur",
    "cc2": "24",
    "latitude": 29.77631,
    "longitude": 73.55221
  },
  {
    "name": "nithrana",
    "cc2": "24",
    "latitude": 29.23325,
    "longitude": 75.03425
  },
  {
    "name": "nithor",
    "cc2": "24",
    "latitude": 26.9624,
    "longitude": 77.03789
  },
  {
    "name": "nirbana",
    "cc2": "24",
    "latitude": 29.48549,
    "longitude": 73.76542
  },
  {
    "name": "neran",
    "cc2": "24",
    "latitude": 26.80207,
    "longitude": 71.47243
  },
  {
    "name": "nipaniya",
    "cc2": "24",
    "latitude": 24.61936,
    "longitude": 76.86558
  },
  {
    "name": "nipal",
    "cc2": "24",
    "latitude": 25.39797,
    "longitude": 73.52679
  },
  {
    "name": "ninor",
    "cc2": "24",
    "latitude": 23.63945,
    "longitude": 74.8714
  },
  {
    "name": "nimbri chandawatan",
    "cc2": "24",
    "latitude": 26.92626,
    "longitude": 73.9262
  },
  {
    "name": "neemrana",
    "cc2": "24",
    "latitude": 27.99193,
    "longitude": 76.38543
  },
  {
    "name": "nimora",
    "cc2": "24",
    "latitude": 26.50621,
    "longitude": 75.51531
  },
  {
    "name": "neem ka thana",
    "cc2": "24",
    "latitude": 27.73976,
    "longitude": 75.78652
  },
  {
    "name": "nim ka khera",
    "cc2": "24",
    "latitude": 25.33808,
    "longitude": 75.47932
  },
  {
    "name": "nimera",
    "cc2": "24",
    "latitude": 27.51874,
    "longitude": 75.52956
  },
  {
    "name": "nimod",
    "cc2": "24",
    "latitude": 27.24873,
    "longitude": 74.78516
  },
  {
    "name": "nimbli uda",
    "cc2": "24",
    "latitude": 25.8794,
    "longitude": 73.34358
  },
  {
    "name": "nimblana",
    "cc2": "24",
    "latitude": 25.44225,
    "longitude": 72.45629
  },
  {
    "name": "nimbi jodhan",
    "cc2": "24",
    "latitude": 27.53233,
    "longitude": 74.34336
  },
  {
    "name": "nimbavas",
    "cc2": "24",
    "latitude": 24.99637,
    "longitude": 72.15066
  },
  {
    "name": "nimbal",
    "cc2": "24",
    "latitude": 26.1,
    "longitude": 74.85
  },
  {
    "name": "nimbahera",
    "cc2": "24",
    "latitude": 24.62166,
    "longitude": 74.67999
  },
  {
    "name": "nima",
    "cc2": "24",
    "latitude": 28.46481,
    "longitude": 75.48173
  },
  {
    "name": "nimaj",
    "cc2": "24",
    "latitude": 26.14995,
    "longitude": 74.00094
  },
  {
    "name": "nivaj",
    "cc2": "24",
    "latitude": 24.73177,
    "longitude": 72.4426
  },
  {
    "name": "nilsar",
    "cc2": "24",
    "latitude": 25.44079,
    "longitude": 71.28668
  },
  {
    "name": "nilkanth",
    "cc2": "24",
    "latitude": 25.65437,
    "longitude": 72.71286
  },
  {
    "name": "nikum",
    "cc2": "24",
    "latitude": 24.56484,
    "longitude": 74.49142
  },
  {
    "name": "nihalpur",
    "cc2": "24",
    "latitude": 27.06325,
    "longitude": 76.72593
  },
  {
    "name": "nibli",
    "cc2": "24",
    "latitude": 26.17229,
    "longitude": 70.84728
  },
  {
    "name": "nechhwa",
    "cc2": "24",
    "latitude": 27.61667,
    "longitude": 74.76667
  },
  {
    "name": "nearan",
    "cc2": "24",
    "latitude": 26.17996,
    "longitude": 74.66924
  },
  {
    "name": "bara nayagaon",
    "cc2": "24",
    "latitude": 25.5021,
    "longitude": 75.52914
  },
  {
    "name": "nayagaon",
    "cc2": "24",
    "latitude": 24.56219,
    "longitude": 74.77603
  },
  {
    "name": "nawatala",
    "cc2": "24",
    "latitude": 26.22497,
    "longitude": 72.17433
  },
  {
    "name": "nawa tala",
    "cc2": "24",
    "latitude": 25.2799,
    "longitude": 71.22689
  },
  {
    "name": "nawalgarh",
    "cc2": "24",
    "latitude": 27.85161,
    "longitude": 75.27384
  },
  {
    "name": "niwai",
    "cc2": "24",
    "latitude": 26.36073,
    "longitude": 75.91836
  },
  {
    "name": "nawagaon",
    "cc2": "24",
    "latitude": 23.48719,
    "longitude": 74.42775
  },
  {
    "name": "nawa",
    "cc2": "24",
    "latitude": 27.0195,
    "longitude": 75.00226
  },
  {
    "name": "nautara",
    "cc2": "24",
    "latitude": 25.52628,
    "longitude": 76.11986
  },
  {
    "name": "naushehra",
    "cc2": "24",
    "latitude": 28.60792,
    "longitude": 72.66057
  },
  {
    "name": "nathusar",
    "cc2": "24",
    "latitude": 27.50309,
    "longitude": 73.10452
  },
  {
    "name": "nathrau",
    "cc2": "24",
    "latitude": 26.773,
    "longitude": 72.50472
  },
  {
    "name": "nathdwara",
    "cc2": "24",
    "latitude": 24.93805,
    "longitude": 73.82392
  },
  {
    "name": "natau",
    "cc2": "24",
    "latitude": 23.91667,
    "longitude": 74.28333
  },
  {
    "name": "nasuma",
    "cc2": "24",
    "latitude": 28.28421,
    "longitude": 72.38617
  },
  {
    "name": "nasrida",
    "cc2": "24",
    "latitude": 25.94566,
    "longitude": 75.36793
  },
  {
    "name": "nasirabad",
    "cc2": "24",
    "latitude": 26.30473,
    "longitude": 74.73364
  },
  {
    "name": "narwar",
    "cc2": "24",
    "latitude": 26.60981,
    "longitude": 74.69124
  },
  {
    "name": "narwa",
    "cc2": "24",
    "latitude": 26.40493,
    "longitude": 72.93578
  },
  {
    "name": "narsara",
    "cc2": "24",
    "latitude": 28.55768,
    "longitude": 74.23784
  },
  {
    "name": "narsar",
    "cc2": "24",
    "latitude": 26.68454,
    "longitude": 73.55254
  },
  {
    "name": "narsana",
    "cc2": "24",
    "latitude": 25.125,
    "longitude": 72.04121
  },
  {
    "name": "narlai",
    "cc2": "24",
    "latitude": 25.31672,
    "longitude": 73.53498
  },
  {
    "name": "narhera",
    "cc2": "24",
    "latitude": 27.72976,
    "longitude": 76.10041
  },
  {
    "name": "narayanpur",
    "cc2": "24",
    "latitude": 27.51483,
    "longitude": 76.29931
  },
  {
    "name": "narayanpur",
    "cc2": "24",
    "latitude": 26.3571,
    "longitude": 76.64208
  },
  {
    "name": "naramagra",
    "cc2": "24",
    "latitude": 24.68014,
    "longitude": 73.87923
  },
  {
    "name": "naraina",
    "cc2": "24",
    "latitude": 26.79069,
    "longitude": 75.20608
  },
  {
    "name": "napasar",
    "cc2": "24",
    "latitude": 27.96059,
    "longitude": 73.55913
  },
  {
    "name": "naorangdesar",
    "cc2": "24",
    "latitude": 28.07762,
    "longitude": 73.5458
  },
  {
    "name": "nanta",
    "cc2": "24",
    "latitude": 25.20719,
    "longitude": 75.80739
  },
  {
    "name": "nangal",
    "cc2": "24",
    "latitude": 27.35484,
    "longitude": 76.22256
  },
  {
    "name": "nandwai",
    "cc2": "24",
    "latitude": 25.00396,
    "longitude": 74.94571
  },
  {
    "name": "nandrai",
    "cc2": "24",
    "latitude": 25.33333,
    "longitude": 75.01667
  },
  {
    "name": "nandia",
    "cc2": "24",
    "latitude": 25.28489,
    "longitude": 71.96663
  },
  {
    "name": "nandauti",
    "cc2": "24",
    "latitude": 26.70702,
    "longitude": 76.71668
  },
  {
    "name": "nana",
    "cc2": "24",
    "latitude": 24.92314,
    "longitude": 73.13547
  },
  {
    "name": "namano",
    "cc2": "24",
    "latitude": 24.98935,
    "longitude": 73.90246
  },
  {
    "name": "nala",
    "cc2": "24",
    "latitude": 26.29875,
    "longitude": 75.97789
  },
  {
    "name": "nakrasar",
    "cc2": "24",
    "latitude": 28.28804,
    "longitude": 74.73438
  },
  {
    "name": "nainwa",
    "cc2": "24",
    "latitude": 25.77145,
    "longitude": 75.84978
  },
  {
    "name": "naila",
    "cc2": "24",
    "latitude": 26.92177,
    "longitude": 75.97646
  },
  {
    "name": "nai",
    "cc2": "24",
    "latitude": 24.5508,
    "longitude": 73.63652
  },
  {
    "name": "nahargarh",
    "cc2": "24",
    "latitude": 24.92328,
    "longitude": 76.84429
  },
  {
    "name": "nagrajsar",
    "cc2": "24",
    "latitude": 27.64441,
    "longitude": 72.44855
  },
  {
    "name": "nagraj",
    "cc2": "24",
    "latitude": 26.46066,
    "longitude": 70.89337
  },
  {
    "name": "nagelao",
    "cc2": "24",
    "latitude": 26.2932,
    "longitude": 74.40078
  },
  {
    "name": "nagaur",
    "cc2": "24",
    "latitude": 27.20201,
    "longitude": 73.73394
  },
  {
    "name": "mewa nagar",
    "cc2": "24",
    "latitude": 25.80086,
    "longitude": 72.15265
  },
  {
    "name": "nagar khas",
    "cc2": "24",
    "latitude": 25.25,
    "longitude": 71.75
  },
  {
    "name": "nagari",
    "cc2": "24",
    "latitude": 24.97566,
    "longitude": 74.68246
  },
  {
    "name": "nagar",
    "cc2": "24",
    "latitude": 27.42397,
    "longitude": 77.09922
  },
  {
    "name": "nagar",
    "cc2": "24",
    "latitude": 26.46419,
    "longitude": 75.20382
  },
  {
    "name": "nagar",
    "cc2": "24",
    "latitude": 25.90016,
    "longitude": 75.82573
  },
  {
    "name": "nadol",
    "cc2": "24",
    "latitude": 25.36836,
    "longitude": 73.45617
  },
  {
    "name": "nadigaon",
    "cc2": "24",
    "latitude": 26.15304,
    "longitude": 77.02763
  },
  {
    "name": "nadbai",
    "cc2": "24",
    "latitude": 27.22288,
    "longitude": 77.19569
  },
  {
    "name": "nadanpur",
    "cc2": "24",
    "latitude": 26.65344,
    "longitude": 77.40142
  },
  {
    "name": "nachna",
    "cc2": "24",
    "latitude": 27.51008,
    "longitude": 71.72327
  },
  {
    "name": "myajlar",
    "cc2": "24",
    "latitude": 26.2549,
    "longitude": 70.38049
  },
  {
    "name": "musipur",
    "cc2": "24",
    "latitude": 27.69742,
    "longitude": 77.23227
  },
  {
    "name": "murhar",
    "cc2": "24",
    "latitude": 26.61486,
    "longitude": 69.98132
  },
  {
    "name": "mujasar",
    "cc2": "24",
    "latitude": 27.13231,
    "longitude": 72.63295
  },
  {
    "name": "mingsaria",
    "cc2": "24",
    "latitude": 27.90287,
    "longitude": 74.15304
  },
  {
    "name": "mungiasar",
    "cc2": "24",
    "latitude": 26.07095,
    "longitude": 70.49738
  },
  {
    "name": "mungana",
    "cc2": "24",
    "latitude": 23.95995,
    "longitude": 74.4526
  },
  {
    "name": "mundwara",
    "cc2": "24",
    "latitude": 24.8295,
    "longitude": 72.55265
  },
  {
    "name": "mundwa",
    "cc2": "24",
    "latitude": 27.0631,
    "longitude": 73.82304
  },
  {
    "name": "mundsar",
    "cc2": "24",
    "latitude": 27.93029,
    "longitude": 73.64742
  },
  {
    "name": "mundara",
    "cc2": "24",
    "latitude": 25.19972,
    "longitude": 73.38567
  },
  {
    "name": "munda",
    "cc2": "24",
    "latitude": 29.47184,
    "longitude": 74.40878
  },
  {
    "name": "munaba",
    "cc2": "24",
    "latitude": 25.74346,
    "longitude": 70.27774
  },
  {
    "name": "mummasar",
    "cc2": "24",
    "latitude": 28.2094,
    "longitude": 74.28794
  },
  {
    "name": "muklawa",
    "cc2": "24",
    "latitude": 29.51684,
    "longitude": 73.58003
  },
  {
    "name": "mokhab",
    "cc2": "24",
    "latitude": 26.22634,
    "longitude": 71.49718
  },
  {
    "name": "mukandara",
    "cc2": "24",
    "latitude": 24.81667,
    "longitude": 75.98333
  },
  {
    "name": "muhar",
    "cc2": "24",
    "latitude": 26.93037,
    "longitude": 70.15602
  },
  {
    "name": "muhammadgarh",
    "cc2": "24",
    "latitude": 25.936,
    "longitude": 75.94188
  },
  {
    "name": "mua",
    "cc2": "24",
    "latitude": 25.28333,
    "longitude": 75.16667
  },
  {
    "name": "mozamabad",
    "cc2": "24",
    "latitude": 26.67284,
    "longitude": 75.35978
  },
  {
    "name": "motpur",
    "cc2": "24",
    "latitude": 24.74261,
    "longitude": 76.62275
  },
  {
    "name": "motigarh",
    "cc2": "24",
    "latitude": 28.48397,
    "longitude": 73.11383
  },
  {
    "name": "motasur",
    "cc2": "24",
    "latitude": 28.64652,
    "longitude": 73.43362
  },
  {
    "name": "motel",
    "cc2": "24",
    "latitude": 27.29588,
    "longitude": 72.61772
  },
  {
    "name": "motagaon",
    "cc2": "24",
    "latitude": 23.80493,
    "longitude": 74.25337
  },
  {
    "name": "mortaro",
    "cc2": "24",
    "latitude": 25.01667,
    "longitude": 72.46667
  },
  {
    "name": "morsim",
    "cc2": "24",
    "latitude": 25.1676,
    "longitude": 71.90645
  },
  {
    "name": "morara",
    "cc2": "24",
    "latitude": 26.80856,
    "longitude": 76.81103
  },
  {
    "name": "morla",
    "cc2": "24",
    "latitude": 26.35758,
    "longitude": 75.19692
  },
  {
    "name": "morjhanda",
    "cc2": "24",
    "latitude": 29.76404,
    "longitude": 74.07459
  },
  {
    "name": "morja",
    "cc2": "24",
    "latitude": 24.08194,
    "longitude": 73.23348
  },
  {
    "name": "mori kalan",
    "cc2": "24",
    "latitude": 26.67904,
    "longitude": 74.48515
  },
  {
    "name": "moras",
    "cc2": "24",
    "latitude": 24.67842,
    "longitude": 73.09185
  },
  {
    "name": "morak",
    "cc2": "24",
    "latitude": 24.7266,
    "longitude": 75.95576
  },
  {
    "name": "mor",
    "cc2": "24",
    "latitude": 26.13676,
    "longitude": 75.43265
  },
  {
    "name": "momer",
    "cc2": "24",
    "latitude": 24.17129,
    "longitude": 73.12974
  },
  {
    "name": "molania",
    "cc2": "24",
    "latitude": 28.26667,
    "longitude": 73.56667
  },
  {
    "name": "mokheri",
    "cc2": "24",
    "latitude": 27.06396,
    "longitude": 72.3125
  },
  {
    "name": "mokhatra",
    "cc2": "24",
    "latitude": 24.80053,
    "longitude": 72.04014
  },
  {
    "name": "mohkampura",
    "cc2": "24",
    "latitude": 28.69888,
    "longitude": 73.83754
  },
  {
    "name": "mokam",
    "cc2": "24",
    "latitude": 27.62503,
    "longitude": 73.61938
  },
  {
    "name": "mokalsar",
    "cc2": "24",
    "latitude": 28.99876,
    "longitude": 73.90197
  },
  {
    "name": "mokalsar",
    "cc2": "24",
    "latitude": 25.60436,
    "longitude": 72.50965
  },
  {
    "name": "mokala",
    "cc2": "24",
    "latitude": 26.62871,
    "longitude": 73.93423
  },
  {
    "name": "mokal",
    "cc2": "24",
    "latitude": 27.12968,
    "longitude": 70.75984
  },
  {
    "name": "moi kalan",
    "cc2": "24",
    "latitude": 24.8603,
    "longitude": 76.41452
  },
  {
    "name": "mahwa kalan",
    "cc2": "24",
    "latitude": 27.45314,
    "longitude": 76.5986
  },
  {
    "name": "mohana",
    "cc2": "24",
    "latitude": 26.79648,
    "longitude": 75.72796
  },
  {
    "name": "mogra khurd",
    "cc2": "24",
    "latitude": 26.12656,
    "longitude": 73.05886
  },
  {
    "name": "mogra kalan",
    "cc2": "24",
    "latitude": 26.12763,
    "longitude": 73.0503
  },
  {
    "name": "mogra",
    "cc2": "24",
    "latitude": 26.13333,
    "longitude": 73.05
  },
  {
    "name": "modran",
    "cc2": "24",
    "latitude": 25.18426,
    "longitude": 72.43039
  },
  {
    "name": "meethari marwar",
    "cc2": "24",
    "latitude": 27.57615,
    "longitude": 74.68661
  },
  {
    "name": "mithria",
    "cc2": "24",
    "latitude": 27.86939,
    "longitude": 72.4668
  },
  {
    "name": "mithri",
    "cc2": "24",
    "latitude": 27.05995,
    "longitude": 74.91723
  },
  {
    "name": "mithri",
    "cc2": "24",
    "latitude": 25.43352,
    "longitude": 72.69686
  },
  {
    "name": "mirzawala",
    "cc2": "24",
    "latitude": 29.96814,
    "longitude": 73.74648
  },
  {
    "name": "merpur",
    "cc2": "24",
    "latitude": 24.64342,
    "longitude": 73.23755
  },
  {
    "name": "miron",
    "cc2": "24",
    "latitude": 26.19526,
    "longitude": 75.37816
  },
  {
    "name": "miran",
    "cc2": "24",
    "latitude": 27.68706,
    "longitude": 74.87043
  },
  {
    "name": "miniari",
    "cc2": "24",
    "latitude": 25.66739,
    "longitude": 73.11963
  },
  {
    "name": "milakpur",
    "cc2": "24",
    "latitude": 27.55238,
    "longitude": 76.86945
  },
  {
    "name": "mianwali",
    "cc2": "24",
    "latitude": 29.8035,
    "longitude": 73.85946
  },
  {
    "name": "marwa",
    "cc2": "24",
    "latitude": 26.75268,
    "longitude": 71.90509
  },
  {
    "name": "merta",
    "cc2": "24",
    "latitude": 26.64859,
    "longitude": 74.03414
  },
  {
    "name": "mendwas",
    "cc2": "24",
    "latitude": 26.07305,
    "longitude": 75.71273
  },
  {
    "name": "melusar",
    "cc2": "24",
    "latitude": 28.20898,
    "longitude": 74.53678
  },
  {
    "name": "meli",
    "cc2": "24",
    "latitude": 25.72431,
    "longitude": 72.46926
  },
  {
    "name": "meja",
    "cc2": "24",
    "latitude": 25.40969,
    "longitude": 74.55389
  },
  {
    "name": "mehrun",
    "cc2": "24",
    "latitude": 25.76656,
    "longitude": 75.14413
  },
  {
    "name": "mehidpur",
    "cc2": "24",
    "latitude": 23.81667,
    "longitude": 75.66667
  },
  {
    "name": "mengalwa",
    "cc2": "24",
    "latitude": 25.29944,
    "longitude": 72.20396
  },
  {
    "name": "mawal",
    "cc2": "24",
    "latitude": 24.43932,
    "longitude": 72.71177
  },
  {
    "name": "maoli",
    "cc2": "24",
    "latitude": 24.78348,
    "longitude": 73.98389
  },
  {
    "name": "maulasar",
    "cc2": "24",
    "latitude": 27.30663,
    "longitude": 74.73251
  },
  {
    "name": "maujpur",
    "cc2": "24",
    "latitude": 27.36297,
    "longitude": 76.80505
  },
  {
    "name": "mau",
    "cc2": "24",
    "latitude": 27.42715,
    "longitude": 75.6423
  },
  {
    "name": "mau",
    "cc2": "24",
    "latitude": 26.8214,
    "longitude": 77.0099
  },
  {
    "name": "mau",
    "cc2": "24",
    "latitude": 25.36667,
    "longitude": 76.51667
  },
  {
    "name": "mau",
    "cc2": "24",
    "latitude": 24.5678,
    "longitude": 76.34144
  },
  {
    "name": "matugamra",
    "cc2": "24",
    "latitude": 23.8888,
    "longitude": 73.72607
  },
  {
    "name": "mathna",
    "cc2": "24",
    "latitude": 25.15,
    "longitude": 76.55
  },
  {
    "name": "mathania",
    "cc2": "24",
    "latitude": 26.53028,
    "longitude": 72.97943
  },
  {
    "name": "matasara",
    "cc2": "24",
    "latitude": 24.78333,
    "longitude": 75.58333
  },
  {
    "name": "masuda",
    "cc2": "24",
    "latitude": 26.09263,
    "longitude": 74.50638
  },
  {
    "name": "malsisar",
    "cc2": "24",
    "latitude": 28.97232,
    "longitude": 75.02141
  },
  {
    "name": "marwa",
    "cc2": "24",
    "latitude": 26.79748,
    "longitude": 74.95062
  },
  {
    "name": "marot",
    "cc2": "24",
    "latitude": 27.09537,
    "longitude": 75.08491
  },
  {
    "name": "maramda",
    "cc2": "24",
    "latitude": 26.26811,
    "longitude": 76.89583
  },
  {
    "name": "marakpur",
    "cc2": "24",
    "latitude": 27.7,
    "longitude": 76.85
  },
  {
    "name": "mavanda tarla",
    "cc2": "24",
    "latitude": 27.81827,
    "longitude": 75.80807
  },
  {
    "name": "manpur",
    "cc2": "24",
    "latitude": 26.97372,
    "longitude": 76.68125
  },
  {
    "name": "manpur",
    "cc2": "24",
    "latitude": 24.24883,
    "longitude": 73.29614
  },
  {
    "name": "manohar thana",
    "cc2": "24",
    "latitude": 24.24,
    "longitude": 76.80182
  },
  {
    "name": "manoharpur",
    "cc2": "24",
    "latitude": 27.29769,
    "longitude": 75.9495
  },
  {
    "name": "manna",
    "cc2": "24",
    "latitude": 28.56493,
    "longitude": 73.38877
  },
  {
    "name": "mankasar",
    "cc2": "24",
    "latitude": 28.04313,
    "longitude": 72.47551
  },
  {
    "name": "maniwali",
    "cc2": "24",
    "latitude": 29.81083,
    "longitude": 74.1413
  },
  {
    "name": "mania",
    "cc2": "24",
    "latitude": 26.82098,
    "longitude": 77.91744
  },
  {
    "name": "mangta",
    "cc2": "24",
    "latitude": 25.36492,
    "longitude": 71.3913
  },
  {
    "name": "mangrop",
    "cc2": "24",
    "latitude": 25.23604,
    "longitude": 74.68668
  },
  {
    "name": "mangrol",
    "cc2": "24",
    "latitude": 25.33061,
    "longitude": 76.50973
  },
  {
    "name": "mangliawas",
    "cc2": "24",
    "latitude": 26.27499,
    "longitude": 74.50527
  },
  {
    "name": "mangalwara",
    "cc2": "24",
    "latitude": 26.61846,
    "longitude": 75.27862
  },
  {
    "name": "mangarwar",
    "cc2": "24",
    "latitude": 24.59277,
    "longitude": 74.29515
  },
  {
    "name": "mangana",
    "cc2": "24",
    "latitude": 24.87923,
    "longitude": 74.26382
  },
  {
    "name": "mandavla",
    "cc2": "24",
    "latitude": 25.42622,
    "longitude": 72.51904
  },
  {
    "name": "mandrael",
    "cc2": "24",
    "latitude": 26.30157,
    "longitude": 77.23759
  },
  {
    "name": "mandor",
    "cc2": "24",
    "latitude": 26.34862,
    "longitude": 73.04408
  },
  {
    "name": "mandha",
    "cc2": "24",
    "latitude": 27.57381,
    "longitude": 76.15717
  },
  {
    "name": "mando",
    "cc2": "24",
    "latitude": 23.77361,
    "longitude": 73.92615
  },
  {
    "name": "mandli",
    "cc2": "24",
    "latitude": 23.53396,
    "longitude": 73.64267
  },
  {
    "name": "madhan",
    "cc2": "24",
    "latitude": 28.10847,
    "longitude": 76.37808
  },
  {
    "name": "mandera",
    "cc2": "24",
    "latitude": 24.88333,
    "longitude": 75.48333
  },
  {
    "name": "mendli",
    "cc2": "24",
    "latitude": 27.41225,
    "longitude": 73.79142
  },
  {
    "name": "mandrela",
    "cc2": "24",
    "latitude": 28.31365,
    "longitude": 75.43514
  },
  {
    "name": "mandavas",
    "cc2": "24",
    "latitude": 25.82872,
    "longitude": 72.943
  },
  {
    "name": "mandawar",
    "cc2": "24",
    "latitude": 27.86374,
    "longitude": 76.54999
  },
  {
    "name": "mandawar",
    "cc2": "24",
    "latitude": 26.1629,
    "longitude": 75.9699
  },
  {
    "name": "mandawar",
    "cc2": "24",
    "latitude": 24.57489,
    "longitude": 76.24335
  },
  {
    "name": "mandawa",
    "cc2": "24",
    "latitude": 28.05541,
    "longitude": 75.14834
  },
  {
    "name": "mandar",
    "cc2": "24",
    "latitude": 24.55915,
    "longitude": 72.38222
  },
  {
    "name": "mandaori",
    "cc2": "24",
    "latitude": 26.48496,
    "longitude": 76.43726
  },
  {
    "name": "baleta",
    "cc2": "24",
    "latitude": 27.35372,
    "longitude": 76.55227
  },
  {
    "name": "mandavara",
    "cc2": "24",
    "latitude": 27.04975,
    "longitude": 74.83794
  },
  {
    "name": "manana",
    "cc2": "24",
    "latitude": 27.08051,
    "longitude": 74.57046
  },
  {
    "name": "mandana",
    "cc2": "24",
    "latitude": 24.95,
    "longitude": 75.93333
  },
  {
    "name": "mandalgarh",
    "cc2": "24",
    "latitude": 25.19407,
    "longitude": 75.07215
  },
  {
    "name": "mandal charan",
    "cc2": "24",
    "latitude": 27.76767,
    "longitude": 72.71857
  },
  {
    "name": "mandal",
    "cc2": "24",
    "latitude": 25.44126,
    "longitude": 74.56979
  },
  {
    "name": "mandakla",
    "cc2": "24",
    "latitude": 24.45101,
    "longitude": 74.09161
  },
  {
    "name": "mandai",
    "cc2": "24",
    "latitude": 26.37971,
    "longitude": 71.14313
  },
  {
    "name": "mandha",
    "cc2": "24",
    "latitude": 27.35495,
    "longitude": 70.98218
  },
  {
    "name": "manda",
    "cc2": "24",
    "latitude": 25.76056,
    "longitude": 73.74349
  },
  {
    "name": "mainasar",
    "cc2": "24",
    "latitude": 27.92979,
    "longitude": 74.6845
  },
  {
    "name": "manaklav",
    "cc2": "24",
    "latitude": 26.44274,
    "longitude": 73.00823
  },
  {
    "name": "manakhur",
    "cc2": "24",
    "latitude": 26.40721,
    "longitude": 77.27432
  },
  {
    "name": "manadar",
    "cc2": "24",
    "latitude": 25.18749,
    "longitude": 72.82786
  },
  {
    "name": "mamarkhera",
    "cc2": "24",
    "latitude": 29.7757,
    "longitude": 74.06222
  },
  {
    "name": "mamana",
    "cc2": "24",
    "latitude": 26.80783,
    "longitude": 75.0517
  },
  {
    "name": "malwara",
    "cc2": "24",
    "latitude": 24.77871,
    "longitude": 72.28676
  },
  {
    "name": "mallu ani",
    "cc2": "24",
    "latitude": 29.37901,
    "longitude": 74.84972
  },
  {
    "name": "malsisar",
    "cc2": "24",
    "latitude": 28.35365,
    "longitude": 75.29749
  },
  {
    "name": "malsisar",
    "cc2": "24",
    "latitude": 27.7471,
    "longitude": 74.58318
  },
  {
    "name": "malpura",
    "cc2": "24",
    "latitude": 26.2838,
    "longitude": 75.36458
  },
  {
    "name": "maloni",
    "cc2": "24",
    "latitude": 26.7821,
    "longitude": 77.83849
  },
  {
    "name": "malar",
    "cc2": "24",
    "latitude": 27.20303,
    "longitude": 72.38268
  },
  {
    "name": "malarnadungar",
    "cc2": "24",
    "latitude": 26.28857,
    "longitude": 76.47199
  },
  {
    "name": "malara",
    "cc2": "24",
    "latitude": 25.87111,
    "longitude": 75.30737
  },
  {
    "name": "malakhera",
    "cc2": "24",
    "latitude": 27.38767,
    "longitude": 76.62655
  },
  {
    "name": "mala",
    "cc2": "24",
    "latitude": 26.54282,
    "longitude": 75.10185
  },
  {
    "name": "mukandgarh",
    "cc2": "24",
    "latitude": 27.95208,
    "longitude": 75.22431
  },
  {
    "name": "makrasar",
    "cc2": "24",
    "latitude": 28.42136,
    "longitude": 73.3721
  },
  {
    "name": "makrana",
    "cc2": "24",
    "latitude": 27.04361,
    "longitude": 74.72445
  },
  {
    "name": "ratanshahr",
    "cc2": "24",
    "latitude": 28.15578,
    "longitude": 75.54017
  },
  {
    "name": "majal",
    "cc2": "24",
    "latitude": 25.81396,
    "longitude": 72.70655
  },
  {
    "name": "mairh",
    "cc2": "24",
    "latitude": 27.35333,
    "longitude": 76.14946
  },
  {
    "name": "mahwa",
    "cc2": "24",
    "latitude": 27.04594,
    "longitude": 76.93152
  },
  {
    "name": "mahodra",
    "cc2": "24",
    "latitude": 25.07678,
    "longitude": 77.03261
  },
  {
    "name": "mahlan",
    "cc2": "24",
    "latitude": 26.80881,
    "longitude": 75.47844
  },
  {
    "name": "mahamandir",
    "cc2": "24",
    "latitude": 26.30651,
    "longitude": 73.04233
  },
  {
    "name": "mahajan",
    "cc2": "24",
    "latitude": 28.78613,
    "longitude": 73.84354
  },
  {
    "name": "magluna",
    "cc2": "24",
    "latitude": 27.74776,
    "longitude": 74.78837
  },
  {
    "name": "madri",
    "cc2": "24",
    "latitude": 24.24994,
    "longitude": 73.4867
  },
  {
    "name": "madli",
    "cc2": "24",
    "latitude": 26.16578,
    "longitude": 72.51698
  },
  {
    "name": "madiali",
    "cc2": "24",
    "latitude": 28.7072,
    "longitude": 73.30617
  },
  {
    "name": "madhorajpura",
    "cc2": "24",
    "latitude": 26.57812,
    "longitude": 75.64467
  },
  {
    "name": "madhopura",
    "cc2": "24",
    "latitude": 25.98547,
    "longitude": 72.95812
  },
  {
    "name": "madawara",
    "cc2": "24",
    "latitude": 25.36667,
    "longitude": 76.15
  },
  {
    "name": "madanganj",
    "cc2": "24",
    "latitude": 26.59549,
    "longitude": 74.84976
  },
  {
    "name": "machilpur",
    "cc2": "24",
    "latitude": 26.63122,
    "longitude": 77.2319
  },
  {
    "name": "macheri",
    "cc2": "24",
    "latitude": 27.24978,
    "longitude": 76.66297
  },
  {
    "name": "lutu",
    "cc2": "24",
    "latitude": 28.21476,
    "longitude": 75.25062
  },
  {
    "name": "lunsara",
    "cc2": "24",
    "latitude": 27.00389,
    "longitude": 74.03772
  },
  {
    "name": "lunkaransar",
    "cc2": "24",
    "latitude": 28.50128,
    "longitude": 73.75525
  },
  {
    "name": "luni junction",
    "cc2": "24",
    "latitude": 26.00368,
    "longitude": 73.0059
  },
  {
    "name": "lunda",
    "cc2": "24",
    "latitude": 24.38921,
    "longitude": 74.32567
  },
  {
    "name": "lunawa",
    "cc2": "24",
    "latitude": 25.13348,
    "longitude": 73.31985
  },
  {
    "name": "lunar",
    "cc2": "24",
    "latitude": 26.60552,
    "longitude": 70.22721
  },
  {
    "name": "luna",
    "cc2": "24",
    "latitude": 26.68459,
    "longitude": 71.58064
  },
  {
    "name": "luharu",
    "cc2": "24",
    "latitude": 27.16156,
    "longitude": 77.31446
  },
  {
    "name": "luhara",
    "cc2": "24",
    "latitude": 26.46584,
    "longitude": 75.97292
  },
  {
    "name": "lowan",
    "cc2": "24",
    "latitude": 26.76977,
    "longitude": 76.21339
  },
  {
    "name": "lotwara",
    "cc2": "24",
    "latitude": 27.00628,
    "longitude": 76.74547
  },
  {
    "name": "losal",
    "cc2": "24",
    "latitude": 27.4,
    "longitude": 74.91667
  },
  {
    "name": "lordi",
    "cc2": "24",
    "latitude": 26.42501,
    "longitude": 73.13732
  },
  {
    "name": "lolawa",
    "cc2": "24",
    "latitude": 25.37243,
    "longitude": 71.8342
  },
  {
    "name": "lohsana bara",
    "cc2": "24",
    "latitude": 28.42824,
    "longitude": 75.19146
  },
  {
    "name": "lohawat",
    "cc2": "24",
    "latitude": 26.98214,
    "longitude": 72.57991
  },
  {
    "name": "loharwara",
    "cc2": "24",
    "latitude": 26.25243,
    "longitude": 74.79075
  },
  {
    "name": "loharia",
    "cc2": "24",
    "latitude": 23.76126,
    "longitude": 74.22243
  },
  {
    "name": "lohari kalan",
    "cc2": "24",
    "latitude": 25.65367,
    "longitude": 75.38925
  },
  {
    "name": "lohariya",
    "cc2": "24",
    "latitude": 25.47866,
    "longitude": 74.43033
  },
  {
    "name": "lapavali",
    "cc2": "24",
    "latitude": 26.80212,
    "longitude": 76.90322
  },
  {
    "name": "likhmisar",
    "cc2": "24",
    "latitude": 27.89782,
    "longitude": 73.87383
  },
  {
    "name": "lewali",
    "cc2": "24",
    "latitude": 26.56156,
    "longitude": 76.48977
  },
  {
    "name": "lawan",
    "cc2": "24",
    "latitude": 26.86909,
    "longitude": 72.03914
  },
  {
    "name": "lawa",
    "cc2": "24",
    "latitude": 26.35473,
    "longitude": 75.55991
  },
  {
    "name": "lavera kalan",
    "cc2": "24",
    "latitude": 26.73258,
    "longitude": 73.25664
  },
  {
    "name": "lototi",
    "cc2": "24",
    "latitude": 26.27594,
    "longitude": 73.84018
  },
  {
    "name": "lathi",
    "cc2": "24",
    "latitude": 27.03666,
    "longitude": 71.51684
  },
  {
    "name": "naswari",
    "cc2": "24",
    "latitude": 27.55202,
    "longitude": 76.93044
  },
  {
    "name": "lasrawan",
    "cc2": "24",
    "latitude": 24.65355,
    "longitude": 74.5785
  },
  {
    "name": "lasariya",
    "cc2": "24",
    "latitude": 25.35629,
    "longitude": 74.44799
  },
  {
    "name": "las",
    "cc2": "24",
    "latitude": 25.11065,
    "longitude": 72.8176
  },
  {
    "name": "lapur bara",
    "cc2": "24",
    "latitude": 29.41469,
    "longitude": 73.27689
  },
  {
    "name": "lapundra",
    "cc2": "24",
    "latitude": 26.10349,
    "longitude": 72.08031
  },
  {
    "name": "lampolai",
    "cc2": "24",
    "latitude": 26.64154,
    "longitude": 74.18975
  },
  {
    "name": "lambia",
    "cc2": "24",
    "latitude": 26.395,
    "longitude": 74.0635
  },
  {
    "name": "lambana",
    "cc2": "24",
    "latitude": 26.23625,
    "longitude": 74.47998
  },
  {
    "name": "lamba harisingh",
    "cc2": "24",
    "latitude": 26.3047,
    "longitude": 75.16259
  },
  {
    "name": "lamakho",
    "cc2": "24",
    "latitude": 25.05259,
    "longitude": 75.47555
  },
  {
    "name": "lalsot",
    "cc2": "24",
    "latitude": 26.55951,
    "longitude": 76.32915
  },
  {
    "name": "lalsar",
    "cc2": "24",
    "latitude": 26.74333,
    "longitude": 76.5934
  },
  {
    "name": "lakhusar",
    "cc2": "24",
    "latitude": 28.33048,
    "longitude": 73.19194
  },
  {
    "name": "lakhola",
    "cc2": "24",
    "latitude": 25.17074,
    "longitude": 74.29496
  },
  {
    "name": "lakhmana",
    "cc2": "24",
    "latitude": 26.61312,
    "longitude": 71.25699
  },
  {
    "name": "lakheri",
    "cc2": "24",
    "latitude": 25.67237,
    "longitude": 76.17692
  },
  {
    "name": "lakhasar",
    "cc2": "24",
    "latitude": 29.56089,
    "longitude": 73.96843
  },
  {
    "name": "lakhasar",
    "cc2": "24",
    "latitude": 28.10078,
    "longitude": 73.8687
  },
  {
    "name": "lakha",
    "cc2": "24",
    "latitude": 26.14627,
    "longitude": 70.98128
  },
  {
    "name": "lakawas",
    "cc2": "24",
    "latitude": 24.54887,
    "longitude": 73.8117
  },
  {
    "name": "lahsora",
    "cc2": "24",
    "latitude": 25.82818,
    "longitude": 76.42103
  },
  {
    "name": "lahas",
    "cc2": "24",
    "latitude": 24.38203,
    "longitude": 76.64483
  },
  {
    "name": "ladpura",
    "cc2": "24",
    "latitude": 25.15,
    "longitude": 75.11667
  },
  {
    "name": "ladnun",
    "cc2": "24",
    "latitude": 27.65312,
    "longitude": 74.39993
  },
  {
    "name": "lachhora",
    "cc2": "24",
    "latitude": 25.59588,
    "longitude": 74.35946
  },
  {
    "name": "laxmangarh",
    "cc2": "24",
    "latitude": 27.82294,
    "longitude": 75.02754
  },
  {
    "name": "lachhmangarh",
    "cc2": "24",
    "latitude": 27.3659,
    "longitude": 76.85992
  },
  {
    "name": "lachharsar",
    "cc2": "24",
    "latitude": 28.1026,
    "longitude": 74.3497
  },
  {
    "name": "laban",
    "cc2": "24",
    "latitude": 25.54885,
    "longitude": 76.22622
  },
  {
    "name": "kusthali",
    "cc2": "24",
    "latitude": 25.97215,
    "longitude": 76.29091
  },
  {
    "name": "kushalpura",
    "cc2": "24",
    "latitude": 26.09708,
    "longitude": 73.9562
  },
  {
    "name": "kushalgarh",
    "cc2": "24",
    "latitude": 23.19899,
    "longitude": 74.45074
  },
  {
    "name": "kuraj",
    "cc2": "24",
    "latitude": 25.07435,
    "longitude": 74.0984
  },
  {
    "name": "kurki",
    "cc2": "24",
    "latitude": 26.43544,
    "longitude": 74.24884
  },